id|name|city|price|lat|long|p|t|l|fresh
5651720|Sunrise Inn Hotel|Las Vegas, NV|90|36.218125|-115.12921|TRUE|FALSE|FALSE|TRUE
5651720|Hilton Grand Vacations Club Elara Center Strip Las Vegas|Las Vegas, NV|462|36.1088102|-115.16832|FALSE|TRUE|TRUE|TRUE
5651720|Embassy Suites by Hilton Las Vegas|Las Vegas, NV|404|36.110886|-115.15123|FALSE|FALSE|TRUE|TRUE
5651720|Mardi Gras Hotel & Casino|Las Vegas, NV|67|36.125493|-115.15446|TRUE|FALSE|FALSE|TRUE
5651720|The Palazzo Prestige Club Lounge|Las Vegas, NV|612|36.124005|-115.16796|FALSE|FALSE|TRUE|TRUE
5651720|Arizona Charlie's Decatur|Las Vegas, NV|90|36.163458|-115.20736|TRUE|FALSE|FALSE|TRUE
5651720|Virgin Hotels Las Vegas, Curio Collection by Hilton|Las Vegas, NV|408|36.108774|-115.15373|FALSE|FALSE|TRUE|TRUE
5651720|Residence Inn by Marriott Las Vegas South|Las Vegas, NV|452|36.0829403|-115.18286|FALSE|FALSE|TRUE|TRUE
5651720|The ENGLISH Hotel, Las Vegas, a Tribute Portfolio Hotel|Las Vegas, NV|397|36.161463|-115.15223|FALSE|FALSE|TRUE|TRUE
5651720|Alexis Park All Suite Resort|Las Vegas, NV|142|36.107615|-115.15554|FALSE|TRUE|FALSE|TRUE
5651720|Silver Sevens Hotel & Casino|Las Vegas, NV|104|36.113762|-115.15265|TRUE|FALSE|FALSE|TRUE
5651720|OYO Hotel and Casino Las Vegas|Las Vegas, NV|181|36.10039|-115.16772|FALSE|TRUE|FALSE|TRUE
5651720|Serene Vegas Boutique Hotel|Las Vegas, NV|135|36.1077604|-115.15404|FALSE|TRUE|FALSE|TRUE
5651720|Crockfords Las Vegas, LXR Hotels & Resorts at Resorts World|Las Vegas, NV|433|36.13492|-115.16582|FALSE|FALSE|TRUE|TRUE
5651720|Hilton Garden Inn Las Vegas/Henderson|Las Vegas, NV|103|36.056916|-115.04320|TRUE|FALSE|FALSE|TRUE
5651720|Howard Johnson by Wyndham Las Vegas near the Strip|Las Vegas, NV|67|36.09948|-115.16580|TRUE|TRUE|FALSE|TRUE
5651720|Oasis at Gold Spike - Adults Only|Las Vegas, NV|105|36.170946|-115.13982|TRUE|FALSE|FALSE|TRUE
5651720|Bellagio|Las Vegas, NV|584|36.11311|-115.17701|FALSE|TRUE|TRUE|TRUE
5651720|Super 8 by Wyndham Las Vegas North Strip/Fremont St. Area|Las Vegas, NV|68|36.15606|-115.14829|TRUE|FALSE|FALSE|TRUE
5651720|Palms Casino Resort|Las Vegas, NV|208|36.114436|-115.19482|FALSE|TRUE|FALSE|TRUE
5651720|Courtyard by Marriott Las Vegas South|Las Vegas, NV|374|36.0838236|-115.18304|FALSE|TRUE|FALSE|TRUE
5651720|The Venetian Prestige Club Lounge|Las Vegas, NV|515|36.121174|-115.16965|FALSE|TRUE|TRUE|TRUE
5651720|The Palazzo at The Venetian|Las Vegas, NV|386|36.124005|-115.16796|FALSE|FALSE|TRUE|TRUE
5651720|Arizona Charlie's Boulder|Las Vegas, NV|79|36.12406|-115.07554|TRUE|FALSE|FALSE|TRUE
5651720|Extended Stay America Suites Las Vegas Midtown|Las Vegas, NV|102|36.135139|-115.13787|TRUE|FALSE|FALSE|TRUE
5651720|Extended Stay America Suites Las Vegas Valley View|Las Vegas, NV|113|36.1124847|-115.18932|FALSE|TRUE|FALSE|TRUE
5655711|Holiday Inn Express Brooklyn, an IHG Hotel|Brooklyn, NY|250|40.678161| -73.98431|FALSE|TRUE|FALSE|TRUE
5655711|WestHouse New York|Brooklyn, NY|776|40.764554| -73.98137|FALSE|FALSE|TRUE|TRUE
5655711|Aloft New York Brooklyn|Brooklyn, NY|190|40.69173| -73.98467|FALSE|TRUE|FALSE|TRUE
5655711|SureStay Hotel by Best Western Secaucus Meadowlands|Brooklyn, NY|106|40.788781| -74.04623|TRUE|FALSE|FALSE|TRUE
5655711|Hampton Inn Brooklyn/Downtown|Brooklyn, NY|304|40.695706| -73.98402|FALSE|TRUE|FALSE|TRUE
5655711|Hotel Barriere Fouquets New York|Brooklyn, NY|1298|40.723617| -74.00975|FALSE|FALSE|TRUE|TRUE
5655711|InterContinental New York Barclay, an IHG Hotel|Brooklyn, NY|687|40.755663| -73.97353|FALSE|FALSE|TRUE|TRUE
5655711|Rodeway Inn Meadowlands|Brooklyn, NY|94|40.792918| -74.05712|TRUE|FALSE|FALSE|TRUE
5655711|Ace Hotel Brooklyn|Brooklyn, NY|317|40.687837| -73.98373|FALSE|TRUE|FALSE|TRUE
5655711|Lex View Inn at JFK Airport|Brooklyn, NY|117|40.7027223| -73.81528|TRUE|FALSE|FALSE|TRUE
5655711|NU Hotel Brooklyn|Brooklyn, NY|303|40.68883| -73.98880|FALSE|TRUE|FALSE|TRUE
5655711|Sheraton Brooklyn New York Hotel|Brooklyn, NY|312|40.69155| -73.98448|FALSE|TRUE|FALSE|TRUE
5655711|The Times Square EDITION|Brooklyn, NY|1002|40.759149| -73.98416|FALSE|FALSE|TRUE|TRUE
5655711|Holiday Inn Brooklyn Downtown, an IHG Hotel|Brooklyn, NY|268|40.687496| -73.98268|FALSE|TRUE|FALSE|TRUE
5655711|Flushing Central Hotel|Brooklyn, NY|106|40.760691| -73.83161|TRUE|FALSE|FALSE|TRUE
5655711|Hotel Le Bleu|Brooklyn, NY|293|40.67327| -73.98710|FALSE|TRUE|FALSE|TRUE
5655711|Essence Collection Staten Island|Brooklyn, NY|117|40.608422| -74.07680|TRUE|FALSE|FALSE|TRUE
5655711|The Beekman, A Thompson Hotel|Brooklyn, NY|639|40.711213| -74.00690|FALSE|FALSE|TRUE|TRUE
5655711|The Wall Street Hotel|Brooklyn, NY|702|40.705571| -74.00766|FALSE|FALSE|TRUE|TRUE
5655711|Hotel Key LaGuardia Airport|Brooklyn, NY|117|40.765366| -73.83173|TRUE|FALSE|FALSE|TRUE
5655711|Flushing Hotel|Brooklyn, NY|94|40.767499| -73.83308|TRUE|FALSE|FALSE|TRUE
5655711|Haiban Inn|Brooklyn, NY|117|40.735371| -74.06468|TRUE|FALSE|FALSE|TRUE
5655711|Surface Inn Brooklyn|Brooklyn, NY|111|40.66949| -73.90902|TRUE|FALSE|FALSE|TRUE
5655711|Airport Plaza Hotel JFK Airport|Brooklyn, NY|107|40.699652| -73.81113|TRUE|FALSE|FALSE|TRUE
5655711|EVEN Hotel Brooklyn, an IHG Hotel|Brooklyn, NY|260|40.687558| -73.98184|FALSE|TRUE|FALSE|TRUE
5655711|Casa Blanca Hotel Brooklyn|Brooklyn, NY|145|40.69638| -73.97384|FALSE|TRUE|FALSE|TRUE
5655711|Hillside Hotel|Brooklyn, NY|115|40.703716| -73.81475|TRUE|FALSE|FALSE|TRUE
5655711|The Dominick|Brooklyn, NY|917|40.72547| -74.00533|FALSE|FALSE|TRUE|TRUE
5655711|Equinox Hotel New York|Brooklyn, NY|1329|40.754651| -74.00221|FALSE|FALSE|TRUE|TRUE
5655711|East New York Inn|Brooklyn, NY|117|40.676167| -73.90323|TRUE|FALSE|FALSE|TRUE
5655711|Mr. C New York - Seaport|Brooklyn, NY|694|40.708059| -74.00145|FALSE|FALSE|TRUE|TRUE
5655711|Thatford Hotel|Brooklyn, NY|106|40.669406| -73.90947|TRUE|FALSE|FALSE|TRUE
5655711|Neptune Hotel|Brooklyn, NY|100|40.68786| -73.91880|TRUE|FALSE|FALSE|TRUE
5655711|The Towers at Lotte New York Palace|Brooklyn, NY|1535|40.757974| -73.97487|FALSE|FALSE|TRUE|TRUE
5655712|Flushing Central Hotel|Brooklyn, NY|106|40.760691| -73.83161|TRUE|FALSE|FALSE|TRUE
5655712|Lex View Inn at JFK Airport|Brooklyn, NY|117|40.7027223| -73.81528|TRUE|FALSE|FALSE|TRUE
5655712|WestHouse New York|Brooklyn, NY|776|40.764554| -73.98137|FALSE|FALSE|TRUE|TRUE
5655712|Hotel Le Bleu|Brooklyn, NY|293|40.67327| -73.98710|FALSE|TRUE|FALSE|TRUE
5655712|Holiday Inn Express Brooklyn, an IHG Hotel|Brooklyn, NY|250|40.678161| -73.98431|FALSE|TRUE|FALSE|TRUE
5655712|SureStay Hotel by Best Western Secaucus Meadowlands|Brooklyn, NY|106|40.788781| -74.04623|TRUE|FALSE|FALSE|TRUE
5655712|Essence Collection Staten Island|Brooklyn, NY|117|40.608422| -74.07680|TRUE|FALSE|FALSE|TRUE
5655712|Casa Blanca Hotel Brooklyn|Brooklyn, NY|145|40.69638| -73.97384|FALSE|TRUE|FALSE|TRUE
5655712|NU Hotel Brooklyn|Brooklyn, NY|303|40.68883| -73.98880|FALSE|TRUE|FALSE|TRUE
5655712|Haiban Inn|Brooklyn, NY|117|40.735371| -74.06468|TRUE|FALSE|FALSE|TRUE
5655712|Ace Hotel Brooklyn|Brooklyn, NY|317|40.687837| -73.98373|FALSE|TRUE|FALSE|TRUE
5655712|Hampton Inn Brooklyn/Downtown|Brooklyn, NY|304|40.695706| -73.98402|FALSE|TRUE|FALSE|TRUE
5655712|The Wall Street Hotel|Brooklyn, NY|702|40.705571| -74.00766|FALSE|FALSE|TRUE|TRUE
5655712|The Times Square EDITION|Brooklyn, NY|1002|40.759149| -73.98416|FALSE|FALSE|TRUE|TRUE
5655712|Equinox Hotel New York|Brooklyn, NY|1329|40.754651| -74.00221|FALSE|FALSE|TRUE|TRUE
5655712|East New York Inn|Brooklyn, NY|117|40.676167| -73.90323|TRUE|FALSE|FALSE|TRUE
5655712|Flushing Hotel|Brooklyn, NY|94|40.767499| -73.83308|TRUE|FALSE|FALSE|TRUE
5655712|Aloft New York Brooklyn|Brooklyn, NY|190|40.69173| -73.98467|FALSE|TRUE|FALSE|TRUE
5655712|Rodeway Inn Meadowlands|Brooklyn, NY|94|40.792918| -74.05712|TRUE|FALSE|FALSE|TRUE
5655712|The Dominick|Brooklyn, NY|856|40.72547| -74.00533|FALSE|FALSE|TRUE|TRUE
5655712|Holiday Inn Brooklyn Downtown, an IHG Hotel|Brooklyn, NY|268|40.687496| -73.98268|FALSE|TRUE|FALSE|TRUE
5655712|Hillside Hotel|Brooklyn, NY|96|40.703716| -73.81475|TRUE|FALSE|FALSE|TRUE
5655712|Hotel Barriere Fouquets New York|Brooklyn, NY|1298|40.723617| -74.00975|FALSE|FALSE|TRUE|TRUE
5655712|Surface Inn Brooklyn|Brooklyn, NY|111|40.66949| -73.90902|TRUE|FALSE|FALSE|TRUE
5655712|The Beekman, A Thompson Hotel|Brooklyn, NY|639|40.711213| -74.00690|FALSE|FALSE|TRUE|TRUE
5655712|The Towers at Lotte New York Palace|Brooklyn, NY|1535|40.757974| -73.97487|FALSE|FALSE|TRUE|TRUE
5655712|Sheraton Brooklyn New York Hotel|Brooklyn, NY|312|40.69155| -73.98448|FALSE|TRUE|FALSE|TRUE
5655712|Neptune Hotel|Brooklyn, NY|100|40.68786| -73.91880|TRUE|FALSE|FALSE|TRUE
5655712|Hotel Key LaGuardia Airport|Brooklyn, NY|117|40.765366| -73.83173|TRUE|FALSE|FALSE|TRUE
5655712|Mr. C New York - Seaport|Brooklyn, NY|694|40.708059| -74.00145|FALSE|FALSE|TRUE|TRUE
5655712|InterContinental New York Barclay, an IHG Hotel|Brooklyn, NY|687|40.755663| -73.97353|FALSE|FALSE|TRUE|TRUE
5655712|EVEN Hotel Brooklyn, an IHG Hotel|Brooklyn, NY|260|40.687558| -73.98184|FALSE|TRUE|FALSE|TRUE
5655712|Thatford Hotel|Brooklyn, NY|107|40.669406| -73.90947|TRUE|FALSE|FALSE|TRUE
5655712|Airport Plaza Hotel JFK Airport|Brooklyn, NY|107|40.699652| -73.81113|TRUE|FALSE|FALSE|TRUE
5679243|Civic Center Lodge|Berkeley, CA|103|37.795352|-122.26516|TRUE|FALSE|FALSE|TRUE
5679243|Nash Hotel|Berkeley, CA|134|37.872232|-122.26955|FALSE|TRUE|FALSE|TRUE
5679243|Jack London Inn|Berkeley, CA|87|37.795321|-122.27602|TRUE|FALSE|FALSE|TRUE
5679243|La Quinta Inn by Wyndham Berkeley|Berkeley, CA|121|37.86797|-122.29574|FALSE|TRUE|FALSE|TRUE
5679243|Europa Hotel|Berkeley, CA|78|37.798142|-122.40687|TRUE|FALSE|FALSE|TRUE
5679243|Quality Inn University|Berkeley, CA|123|37.87145|-122.27639|FALSE|TRUE|FALSE|TRUE
5679243|Taj Campton Place|Berkeley, CA|384|37.789217|-122.40680|FALSE|FALSE|TRUE|TRUE
5679243|Hotel North Beach|Berkeley, CA|72|37.871523|-122.27304|TRUE|TRUE|FALSE|TRUE
5679243|SureStay Plus Hotel by Best Western Point Richmond|Berkeley, CA|101|37.926515|-122.37889|TRUE|FALSE|FALSE|TRUE
5679243|Four Seasons Hotel San Francisco|Berkeley, CA|576|37.786295|-122.40390|FALSE|FALSE|TRUE|TRUE
5679243|W San Francisco|Berkeley, CA|395|37.785416|-122.40021|FALSE|FALSE|TRUE|TRUE
5679243|The Ritz-Carlton, San Francisco|Berkeley, CA|493|37.79162|-122.40728|FALSE|FALSE|TRUE|TRUE
5679243|Berkeley City Club|Berkeley, CA|225|37.867488|-122.26276|FALSE|TRUE|TRUE|TRUE
5679243|Fairmont Heritage Place, Ghirardelli Square|Berkeley, CA|1070|37.80543|-122.42349|FALSE|FALSE|TRUE|TRUE
5679243|Union Square Plaza Hotel|Berkeley, CA|87|37.78718|-122.41049|TRUE|FALSE|FALSE|TRUE
5679243|Hyatt Regency San Francisco|Berkeley, CA|436|37.794217|-122.39567|FALSE|FALSE|TRUE|TRUE
5679243|Aiden by Best Western @ Berkeley|Berkeley, CA|162|37.870545|-122.28218|FALSE|TRUE|FALSE|TRUE
5679243|Graduate Berkeley|Berkeley, CA|166|37.86792|-122.25631|FALSE|TRUE|FALSE|TRUE
5679243|Grant Hotel|Berkeley, CA|91|37.78979|-122.40962|TRUE|FALSE|FALSE|TRUE
5679243|Rodeway Inn|Berkeley, CA|100|37.87052|-122.28325|TRUE|TRUE|FALSE|TRUE
5679243|The Urban|Berkeley, CA|92|37.790307|-122.40587|TRUE|FALSE|FALSE|TRUE
5679243|Four Seasons Hotel San Francisco at Embarcadero|Berkeley, CA|559|37.792458|-122.40079|FALSE|FALSE|TRUE|TRUE
5679243|Residence Inn by Marriott Berkeley|Berkeley, CA|198|37.87076|-122.26719|FALSE|TRUE|FALSE|TRUE
5679243|Radisson Hotel Oakland Airport|Berkeley, CA|103|37.742008|-122.19492|TRUE|FALSE|FALSE|TRUE
5679243|Hotel Shattuck Plaza|Berkeley, CA|193|37.86918|-122.26849|FALSE|TRUE|FALSE|TRUE
5679243|1 Hotel San Francisco|Berkeley, CA|545|37.793587|-122.39305|FALSE|FALSE|TRUE|TRUE
5679243|The St. Regis San Francisco|Berkeley, CA|624|37.78613|-122.40147|FALSE|FALSE|TRUE|TRUE
5679336|Courtyard by Marriott Boulder Broomfield|Boulder, CO|89|39.95889|-105.16368|TRUE|FALSE|FALSE|TRUE
5679336|Hilton Garden Inn Broomfield Boulder|Boulder, CO|125|39.927758|-105.12949|TRUE|FALSE|FALSE|TRUE
5679336|Embassy Suites by Hilton Boulder|Boulder, CO|190|40.01791|-105.26022|FALSE|TRUE|TRUE|TRUE
5679336|Best Western Plus Louisville Inn & Suites|Boulder, CO|89|39.959824|-105.16293|TRUE|FALSE|FALSE|TRUE
5679336|Residence Inn by Marriott Boulder Broomfield|Boulder, CO|107|39.957102|-105.15807|TRUE|FALSE|FALSE|TRUE
5679336|TownePlace Suites by Marriott Boulder Broomfield/Interlocken|Boulder, CO|93|39.925811|-105.13055|TRUE|FALSE|FALSE|TRUE
5679336|Hotel Boulderado|Boulder, CO|179|40.01934|-105.27943|FALSE|TRUE|TRUE|TRUE
5679336|Homewood Suites Boulder|Boulder, CO|148|39.99734|-105.23268|FALSE|TRUE|FALSE|TRUE
5679336|Niwot Inn & Spa|Boulder, CO|253|40.10222|-105.17024|FALSE|FALSE|TRUE|TRUE
5679336|HYATT house Boulder/Broomfield|Boulder, CO|118|39.940333|-105.12471|TRUE|FALSE|FALSE|TRUE
5679336|Courtyard by Marriott Boulder|Boulder, CO|171|39.95889|-105.16368|FALSE|FALSE|TRUE|TRUE
5679336|Boulder Adventure Lodge|Boulder, CO|119|40.017989|-105.32630|TRUE|TRUE|FALSE|TRUE
5679336|Residence Inn By Marriott Boulder|Boulder, CO|171|39.95744|-105.15847|FALSE|FALSE|TRUE|TRUE
5679336|Holiday Inn Express and Suites Broomfield, an IHG Hotel|Boulder, CO|98|39.941557|-105.12600|TRUE|FALSE|FALSE|TRUE
5679336|Hyatt Place Boulder/Pearl Street|Boulder, CO|144|40.02421|-105.25181|FALSE|TRUE|FALSE|TRUE
5679336|Millennium Harvest House Boulder|Boulder, CO|152|40.0123|-105.25972|FALSE|TRUE|TRUE|TRUE
5679336|Quality Inn Louisville - Boulder|Boulder, CO|84|39.96128|-105.16791|TRUE|FALSE|FALSE|TRUE
5679336|Hampton Inn Boulder - Louisville|Boulder, CO|103|39.95855|-105.16280|TRUE|FALSE|FALSE|TRUE
5679336|Hilton Garden Inn Boulder|Boulder, CO|162|40.01797|-105.25880|FALSE|TRUE|TRUE|TRUE
5679336|Basecamp Boulder|Boulder, CO|224|40.01416|-105.26839|FALSE|TRUE|TRUE|TRUE
5679336|Boulder Marriott|Boulder, CO|201|40.01653|-105.25984|FALSE|TRUE|TRUE|TRUE
5679336|Residence Inn by Marriott Boulder Canyon Boulevard|Boulder, CO|222|40.016846|-105.26091|FALSE|TRUE|TRUE|TRUE
5679357|Home2 Suites by Hilton Eugene Downtown University Area|Eugene, OR|141|44.047483|-123.09463|FALSE|FALSE|TRUE|TRUE
5679357|Signature Inn Eugene|Eugene, OR|121|44.053704|-123.10890|TRUE|FALSE|FALSE|TRUE
5679357|Valley River Inn|Eugene, OR|117|44.06552|-123.10285|TRUE|FALSE|FALSE|TRUE
5679357|Campbell House Inn|Eugene, OR|156|44.05712|-123.09001|FALSE|FALSE|TRUE|TRUE
5679357|Best Western New Oregon|Eugene, OR|118|44.04704|-123.06825|TRUE|TRUE|FALSE|TRUE
5679357|Inn at the 5th|Eugene, OR|254|44.05409|-123.08927|FALSE|TRUE|TRUE|TRUE
5679357|Excelsior Inn|Eugene, OR|152|44.045263|-123.08095|FALSE|TRUE|TRUE|TRUE
5679357|La Quinta Inn & Suites by Wyndham Eugene|Eugene, OR|122|44.05837|-123.07980|FALSE|TRUE|FALSE|TRUE
5679357|Maverick Hotel|Eugene, OR|97|44.046146|-123.06550|TRUE|TRUE|FALSE|TRUE
5679357|Courtyard by Marriott Eugene Springfield|Eugene, OR|159|44.08305|-123.03881|FALSE|FALSE|TRUE|TRUE
5679357|EVEN Hotel Eugene, an IHG Hotel|Eugene, OR|136|44.060996|-123.07895|FALSE|TRUE|FALSE|TRUE
5679357|The Gordon Hotel|Eugene, OR|239|44.053716|-123.09120|FALSE|FALSE|TRUE|TRUE
5679357|Residence Inn Eugene Springfield|Eugene, OR|199|44.059705|-123.08369|FALSE|FALSE|TRUE|TRUE
5679357|Hyatt Place Eugene / Oakway Center|Eugene, OR|170|44.06638|-123.07784|FALSE|FALSE|TRUE|TRUE
5679357|Graduate Eugene|Eugene, OR|139|44.04408|-123.06525|FALSE|TRUE|FALSE|TRUE
5679357|Quality Inn and Suites Eugene - Springfield|Eugene, OR|110|44.085404|-123.04366|TRUE|FALSE|FALSE|TRUE
5679357|Super 8 by Wyndham Springfield/Eugene|Eugene, OR|103|44.081668|-123.04093|TRUE|FALSE|FALSE|TRUE
5679357|HomeTowne Studios by Red Roof Eugene – Springfield|Eugene, OR|89|44.055185|-123.09233|TRUE|FALSE|FALSE|TRUE
5679357|Hilton Garden Inn Eugene/Springfield|Eugene, OR|165|44.085221|-123.04288|FALSE|FALSE|TRUE|TRUE
5679357|Tru By Hilton Eugene, OR|Eugene, OR|139|44.044324|-123.04618|FALSE|TRUE|FALSE|TRUE
5679357|Hayward Inn|Eugene, OR|119|44.04628|-123.06696|TRUE|TRUE|FALSE|TRUE
5679357|Royal Inn Eugene|Eugene, OR|112|44.07952|-123.15180|TRUE|FALSE|FALSE|TRUE
5679357|Holiday Inn Express Eugene - Springfield, an IHG Hotel|Eugene, OR|144|44.082113|-123.03810|FALSE|FALSE|TRUE|TRUE
5679357|Valueinn Motel|Eugene, OR|117|44.052069|-123.08675|TRUE|TRUE|FALSE|TRUE
5679364|Stanford Motor Inn Palo Alto|Stanford, CA|158|37.420422|-122.13665|FALSE|TRUE|FALSE|TRUE
5679364|Americas Best Value Inn Mountain View|Stanford, CA|112|37.387086|-122.08600|TRUE|FALSE|FALSE|TRUE
5679364|el PRADO|Stanford, CA|553|37.447662|-122.15908|FALSE|TRUE|TRUE|TRUE
5679364|The Stanford Park Hotel|Stanford, CA|470|37.447761|-122.17224|FALSE|TRUE|TRUE|TRUE
5679364|Hotel Nia, Autograph Collection|Stanford, CA|504|37.482511|-122.17716|FALSE|FALSE|TRUE|TRUE
5679364|Four Seasons Hotel Silicon Valley at East Palo Alto|Stanford, CA|674|37.460297|-122.14243|FALSE|FALSE|TRUE|TRUE
5679364|Budget Motel|Stanford, CA|132|37.424106|-122.16608|FALSE|TRUE|FALSE|TRUE
5679364|Residence Inn Palo Alto Menlo Park|Stanford, CA|438|37.456459|-122.18645|FALSE|FALSE|TRUE|TRUE
5679364|Rosewood Sand Hill|Stanford, CA|1005|37.419245|-122.21292|FALSE|FALSE|TRUE|TRUE
5679364|Best Western Silicon Valley Inn|Stanford, CA|127|37.3929595|-122.02899|TRUE|FALSE|FALSE|TRUE
5679364|Quality Inn Santa Clara Convention Center|Stanford, CA|129|37.407048|-121.99828|TRUE|FALSE|FALSE|TRUE
5679364|Creekside Inn|Stanford, CA|147|37.41897|-122.13564|FALSE|TRUE|FALSE|TRUE
5679364|Hotel Strata|Stanford, CA|385|37.381148|-122.07590|FALSE|FALSE|TRUE|TRUE
5679364|Ramada by Wyndham Sunnyvale/Silicon Valley|Stanford, CA|124|37.390974|-121.99232|TRUE|FALSE|FALSE|TRUE
5679364|Sheraton Palo Alto Hotel|Stanford, CA|321|37.441415|-122.16388|FALSE|TRUE|TRUE|TRUE
5679364|The Clement Hotel – All Inclusive|Stanford, CA|1123|37.440243|-122.16268|FALSE|TRUE|TRUE|TRUE
5679364|Hotel Zico|Stanford, CA|105|37.379707|-122.06857|TRUE|FALSE|FALSE|TRUE
5679364|Comfort Inn Sunnyvale - Silicon Valley|Stanford, CA|112|37.399727|-122.02596|TRUE|FALSE|FALSE|TRUE
5679364|Comfort Inn Palo Alto|Stanford, CA|109|37.416747|-122.12836|TRUE|FALSE|FALSE|TRUE
5679364|The Nest Hotel Palo Alto|Stanford, CA|241|37.417346|-122.12899|FALSE|TRUE|FALSE|TRUE
5679364|Good Nite Inn - Redwood City|Stanford, CA|102|37.496309|-122.23581|TRUE|FALSE|FALSE|TRUE
5679364|Hotel Lucent|Stanford, CA|201|37.451363|-122.17914|FALSE|TRUE|FALSE|TRUE
5679364|Shashi Hotel Mountain View, an Urban Resort|Stanford, CA|401|37.416951|-122.07772|FALSE|FALSE|TRUE|TRUE
5679364|Days Inn by Wyndham Redwood City|Stanford, CA|111|37.471024|-122.21615|TRUE|FALSE|FALSE|TRUE
5679364|Larkspur Landing Sunnyvale - An All-Suite Hotel|Stanford, CA|125|37.394527|-122.02803|TRUE|FALSE|FALSE|TRUE
5679364|The Westin Palo Alto|Stanford, CA|269|37.440628|-122.16310|FALSE|TRUE|FALSE|TRUE
5679366|My Place Hotel - Salt Lake City I-215/West Valley City, UT|Salt Lake City, UT|73|40.704964|-111.95043|TRUE|FALSE|FALSE|TRUE
5679366|Tapestry by Hilton The Peery Salt Lake City Downtown, UT|Salt Lake City, UT|159|40.763185|-111.89448|FALSE|TRUE|FALSE|TRUE
5679366|Comfort Inn Murray - Salt Lake City South|Salt Lake City, UT|80|40.655008|-111.90444|TRUE|FALSE|FALSE|TRUE
5679366|The Metropolitan Inn|Salt Lake City, UT|82|40.757799|-111.89459|TRUE|FALSE|FALSE|TRUE
5679366|Marriott City Center|Salt Lake City, UT|199|40.76433|-111.88859|FALSE|TRUE|TRUE|TRUE
5679366|Kimpton Hotel Monaco Salt Lake City, an IHG Hotel|Salt Lake City, UT|218|40.764722|-111.89222|FALSE|TRUE|TRUE|TRUE
5679366|Engen Hus Bed and Breakfast|Salt Lake City, UT|203|40.638871|-111.82563|FALSE|FALSE|TRUE|TRUE
5679366|Quality Inn Downtown|Salt Lake City, UT|77|40.755741|-111.89726|TRUE|FALSE|FALSE|TRUE
5679366|HomeTowne Studios by Red Roof Salt Lake City - Mid Valley|Salt Lake City, UT|85|40.646576|-111.93621|TRUE|FALSE|FALSE|TRUE
5679366|Hilton Salt Lake City Center|Salt Lake City, UT|126|40.7639|-111.89326|FALSE|TRUE|FALSE|TRUE
5679366|City Creek Inn & Suites|Salt Lake City, UT|81|40.746901|-111.89023|TRUE|TRUE|FALSE|TRUE
5679366|Little America Hotel|Salt Lake City, UT|171|40.75799|-111.89193|FALSE|TRUE|TRUE|TRUE
5679366|Sheraton Salt Lake City Hotel|Salt Lake City, UT|172|40.759|-111.89597|FALSE|FALSE|TRUE|TRUE
5679366|Ramada by Wyndham Salt Lake City|Salt Lake City, UT|84|40.717405|-111.88712|TRUE|FALSE|FALSE|TRUE
5679366|Econo Lodge Downtown|Salt Lake City, UT|84|40.771269|-111.91175|TRUE|FALSE|FALSE|TRUE
5679366|Ellerbeck Mansion Bed & Breakfast|Salt Lake City, UT|183|40.772628|-111.88172|FALSE|TRUE|TRUE|TRUE
5679366|The Grand America Hotel|Salt Lake City, UT|340|40.7574|-111.88888|FALSE|TRUE|TRUE|TRUE
5679366|Marriott University Park|Salt Lake City, UT|173|40.75925|-111.83021|FALSE|TRUE|TRUE|TRUE
5679366|Hyatt Regency Salt Lake City|Salt Lake City, UT|233|40.76574|-111.89463|FALSE|FALSE|TRUE|TRUE
5679366|Quality Inn & Suites Airport West|Salt Lake City, UT|81|40.77548|-112.02300|TRUE|FALSE|FALSE|TRUE
5679366|Salt Lake Marriott Downtown at City Creek|Salt Lake City, UT|204|40.76774|-111.89313|FALSE|TRUE|TRUE|TRUE
5679366|MainStay Suites Salt Lake City Fort Union|Salt Lake City, UT|71|40.62426|-111.85270|TRUE|FALSE|FALSE|TRUE
5679368|Loews Ventana Canyon Resort|Tucson, AZ|294|32.327697|-110.85016|FALSE|FALSE|TRUE|TRUE
5679368|JW Marriott Starr Pass Resort and Spa|Tucson, AZ|408|32.216014|-111.05030|FALSE|FALSE|TRUE|TRUE
5679368|DoubleTree by Hilton Tucson Downtown Convention Center|Tucson, AZ|155|32.217318|-110.97321|FALSE|FALSE|TRUE|TRUE
5679368|Ramada by Wyndham Viscount Suites Tucson East|Tucson, AZ|85|32.222231|-110.88847|TRUE|FALSE|FALSE|TRUE
5679368|Graduate Tucson|Tucson, AZ|168|32.23282|-110.95767|FALSE|TRUE|TRUE|TRUE
5679368|3 Palms Tucson North Foothills|Tucson, AZ|86|32.341393|-110.97772|TRUE|FALSE|FALSE|TRUE
5679368|Lodge on the Desert|Tucson, AZ|171|32.22597|-110.90885|FALSE|FALSE|TRUE|TRUE
5679368|The Lodge at Ventana Canyon|Tucson, AZ|329|32.32191|-110.84534|FALSE|FALSE|TRUE|TRUE
5679368|Tucson Marriott University Park|Tucson, AZ|146|32.23252|-110.95832|FALSE|TRUE|FALSE|TRUE
5679368|Days Inn Tucson City Center|Tucson, AZ|84|32.231194|-110.98414|TRUE|FALSE|FALSE|TRUE
5679368|FRONTDESK The Julian Drew Apts Downtown Tucson|Tucson, AZ|121|32.223971|-110.97331|FALSE|TRUE|FALSE|TRUE
5679368|Stone Inn U of A|Tucson, AZ|77|32.238204|-110.97141|TRUE|TRUE|FALSE|TRUE
5679368|Hacienda Del Sol Guest Ranch Resort|Tucson, AZ|326|32.308016|-110.91444|FALSE|FALSE|TRUE|TRUE
5679368|Westward Look Wyndham Grand Resort and Spa|Tucson, AZ|248|32.342634|-110.96530|FALSE|FALSE|TRUE|TRUE
5679368|Quality Inn Tucson Airport - East Valencia|Tucson, AZ|80|32.134526|-110.92957|TRUE|FALSE|FALSE|TRUE
5679368|Aloft Tucson University|Tucson, AZ|131|32.23575|-110.94326|FALSE|TRUE|FALSE|TRUE
5679368|The Westin La Paloma Resort and Spa|Tucson, AZ|295|32.314651|-110.91615|FALSE|FALSE|TRUE|TRUE
5679368|The Armory Park Inn|Tucson, AZ|249|32.216318|-110.96422|FALSE|TRUE|TRUE|TRUE
5679368|Best Western Royal Sun Inn & Suites|Tucson, AZ|101|32.234875|-110.97199|FALSE|TRUE|FALSE|TRUE
5679368|Travel Inn|Tucson, AZ|81|32.1172|-110.86047|TRUE|FALSE|FALSE|TRUE
5679368|Econo Lodge near the University of Arizona|Tucson, AZ|90|32.231885|-110.95011|FALSE|TRUE|FALSE|TRUE
5679368|Red Roof Inn Tucson Downtown – University|Tucson, AZ|80|32.238789|-110.97157|TRUE|TRUE|FALSE|TRUE
5679368|Quality Inn near Downtown Tucson|Tucson, AZ|87|32.221869|-110.97127|TRUE|TRUE|FALSE|TRUE
5679368|Days Inn by Wyndham Tucson Airport|Tucson, AZ|77|32.164229|-110.91671|TRUE|FALSE|FALSE|TRUE
5679368|GLH Hotel|Tucson, AZ|67|32.249874|-110.99386|TRUE|FALSE|FALSE|TRUE
5679478|The Phoenician, a Luxury Collection Resort, Scottsdale|Tempe, AZ|866|33.505779|-111.94957|FALSE|FALSE|TRUE|TRUE
5679478|Element By Westin Chandler Fashion Center|Tempe, AZ|396|33.42551|-111.94001|FALSE|TRUE|TRUE|TRUE
5679478|Graduate Tempe|Tempe, AZ|135|33.414201|-111.93626|FALSE|TRUE|FALSE|TRUE
5679478|The Westin Phoenix Downtown|Tempe, AZ|384|33.451669|-112.07303|FALSE|FALSE|TRUE|TRUE
5679478|Sanctuary Camelback Mountain, A Gurney's Resort and Spa|Tempe, AZ|842|33.522478|-111.95951|FALSE|FALSE|TRUE|TRUE
5679478|Quality Inn Chandler I-10|Tempe, AZ|90|33.30637|-111.94502|TRUE|FALSE|FALSE|TRUE
5679478|Aloft Tempe|Tempe, AZ|163|33.434691|-111.92447|FALSE|TRUE|FALSE|TRUE
5679478|MOXY Phoenix Tempe/ASU Area|Tempe, AZ|154|33.413364|-111.92559|FALSE|TRUE|FALSE|TRUE
5679478|Andaz Scottsdale Resort & Bungalows|Tempe, AZ|634|33.52836|-111.92820|FALSE|FALSE|TRUE|TRUE
5679478|Extend -a -Suites Mesa|Tempe, AZ|74|33.42551|-111.94001|TRUE|TRUE|FALSE|TRUE
5679478|Sonesta Select Tempe Downtown|Tempe, AZ|135|33.424965|-111.94277|FALSE|TRUE|FALSE|TRUE
5679478|Motel 6 Phoenix East|Tempe, AZ|79|33.450341|-111.96701|TRUE|FALSE|FALSE|TRUE
5679478|JW Marriott Camelback Inn Scottsdale Resort & Spa|Tempe, AZ|899|33.532933|-111.96421|FALSE|FALSE|TRUE|TRUE
5679478|Rodeway Inn Old Town Scottsdale|Tempe, AZ|99|33.481594|-111.92703|TRUE|FALSE|FALSE|TRUE
5679478|Hyatt Place Tempe / Phoenix / University|Tempe, AZ|155|33.42345|-111.92990|FALSE|TRUE|FALSE|TRUE
5679478|E-Z 8 Motel Phoenix Airporter|Tempe, AZ|96|33.430023|-112.06670|TRUE|FALSE|FALSE|TRUE
5679478|W Scottsdale|Tempe, AZ|366|33.501951|-111.92410|FALSE|FALSE|TRUE|TRUE
5679478|Red Roof Inn PLUS+ Tempe - Phoenix Airport|Tempe, AZ|89|33.411518|-111.97151|TRUE|FALSE|FALSE|TRUE
5679478|Hermosa Inn|Tempe, AZ|553|33.518336|-112.00490|FALSE|FALSE|TRUE|TRUE
5679478|Hyatt House Tempe/Phoenix/University|Tempe, AZ|150|33.42371|-111.93002|FALSE|TRUE|FALSE|TRUE
5679478|Super 8 by Wyndham Chandler Phoenix|Tempe, AZ|89|33.304866|-111.96657|TRUE|FALSE|FALSE|TRUE
5679478|DoubleTree by Hilton Hotel Phoenix Tempe|Tempe, AZ|138|33.406595|-111.96172|FALSE|TRUE|FALSE|TRUE
5679478|3 Palms|Tempe, AZ|89|33.41925|-111.91953|TRUE|TRUE|FALSE|TRUE
5679478|Chandler Hospitality Inn|Tempe, AZ|91|33.308617|-111.97351|TRUE|FALSE|FALSE|TRUE
5679478|The McCormick Scottsdale|Tempe, AZ|174|33.548251|-111.92501|FALSE|FALSE|TRUE|TRUE
5679478|Sonesta Suites Scottsdale Gainey Ranch|Tempe, AZ|481|33.5644058|-111.92353|FALSE|FALSE|TRUE|TRUE
5679478|Extended Stay America Suites Phoenix Chandler|Tempe, AZ|91|33.304934|-112.02499|TRUE|FALSE|FALSE|TRUE
5679480|Relax Inn Motel|Los Angeles, CA|110|34.051365|-118.34482|TRUE|FALSE|FALSE|TRUE
5679480|Palihotel Westwood Village|Los Angeles, CA|279|34.060862|-118.44295|FALSE|TRUE|FALSE|TRUE
5679480|Skyways Hotel|Los Angeles, CA|102|33.952521|-118.38508|TRUE|FALSE|FALSE|TRUE
5679480|Kimpton Hotel Palomar Los Angeles Beverly Hills, an IHG Hotel|Los Angeles, CA|353|34.060229|-118.43744|FALSE|TRUE|FALSE|TRUE
5679480|Beverly Hills Plaza Hotel & Spa|Los Angeles, CA|375|34.067727|-118.42604|FALSE|TRUE|FALSE|TRUE
5679480|Century Park Hotel|Los Angeles, CA|194|34.05188|-118.41763|FALSE|TRUE|FALSE|TRUE
5679480|Cloud 9 Inn LAX|Los Angeles, CA|104|33.961971|-118.36567|TRUE|FALSE|FALSE|TRUE
5679480|Hotel Angeleno|Los Angeles, CA|249|34.07374|-118.46820|FALSE|TRUE|FALSE|TRUE
5679480|Beverly Wilshire - Beverly Hills, A Four Seasons Hotel|Los Angeles, CA|1064|34.066743|-118.40077|FALSE|FALSE|TRUE|TRUE
5679480|LYFE INN & SUITES by AGA - LAX Airport|Los Angeles, CA|110|33.945748|-118.36344|TRUE|FALSE|FALSE|TRUE
5679480|Royal Palace Westwood|Los Angeles, CA|222|34.0606|-118.44287|FALSE|TRUE|FALSE|TRUE
5679480|Fairmont Miramar Hotel|Los Angeles, CA|655|34.017834|-118.50168|FALSE|FALSE|TRUE|TRUE
5679480|The Beverly Hills Hotel|Los Angeles, CA|1486|34.08171|-118.41380|FALSE|TRUE|TRUE|TRUE
5679480|Fairmont Century Plaza|Los Angeles, CA|436|34.05745|-118.41578|FALSE|TRUE|FALSE|TRUE
5679480|L'Ermitage Beverly Hills|Los Angeles, CA|978|34.07264|-118.39542|FALSE|FALSE|TRUE|TRUE
5679480|Santa Monica Proper Hotel|Los Angeles, CA|772|34.020865|-118.49452|FALSE|FALSE|TRUE|TRUE
5679480|H3 Inn & Suites - LAX Airport - Los Angeles|Los Angeles, CA|91|33.945688|-118.36044|TRUE|FALSE|FALSE|TRUE
5679480|Ocean Park Hotel|Los Angeles, CA|111|34.021212|-118.45244|TRUE|FALSE|FALSE|TRUE
5679480|Casa Del Mar|Los Angeles, CA|882|34.00627|-118.49147|FALSE|FALSE|TRUE|TRUE
5679480|The Maybourne Beverly Hills|Los Angeles, CA|1213|34.06777|-118.39892|FALSE|FALSE|TRUE|TRUE
5679480|Rosa Bell Motel - Los Angeles|Los Angeles, CA|98|33.991356|-118.30872|TRUE|FALSE|FALSE|TRUE
5679480|W Los Angeles - West Beverly Hills|Los Angeles, CA|382|34.06278|-118.44105|FALSE|TRUE|FALSE|TRUE
5679480|Budget Motel|Los Angeles, CA|97|33.974948|-118.31656|TRUE|FALSE|FALSE|TRUE
5679480|Luxe Sunset Boulevard Hotel|Los Angeles, CA|358|34.07261|-118.46901|FALSE|TRUE|FALSE|TRUE
5679480|Hollywood Guest Inn|Los Angeles, CA|83|34.09772|-118.33695|TRUE|FALSE|FALSE|TRUE
5679480|Shutters on the Beach|Los Angeles, CA|1025|34.00706|-118.49172|FALSE|FALSE|TRUE|TRUE
5679480|Hollywood Roxy Hotel|Los Angeles, CA|95|34.100689|-118.30964|TRUE|FALSE|FALSE|TRUE
5679480|Four Seasons Los Angeles at Beverly Hills|Los Angeles, CA|988|34.07295|-118.38921|FALSE|FALSE|TRUE|TRUE
5679480|Loews Santa Monica Beach Hotel|Los Angeles, CA|2242|34.0091|-118.49315|FALSE|FALSE|TRUE|TRUE
5679600|The Ritz-Carlton, Los Angeles|Los Angeles, CA|668|34.0453|-118.26696|FALSE|TRUE|TRUE|TRUE
5679600|Four Seasons Los Angeles at Beverly Hills|Los Angeles, CA|988|34.07295|-118.38921|FALSE|FALSE|TRUE|TRUE
5679600|LAX Stadium Inn - El Segundo/Inglewood|Los Angeles, CA|86|33.931119|-118.35535|TRUE|FALSE|FALSE|TRUE
5679600|Hotel Figueroa, an Unbound Collection by Hyatt|Los Angeles, CA|239|34.045565|-118.26401|FALSE|TRUE|FALSE|TRUE
5679600|The Peninsula Beverly Hills|Los Angeles, CA|1110|34.06575|-118.41055|FALSE|FALSE|TRUE|TRUE
5679600|Hollywood Guest Inn|Los Angeles, CA|83|34.09772|-118.33695|TRUE|FALSE|FALSE|TRUE
5679600|L'Ermitage Beverly Hills|Los Angeles, CA|978|34.07264|-118.39542|FALSE|FALSE|TRUE|TRUE
5679600|Waldorf Astoria Beverly Hills|Los Angeles, CA|1154|34.06658|-118.41164|FALSE|FALSE|TRUE|TRUE
5679600|The Beverly Hills Hotel|Los Angeles, CA|1486|34.08171|-118.41380|FALSE|FALSE|TRUE|TRUE
5679600|Satellite Motel|Los Angeles, CA|91|33.923242|-118.28229|TRUE|FALSE|FALSE|TRUE
5679600|The Maybourne Beverly Hills|Los Angeles, CA|1213|34.06777|-118.39892|FALSE|FALSE|TRUE|TRUE
5679600|Beverly Wilshire - Beverly Hills, A Four Seasons Hotel|Los Angeles, CA|1064|34.066743|-118.40077|FALSE|FALSE|TRUE|TRUE
5679600|Welcome Inn on Colorado Blvd|Los Angeles, CA|91|34.138925|-118.20781|TRUE|FALSE|FALSE|TRUE
5679600|Comet Motel|Los Angeles, CA|91|33.937884|-118.26499|TRUE|FALSE|FALSE|TRUE
5679600|Central Inn Motel|Los Angeles, CA|87|34.00935|-118.25629|TRUE|TRUE|FALSE|TRUE
5679600|USC Hotel|Los Angeles, CA|184|34.019258|-118.28129|FALSE|TRUE|FALSE|TRUE
5679600|Hotel Indigo Los Angeles Downtown, an IHG Hotel|Los Angeles, CA|266|34.047396|-118.26468|FALSE|TRUE|FALSE|TRUE
5679600|H3 Inn & Suites - LAX Airport - Los Angeles|Los Angeles, CA|91|33.945688|-118.36044|TRUE|FALSE|FALSE|TRUE
5679600|Level Los Angeles Downtown - South Olive|Los Angeles, CA|380|34.04375|-118.25798|FALSE|TRUE|FALSE|TRUE
5679600|Stuart Hotel - Near Good Samaritan Hospital|Los Angeles, CA|87|34.054488|-118.26494|TRUE|FALSE|FALSE|TRUE
5679600|Ramada by Wyndham Los Angeles/Downtown West|Los Angeles, CA|173|34.051201|-118.27772|FALSE|TRUE|FALSE|TRUE
5679600|Hollywood Inn Suites Hotel|Los Angeles, CA|87|33.916146|-118.29309|TRUE|FALSE|FALSE|TRUE
5679600|Antonio Hotel|Los Angeles, CA|86|34.045945|-118.20875|TRUE|FALSE|FALSE|TRUE
5679600|1 Hotel West Hollywood|Los Angeles, CA|646|34.094071|-118.37570|FALSE|FALSE|TRUE|TRUE
5679600|Central Inn Motel on 41 Street|Los Angeles, CA|97|34.00935|-118.25629|FALSE|TRUE|FALSE|TRUE
5679600|The West Hollywood EDITION|Los Angeles, CA|653|34.09002|-118.38915|FALSE|FALSE|TRUE|TRUE
5679600|Residence Inn Los Angeles L.A. LIVE|Los Angeles, CA|290|34.045957|-118.26586|FALSE|TRUE|FALSE|TRUE
5679600|Park Motel|Los Angeles, CA|90|34.00815|-118.28303|TRUE|TRUE|FALSE|TRUE
5679602|Bellevue Club Hotel|Seattle, WA|393|47.60535|-122.18956|FALSE|FALSE|TRUE|TRUE
5679602|Extended Stay America Suites Seattle Redmond|Seattle, WA|125|47.63458|-122.13137|TRUE|FALSE|FALSE|TRUE
5679602|Graduate Seattle|Seattle, WA|161|47.66166|-122.31463|FALSE|TRUE|FALSE|TRUE
5679602|Extended Stay America Suites Seattle Bellevue Factoria|Seattle, WA|120|47.63458|-122.13137|TRUE|FALSE|FALSE|TRUE
5679602|The Westin Seattle|Seattle, WA|211|47.61369|-122.33827|FALSE|FALSE|TRUE|TRUE
5679602|Days Inn by Wyndham Seattle Aurora|Seattle, WA|85|47.77134|-122.34658|TRUE|FALSE|FALSE|TRUE
5679602|College Inn Hotel|Seattle, WA|113|47.65545|-122.31301|TRUE|TRUE|FALSE|TRUE
5679602|The Alexis Royal Sonesta Hotel Seattle|Seattle, WA|192|47.60477|-122.33690|FALSE|FALSE|TRUE|TRUE
5679602|Staypineapple, University Inn, University District Seattle|Seattle, WA|186|47.658169|-122.31750|FALSE|TRUE|FALSE|TRUE
5679602|Staypineapple, Watertown, University District Seattle|Seattle, WA|186|47.659405|-122.31762|FALSE|TRUE|FALSE|TRUE
5679602|The Belltown Inn|Seattle, WA|125|47.614628|-122.34516|TRUE|FALSE|FALSE|TRUE
5679602|Hyatt Regency Seattle|Seattle, WA|180|47.61482|-122.33458|FALSE|TRUE|FALSE|TRUE
5679602|Comfort Inn Kirkland|Seattle, WA|104|47.709585|-122.17794|TRUE|FALSE|FALSE|TRUE
5679602|citizenM Seattle Pioneer Square|Seattle, WA|121|47.601958|-122.33582|TRUE|FALSE|FALSE|TRUE
5679602|Hampton Inn & Suites Seattle-Downtown|Seattle, WA|141|47.62587|-122.34654|FALSE|TRUE|FALSE|TRUE
5679602|Holiday Inn Seattle Downtown, an IHG Hotel|Seattle, WA|135|47.62033|-122.34282|FALSE|TRUE|FALSE|TRUE
5679602|Four Seasons Hotel Seattle|Seattle, WA|802|47.60738|-122.33916|FALSE|FALSE|TRUE|TRUE
5679602|Sonesta Select Seattle Bellevue Redmond|Seattle, WA|123|47.635113|-122.14599|TRUE|FALSE|FALSE|TRUE
5679602|Willows Lodge|Seattle, WA|508|47.73361|-122.14681|FALSE|FALSE|TRUE|TRUE
5679602|citizenM Seattle South Lake Union|Seattle, WA|133|47.61997|-122.33888|FALSE|TRUE|FALSE|TRUE
5679602|Hotel Ballard|Seattle, WA|419|47.66623|-122.38256|FALSE|FALSE|TRUE|TRUE
5679602|Quality Inn Bellevue|Seattle, WA|118|47.581335|-122.13688|TRUE|FALSE|FALSE|TRUE
5679602|W Bellevue|Seattle, WA|443|47.61628|-122.32679|FALSE|TRUE|TRUE|TRUE
5679602|The Westin Bellevue|Seattle, WA|395|47.615879|-122.20071|FALSE|FALSE|TRUE|TRUE
5679602|Fairmont Olympic Hotel|Seattle, WA|300|47.60806|-122.33393|FALSE|FALSE|TRUE|TRUE
5679602|Hotel Hotel Hostel|Seattle, WA|96|47.6512|-122.35013|TRUE|TRUE|FALSE|TRUE
5679602|Lotte Hotel Seattle|Seattle, WA|434|47.60525|-122.33084|FALSE|FALSE|TRUE|TRUE
5679604|Holiday Inn Express And Suites Pullman, an IHG Hotel|Pullman, WA|124|46.715995|-117.16699|TRUE|TRUE|TRUE|TRUE
5679604|Cougar Land Motel|Pullman, WA|66|46.730092|-117.18242|TRUE|TRUE|FALSE|TRUE
5679604|American Travel Inn|Pullman, WA|76|46.726109|-117.18555|TRUE|TRUE|FALSE|TRUE
5679604|FairBridge Inn - Moscow|Pullman, WA|78|46.733894|-117.02137|TRUE|FALSE|FALSE|TRUE
5679604|Super 8 by Wyndham Moscow / Pullman|Pullman, WA|85|46.733892|-117.01691|TRUE|FALSE|TRUE|TRUE
5679604|Coast Hilltop Inn|Pullman, WA|110|46.732518|-117.19249|TRUE|TRUE|TRUE|TRUE
5679604|Monarch Motel|Pullman, WA|146|46.730405|-117.00231|FALSE|FALSE|TRUE|TRUE
5679604|Best Western Plus University Inn|Pullman, WA|139|46.733408|-117.02370|FALSE|FALSE|TRUE|TRUE
5679604|Quality Inn Paradise Creek|Pullman, WA|80|46.72054|-117.16316|TRUE|TRUE|FALSE|TRUE
5679604|Empire Apartments By Barsala|Pullman, WA|207|46.729777|-117.18174|FALSE|TRUE|TRUE|TRUE
5679604|Hotel McCoy - Art, Coffee, Beer, Wine|Pullman, WA|120|46.72914|-117.17718|TRUE|TRUE|TRUE|TRUE
5679604|Courtyard by Marriott Pullman|Pullman, WA|122|46.73995|-117.15026|TRUE|TRUE|TRUE|TRUE
5679604|Empire Studios By Barsala|Pullman, WA|219|46.7297771|-117.18174|FALSE|TRUE|TRUE|TRUE
5679604|Residence Inn Pullman|Pullman, WA|131|46.73899|-117.15119|TRUE|TRUE|TRUE|TRUE
5681362|Mark Spencer Hotel|Portland, OR|116|45.52218|-122.68259|FALSE|TRUE|FALSE|TRUE
5681362|Hyatt Regency Portland at the Oregon Convention Center|Portland, OR|187|45.53056|-122.66323|FALSE|TRUE|TRUE|TRUE
5681362|Embassy Suites by Hilton Portland Downtown|Portland, OR|168|45.52206|-122.67408|FALSE|TRUE|TRUE|TRUE
5681362|The Royal Sonesta Portland Downtown|Portland, OR|167|45.51981|-122.67742|FALSE|TRUE|TRUE|TRUE
5681362|Crowne Plaza Portland Downtown Convention Center, an IHG Hotel|Portland, OR|149|45.515232|-122.67839|FALSE|FALSE|TRUE|TRUE
5681362|Lolo Pass|Portland, OR|101|45.522754|-122.64929|TRUE|FALSE|FALSE|TRUE
5681362|Super 8 by Wyndham Portland Airport|Portland, OR|89|45.569578|-122.54875|TRUE|FALSE|FALSE|TRUE
5681362|Oyo Hotel Portland Or Near Airport|Portland, OR|87|45.552218|-122.50986|TRUE|FALSE|FALSE|TRUE
5681362|Holiday Inn Express Portland East, an IHG Hotel|Portland, OR|71|45.577844|-122.56886|TRUE|FALSE|FALSE|TRUE
5681362|Kings Row Inn|Portland, OR|95|45.433517|-122.63493|TRUE|FALSE|FALSE|TRUE
5681362|The Benson Portland, Curio Collection by Hilton|Portland, OR|167|45.52165|-122.67868|FALSE|TRUE|TRUE|TRUE
5681362|Howard Johnson by Wyndham Portland Airport|Portland, OR|86|45.55357|-122.57777|TRUE|FALSE|FALSE|TRUE
5681362|DoubleTree by Hilton Portland - Beaverton|Portland, OR|104|45.531042|-122.83565|TRUE|FALSE|FALSE|TRUE
5681362|Hotel Eastlund, BW Premier Collection|Portland, OR|145|45.530412|-122.66086|FALSE|TRUE|FALSE|TRUE
5681362|Quality Inn Tigard - Portland Southwest|Portland, OR|101|45.441404|-122.74605|TRUE|FALSE|FALSE|TRUE
5681362|Studio 6 Portland, OR|Portland, OR|87|45.55865|-122.57908|TRUE|FALSE|FALSE|TRUE
5681362|Canopy by Hilton Portland Pearl District|Portland, OR|166|45.526448|-122.68058|FALSE|TRUE|TRUE|TRUE
5681362|Best Western Inn Of Vancouver|Portland, OR|101|45.623165|-122.55405|TRUE|FALSE|FALSE|TRUE
5681362|DoubleTree by Hilton Hotel Portland|Portland, OR|147|45.53087|-122.65560|FALSE|TRUE|FALSE|TRUE
5681362|Hyatt Centric Downtown Portland|Portland, OR|166|45.52083|-122.68322|FALSE|FALSE|TRUE|TRUE
5681362|Courtyard by Marriott Portland City Center|Portland, OR|137|45.521471|-122.67692|FALSE|TRUE|FALSE|TRUE
5681362|Residence Inn by Marriott Portland Hillsboro|Portland, OR|836|45.540103|-122.87041|FALSE|FALSE|TRUE|TRUE
5681362|Courtyard Portland Downtown/Convention Center|Portland, OR|161|45.5326|-122.66092|FALSE|TRUE|TRUE|TRUE
5681362|Barsala at KoZ|Portland, OR|187|45.530927|-122.68780|FALSE|FALSE|TRUE|TRUE
5681367|Courtyard by Marriott Portland City Center|Portland, OR|137|45.521471|-122.67692|FALSE|TRUE|FALSE|TRUE
5681367|Holiday Inn Express Portland East, an IHG Hotel|Portland, OR|71|45.577844|-122.56886|TRUE|FALSE|FALSE|TRUE
5681367|Hyatt Regency Portland at the Oregon Convention Center|Portland, OR|187|45.53056|-122.66323|FALSE|TRUE|TRUE|TRUE
5681367|The Royal Sonesta Portland Downtown|Portland, OR|167|45.51981|-122.67742|FALSE|TRUE|TRUE|TRUE
5681367|Courtyard Portland Downtown/Convention Center|Portland, OR|161|45.5326|-122.66092|FALSE|TRUE|TRUE|TRUE
5681367|Crowne Plaza Portland Downtown Convention Center, an IHG Hotel|Portland, OR|149|45.515232|-122.67839|FALSE|FALSE|TRUE|TRUE
5681367|Lolo Pass|Portland, OR|101|45.522754|-122.64929|TRUE|FALSE|FALSE|TRUE
5681367|Kings Row Inn|Portland, OR|95|45.433517|-122.63493|TRUE|FALSE|FALSE|TRUE
5681367|Howard Johnson by Wyndham Portland Airport|Portland, OR|86|45.55357|-122.57777|TRUE|FALSE|FALSE|TRUE
5681367|DoubleTree by Hilton Hotel Portland|Portland, OR|147|45.53087|-122.65560|FALSE|TRUE|FALSE|TRUE
5681367|Quality Inn Tigard - Portland Southwest|Portland, OR|101|45.441404|-122.74605|TRUE|FALSE|FALSE|TRUE
5681367|Studio 6 Portland, OR|Portland, OR|87|45.55865|-122.57908|TRUE|FALSE|FALSE|TRUE
5681367|Hotel Eastlund, BW Premier Collection|Portland, OR|145|45.530412|-122.66086|FALSE|TRUE|FALSE|TRUE
5681367|Best Western Inn Of Vancouver|Portland, OR|101|45.623165|-122.55405|TRUE|FALSE|FALSE|TRUE
5681367|Mark Spencer Hotel|Portland, OR|116|45.52218|-122.68259|FALSE|TRUE|FALSE|TRUE
5681367|DoubleTree by Hilton Portland - Beaverton|Portland, OR|104|45.531042|-122.83565|TRUE|FALSE|FALSE|TRUE
5681367|Embassy Suites by Hilton Portland Downtown|Portland, OR|168|45.52206|-122.67408|FALSE|TRUE|TRUE|TRUE
5681367|Canopy by Hilton Portland Pearl District|Portland, OR|166|45.526448|-122.68058|FALSE|TRUE|TRUE|TRUE
5681367|Oyo Hotel Portland Or Near Airport|Portland, OR|87|45.552218|-122.50986|TRUE|FALSE|FALSE|TRUE
5681367|Residence Inn by Marriott Portland Hillsboro|Portland, OR|836|45.540103|-122.87041|FALSE|FALSE|TRUE|TRUE
5681367|Super 8 by Wyndham Portland Airport|Portland, OR|89|45.569578|-122.54875|TRUE|FALSE|FALSE|TRUE
5681367|Hyatt Centric Downtown Portland|Portland, OR|166|45.52083|-122.68322|FALSE|FALSE|TRUE|TRUE
5681367|The Benson Portland, Curio Collection by Hilton|Portland, OR|167|45.52165|-122.67868|FALSE|TRUE|TRUE|TRUE
5681367|Barsala at KoZ|Portland, OR|187|45.530927|-122.68780|FALSE|FALSE|TRUE|TRUE
5714073|Hampton Inn Norwich|Uncasville, CT|131|41.508232| -72.11625|FALSE|TRUE|TRUE|TRUE
5714073|Captain Grant's 1754|Uncasville, CT|183|41.485812| -72.03959|FALSE|TRUE|TRUE|TRUE
5714073|Rosemont Suites|Uncasville, CT|125|41.556327| -72.10596|FALSE|TRUE|TRUE|TRUE
5714073|Ramada by Wyndham Groton|Uncasville, CT|91|41.367897| -72.06324|TRUE|FALSE|FALSE|TRUE
5714073|The Spa at Norwich Inn|Uncasville, CT|243|41.501371| -72.09690|FALSE|TRUE|TRUE|TRUE
5714073|House of 1833 Bed & Breakfast & Gardens|Uncasville, CT|252|41.395878| -71.95621|FALSE|FALSE|TRUE|TRUE
5714073|Comfort Inn|Uncasville, CT|102|41.463992| -72.15562|TRUE|TRUE|FALSE|TRUE
5714073|Heavitree of Griswold B&B|Uncasville, CT|288|41.595319| -71.95336|FALSE|FALSE|TRUE|TRUE
5714073|Clarion Inn New London - Mystic|Uncasville, CT|77|41.370874| -72.11586|TRUE|FALSE|FALSE|TRUE
5714073|Groton Inn and Suites|Uncasville, CT|104|41.366068| -72.06574|TRUE|FALSE|FALSE|TRUE
5714073|Gold Star Inn & Suites|Uncasville, CT|91|41.373027| -72.04845|TRUE|FALSE|FALSE|TRUE
5714073|Holiday Inn Norwich, an IHG Hotel|Uncasville, CT|110|41.510707| -72.12018|FALSE|TRUE|FALSE|TRUE
5714073|Americas Best Value Inn New London Mystic|Uncasville, CT|87|41.370756| -72.11503|TRUE|FALSE|FALSE|TRUE
5714073|Springhill Suites by Marriott Mystic Waterford|Uncasville, CT|144|41.372384| -72.12114|FALSE|FALSE|TRUE|TRUE
5714073|Hyatt Place Mohegan Sun|Uncasville, CT|107|41.480588| -72.09602|TRUE|TRUE|FALSE|TRUE
5714073|Mystic Marriott Hotel and Spa|Uncasville, CT|206|41.36536| -72.02573|FALSE|FALSE|TRUE|TRUE
5714073|Comfort Suites near Casinos Norwich-Mystic|Uncasville, CT|92|41.554784| -72.11620|TRUE|TRUE|FALSE|TRUE
5714073|Baymont by Wyndham Groton/Mystic|Uncasville, CT|97|41.372237| -72.07121|TRUE|FALSE|FALSE|TRUE
5714073|Hilton Garden Inn Preston Casino Area|Uncasville, CT|127|41.488466| -71.97255|FALSE|TRUE|TRUE|TRUE
5714073|Mohegan Sun|Uncasville, CT|288|41.49236| -72.08971|FALSE|TRUE|TRUE|TRUE
5714073|Thames Inn & Marina|Uncasville, CT|102|41.35738| -72.08469|TRUE|FALSE|FALSE|TRUE
5715641|Courtyard Syracuse Downtown At Armory Square|Syracuse, NY|154|43.048885| -76.15612|FALSE|TRUE|TRUE|TRUE
5715641|The Craftsman Inn & Suites|Syracuse, NY|154|43.028287| -76.01868|FALSE|FALSE|TRUE|TRUE
5715641|Best Western Plus East Syracuse Inn|Syracuse, NY|90|43.090321| -76.08667|TRUE|FALSE|FALSE|TRUE
5715641|Embassy Suites by Hilton Syracuse Destiny USA|Syracuse, NY|171|43.06761| -76.16899|FALSE|TRUE|TRUE|TRUE
5715641|Red Carpet Inn North Syracuse|Syracuse, NY|74|43.108603| -76.14557|TRUE|FALSE|FALSE|TRUE
5715641|Hilton Garden Inn Syracuse|Syracuse, NY|151|43.09125| -76.07238|FALSE|FALSE|TRUE|TRUE
5715641|Crowne Plaza Syracuse, an IHG Hotel|Syracuse, NY|149|43.047608| -76.14176|FALSE|TRUE|FALSE|TRUE
5715641|Embassy Suites Syracuse|Syracuse, NY|159|43.09278| -76.08288|FALSE|FALSE|TRUE|TRUE
5715641|Marriott Syracuse Downtown|Syracuse, NY|175|43.04476| -76.15129|FALSE|TRUE|TRUE|TRUE
5715641|DoubleTree by Hilton Hotel Syracuse|Syracuse, NY|154|43.0878| -76.08381|FALSE|FALSE|TRUE|TRUE
5715641|Jefferson Clinton Suites|Syracuse, NY|155|43.047289| -76.15385|FALSE|TRUE|TRUE|TRUE
5715641|Red Roof Inn Syracuse|Syracuse, NY|72|43.09153| -76.09231|TRUE|FALSE|FALSE|TRUE
5715641|Best Western The Inn At The Fairgrounds|Syracuse, NY|78|43.081983| -76.22808|TRUE|FALSE|FALSE|TRUE
5715641|Collegian Hotel & Suites, Trademark Collection by Wyndham|Syracuse, NY|144|43.046417| -76.13540|FALSE|TRUE|FALSE|TRUE
5715641|Super 8 by Wyndham Liverpool/Clay/Syracuse Area|Syracuse, NY|73|43.127187| -76.21719|TRUE|FALSE|FALSE|TRUE
5715641|HomeTown Inn by Red Roof East Syracuse|Syracuse, NY|65|43.092264| -76.08536|TRUE|FALSE|FALSE|TRUE
5715641|Suburban Studios|Syracuse, NY|67|43.115809| -76.27077|TRUE|FALSE|FALSE|TRUE
5715641|Clarion Pointe Downtown|Syracuse, NY|99|43.052929| -76.14688|FALSE|TRUE|FALSE|TRUE
5715641|Americas Best Value Inn East Syracuse|Syracuse, NY|73|43.091004| -76.08455|TRUE|FALSE|FALSE|TRUE
5715641|Days Inn by Wyndham Syracuse|Syracuse, NY|65|43.09006| -76.09335|TRUE|FALSE|FALSE|TRUE
5715641|Sheraton Syracuse University Hotel & Conference Center|Syracuse, NY|194|43.04121| -76.13385|FALSE|TRUE|TRUE|TRUE
5715641|Extended Stay America Suites Syracuse Dewitt|Syracuse, NY|89|43.048122| -76.14742|TRUE|TRUE|FALSE|TRUE
5715641|Hotel Skyler Syracuse Tapestry Collection by Hilton|Syracuse, NY|166|43.043962| -76.13608|FALSE|TRUE|TRUE|TRUE
5715708|Ramada by Wyndham Anaheim Convention Center|Anaheim, CA|157|33.796963|-117.91419|FALSE|TRUE|FALSE|TRUE
5715708|DoubleTree Suites by Hilton Anaheim Rsrt - Conv Cntr|Anaheim, CA|161|33.796379|-117.91583|FALSE|TRUE|FALSE|TRUE
5715708|Fairfield by Marriott Anaheim Resort|Anaheim, CA|407|33.81142|-117.91360|FALSE|TRUE|TRUE|TRUE
5715708|Motel 6 Buena Park, CA - Knotts Berry Farm - Disneyland|Anaheim, CA|80|33.857644|-118.02927|TRUE|FALSE|FALSE|TRUE
5715708|Beachside Inn Motel|Anaheim, CA|78|33.822351|-117.99377|TRUE|FALSE|FALSE|TRUE
5715708|Del Sol Inn - Anaheim Resort|Anaheim, CA|383|33.808422|-117.91366|FALSE|TRUE|TRUE|TRUE
5715708|Tropic Lodge|Anaheim, CA|73|33.774071|-117.97877|TRUE|FALSE|FALSE|TRUE
5715708|Anaheim Camelot Inn & Suites|Anaheim, CA|397|33.810646|-117.91499|FALSE|TRUE|TRUE|TRUE
5715708||Anaheim, CA|80|33.83475|-117.91173|TRUE|FALSE|FALSE|TRUE
5715708|Hilton Garden Inn Anaheim Resort|Anaheim, CA|355|33.8115388|-117.91234|FALSE|FALSE|TRUE|TRUE
5715708|Motel 6 Westminster South - Long Beach|Anaheim, CA|76|33.758232|-118.01948|TRUE|FALSE|FALSE|TRUE
5715708|Anaheim Marriott Hotel|Anaheim, CA|215|33.79904|-117.91830|FALSE|TRUE|TRUE|TRUE
5715708|Castaway Motel|Anaheim, CA|79|33.788274|-117.87342|TRUE|FALSE|FALSE|TRUE
5715708|Tropicana Inn and Suites|Anaheim, CA|373|33.810045|-117.91503|FALSE|TRUE|TRUE|TRUE
5715708|Home2Suites by Hilton Anaheim Resort|Anaheim, CA|362|33.8116018|-117.91279|FALSE|FALSE|TRUE|TRUE
5715708|3rd Avenue Inn|Anaheim, CA|66|33.929359|-117.93386|TRUE|FALSE|FALSE|TRUE
5715708|DoubleTree by Hilton Anaheim - Orange County|Anaheim, CA|125|33.79653|-117.91593|FALSE|TRUE|FALSE|TRUE
5715708|Hilton Anaheim|Anaheim, CA|250|33.80054|-117.91842|FALSE|TRUE|TRUE|TRUE
5715708|The Viv Hotel, Anaheim, a Tribute Portfolio Hotel|Anaheim, CA|268|33.808813|-117.90660|FALSE|FALSE|TRUE|TRUE
5715708|Hotel 39 Westminster|Anaheim, CA|79|33.736249|-117.99001|TRUE|FALSE|FALSE|TRUE
5715708|La Quinta Inn by Wyndham Costa Mesa / Newport Beach|Anaheim, CA|82|33.691025|-117.92207|TRUE|FALSE|FALSE|TRUE
5715708|The Westin Anaheim Resort|Anaheim, CA|326|33.80212|-117.92242|FALSE|TRUE|TRUE|TRUE
5715708|Motel 6 Westminster, CA - North|Anaheim, CA|74|33.772737|-118.00708|TRUE|FALSE|FALSE|TRUE
5715709|Hotel 39 Westminster|Anaheim, CA|79|33.736249|-117.99001|TRUE|FALSE|FALSE|TRUE
5715709|Motel 6 Westminster South - Long Beach|Anaheim, CA|76|33.758232|-118.01948|TRUE|FALSE|FALSE|TRUE
5715709|Hilton Anaheim|Anaheim, CA|250|33.80054|-117.91842|FALSE|TRUE|TRUE|TRUE
5715709|Motel 6 Westminster, CA - North|Anaheim, CA|74|33.772737|-118.00708|TRUE|FALSE|FALSE|TRUE
5715709|Anaheim Camelot Inn & Suites|Anaheim, CA|397|33.810646|-117.91499|FALSE|TRUE|TRUE|TRUE
5715709|Tropicana Inn and Suites|Anaheim, CA|373|33.810045|-117.91503|FALSE|TRUE|TRUE|TRUE
5715709|3rd Avenue Inn|Anaheim, CA|66|33.929359|-117.93386|TRUE|FALSE|FALSE|TRUE
5715709|Castaway Motel|Anaheim, CA|79|33.788274|-117.87342|TRUE|FALSE|FALSE|TRUE
5715709|The Westin Anaheim Resort|Anaheim, CA|326|33.80212|-117.92242|FALSE|TRUE|TRUE|TRUE
5715709|Ramada by Wyndham Anaheim Convention Center|Anaheim, CA|157|33.796963|-117.91419|FALSE|TRUE|FALSE|TRUE
5715709|Del Sol Inn - Anaheim Resort|Anaheim, CA|383|33.808422|-117.91366|FALSE|TRUE|TRUE|TRUE
5715709|Anaheim Marriott Hotel|Anaheim, CA|215|33.79904|-117.91830|FALSE|TRUE|TRUE|TRUE
5715709|DoubleTree Suites by Hilton Anaheim Rsrt - Conv Cntr|Anaheim, CA|161|33.796379|-117.91583|FALSE|TRUE|FALSE|TRUE
5715709|Hilton Garden Inn Anaheim Resort|Anaheim, CA|355|33.8115388|-117.91234|FALSE|FALSE|TRUE|TRUE
5715709||Anaheim, CA|80|33.83475|-117.91173|TRUE|FALSE|FALSE|TRUE
5715709|Tropic Lodge|Anaheim, CA|73|33.774071|-117.97877|TRUE|FALSE|FALSE|TRUE
5715709|Home2Suites by Hilton Anaheim Resort|Anaheim, CA|362|33.8116018|-117.91279|FALSE|FALSE|TRUE|TRUE
5715709|La Quinta Inn by Wyndham Costa Mesa / Newport Beach|Anaheim, CA|82|33.691025|-117.92207|TRUE|FALSE|FALSE|TRUE
5715709|The Viv Hotel, Anaheim, a Tribute Portfolio Hotel|Anaheim, CA|268|33.808813|-117.90660|FALSE|FALSE|TRUE|TRUE
5715709|Fairfield by Marriott Anaheim Resort|Anaheim, CA|407|33.81142|-117.91360|FALSE|TRUE|TRUE|TRUE
5715709|Beachside Inn Motel|Anaheim, CA|78|33.822351|-117.99377|TRUE|FALSE|FALSE|TRUE
5715709|DoubleTree by Hilton Anaheim - Orange County|Anaheim, CA|125|33.79653|-117.91593|FALSE|TRUE|FALSE|TRUE
5715709|Motel 6 Buena Park, CA - Knotts Berry Farm - Disneyland|Anaheim, CA|80|33.857644|-118.02927|TRUE|FALSE|FALSE|TRUE
5715710|Allegria Hotel|Elmont, NY|237|40.584309| -73.66640|FALSE|FALSE|TRUE|TRUE
5715710|Wyndham Garden LaGuardia South|Elmont, NY|207|40.73251| -73.86625|FALSE|FALSE|TRUE|TRUE
5715710|Hotel Pergola JFK Airport|Elmont, NY|116|40.70872| -73.77696|TRUE|TRUE|FALSE|TRUE
5715710|Flushing Central Hotel|Elmont, NY|106|40.760691| -73.83161|TRUE|FALSE|FALSE|TRUE
5715710|LaGuardia Plaza Hotel|Elmont, NY|251|40.76701| -73.86704|FALSE|FALSE|TRUE|TRUE
5715710|Lex View Inn at JFK Airport|Elmont, NY|117|40.7027223| -73.81528|TRUE|FALSE|FALSE|TRUE
5715710|Gateway Inn|Elmont, NY|118|40.700936| -73.71291|FALSE|TRUE|FALSE|TRUE
5715710|East New York Inn|Elmont, NY|117|40.676167| -73.90323|TRUE|FALSE|FALSE|TRUE
5715710|The Garden City Hotel|Elmont, NY|333|40.724507| -73.64061|FALSE|FALSE|TRUE|TRUE
5715710|Renaissance New York Flushing Hotel at Tangram|Elmont, NY|219|40.760329| -73.83387|FALSE|FALSE|TRUE|TRUE
5715710|Casa Azul Hotel Blu JFK|Elmont, NY|138|40.718842| -73.73368|FALSE|TRUE|FALSE|TRUE
5715710|Travelodge by Wyndham Manhasset|Elmont, NY|88|40.791235| -73.70243|TRUE|FALSE|FALSE|TRUE
5715710|Paramount Inn|Elmont, NY|129|40.728019| -73.70802|FALSE|TRUE|FALSE|TRUE
5715710|Courtyard by Marriott New York Queens/Fresh Meadows|Elmont, NY|178|40.740294| -73.79082|FALSE|TRUE|FALSE|TRUE
5715710|Hillside Hotel|Elmont, NY|101|40.703716| -73.81475|TRUE|FALSE|FALSE|TRUE
5715710|Hotel Mint JFK Airport|Elmont, NY|102|40.60413| -73.75453|TRUE|FALSE|FALSE|TRUE
5715710|Marco LaGuardia Hotel|Elmont, NY|220|40.763545| -73.83102|FALSE|FALSE|TRUE|TRUE
5715710|Radisson Hotel JFK Airport|Elmont, NY|207|40.667446| -73.79855|FALSE|FALSE|TRUE|TRUE
5715710|Hyatt Regency JFK Airport at Resorts World New York|Elmont, NY|275|40.673723| -73.83275|FALSE|FALSE|TRUE|TRUE
5715710|Hotel Key LaGuardia Airport|Elmont, NY|117|40.776927| -73.87397|TRUE|FALSE|FALSE|TRUE
5715710|Econo Lodge Hicksville|Elmont, NY|98|40.700936| -73.71291|TRUE|TRUE|FALSE|TRUE
5715710|Crowne Plaza JFK Airport New York City, an IHG Hotel|Elmont, NY|239|40.667271| -73.79962|FALSE|FALSE|TRUE|TRUE
5715710|Bellerose Inn|Elmont, NY|152|40.726811| -73.71563|FALSE|TRUE|FALSE|TRUE
5715710|Fairfield Inn by Marriott JFK Airport|Elmont, NY|209|40.666492| -73.78004|FALSE|FALSE|TRUE|TRUE
5715710|Airport Plaza Hotel JFK Airport|Elmont, NY|107|40.699652| -73.81113|TRUE|FALSE|FALSE|TRUE
5715710|Flushing Hotel|Elmont, NY|94|40.700936| -73.71291|TRUE|TRUE|FALSE|TRUE
5715710|The Vanderbilt Hotel Suites|Elmont, NY|267|40.738916| -73.60085|FALSE|FALSE|TRUE|TRUE
5715710|The One Boutique Hotel|Elmont, NY|105|40.763504| -73.82842|TRUE|FALSE|FALSE|TRUE
5715710|Best Western Queens Gold Coast|Elmont, NY|176|40.76177| -73.76096|FALSE|TRUE|FALSE|TRUE
5715710|Quality Inn JFK Airport Rockaway Blvd|Elmont, NY|167|40.668689| -73.78110|FALSE|TRUE|FALSE|TRUE
5715713|Hilton Garden Inn New York Times Square South|New York, NY|301|40.754482| -73.99360|FALSE|TRUE|FALSE|TRUE
5715713|Doubletree by Hilton New York Times Square South|New York, NY|319|40.753803| -73.99272|FALSE|TRUE|FALSE|TRUE
5715713|Mr. C New York - Seaport|New York, NY|694|40.708059| -74.00145|FALSE|FALSE|TRUE|TRUE
5715713|Thatford Hotel|New York, NY|106|40.669406| -73.90947|TRUE|FALSE|FALSE|TRUE
5715713|Equinox Hotel New York|New York, NY|1329|40.754651| -74.00221|FALSE|TRUE|TRUE|TRUE
5715713|Stewart Hotel|New York, NY|380|40.748811| -73.99189|FALSE|TRUE|FALSE|TRUE
5715713|The Towers at Lotte New York Palace|New York, NY|1535|40.757974| -73.97487|FALSE|FALSE|TRUE|TRUE
5715713|Arlo Midtown|New York, NY|315|40.74633| -73.98491|FALSE|TRUE|FALSE|TRUE
5715713|Hotel Barriere Fouquets New York|New York, NY|1298|40.723617| -74.00975|FALSE|FALSE|TRUE|TRUE
5715713|Flushing Central Hotel|New York, NY|106|40.7607| -73.83158|TRUE|FALSE|FALSE|TRUE
5715713|Flushing Hotel|New York, NY|94|40.76208| -73.83163|TRUE|FALSE|FALSE|TRUE
5715713|Hotel Key LaGuardia Airport|New York, NY|117|40.770343| -73.86990|TRUE|FALSE|FALSE|TRUE
5715713|Neptune Hotel|New York, NY|100|40.68786| -73.91880|TRUE|FALSE|FALSE|TRUE
5715713|YOTEL New York Times Square|New York, NY|313|40.759161| -73.99547|FALSE|TRUE|FALSE|TRUE
5715713|The Knickerbocker Hotel|New York, NY|617|40.75525| -73.98598|FALSE|TRUE|FALSE|TRUE
5715713|Surface Inn Brooklyn|New York, NY|111|40.66949| -73.90902|TRUE|FALSE|FALSE|TRUE
5715713|WestHouse New York|New York, NY|776|40.764554| -73.98137|FALSE|FALSE|TRUE|TRUE
5715713|InterContinental New York Barclay, an IHG Hotel|New York, NY|687|40.755663| -73.97353|FALSE|FALSE|TRUE|TRUE
5715713|Rodeway Inn Capri|New York, NY|99|40.85428| -74.03318|TRUE|FALSE|FALSE|TRUE
5715713|Haiban Inn|New York, NY|117|40.735371| -74.06468|TRUE|FALSE|FALSE|TRUE
5715713|Pod Times Square|New York, NY|324|40.75843| -73.99308|FALSE|TRUE|FALSE|TRUE
5715713|Rodeway Inn Meadowlands|New York, NY|94|40.792918| -74.05712|TRUE|FALSE|FALSE|TRUE
5715713|Hillside Hotel|New York, NY|115|40.703716| -73.81475|TRUE|FALSE|FALSE|TRUE
5715713|Lex View Inn at JFK Airport|New York, NY|117|40.7027223| -73.81528|TRUE|FALSE|FALSE|TRUE
5715713|SureStay Hotel by Best Western Secaucus Meadowlands|New York, NY|106|40.788781| -74.04623|TRUE|FALSE|FALSE|TRUE
5715713|The Times Square EDITION|New York, NY|1002|40.759149| -73.98416|FALSE|FALSE|TRUE|TRUE
5715713|The Dominick|New York, NY|917|40.72532| -74.00550|FALSE|FALSE|TRUE|TRUE
5715713|TRYP by Wyndham New York City Times Square / Midtown|New York, NY|308|40.753779| -73.99462|FALSE|TRUE|FALSE|TRUE
5715713|East New York Inn|New York, NY|117|40.676167| -73.90323|TRUE|FALSE|FALSE|TRUE
5715713|The Wall Street Hotel|New York, NY|702|40.70548| -74.00757|FALSE|FALSE|TRUE|TRUE
5715713|The Beekman, A Thompson Hotel|New York, NY|639|40.711213| -74.00690|FALSE|FALSE|TRUE|TRUE
5715713|Refinery Hotel|New York, NY|531|40.75217| -73.98536|FALSE|TRUE|FALSE|TRUE
5715715|Beachside Inn Motel|Anaheim, CA|78|33.822351|-117.99377|TRUE|FALSE|FALSE|TRUE
5715715|Castaway Motel|Anaheim, CA|79|33.788274|-117.87342|TRUE|FALSE|FALSE|TRUE
5715715|Anaheim Camelot Inn & Suites|Anaheim, CA|397|33.810646|-117.91499|FALSE|TRUE|TRUE|TRUE
5715715|La Quinta Inn by Wyndham Costa Mesa / Newport Beach|Anaheim, CA|82|33.691025|-117.92207|TRUE|FALSE|FALSE|TRUE
5715715|Tropicana Inn and Suites|Anaheim, CA|373|33.810045|-117.91503|FALSE|TRUE|TRUE|TRUE
5715715|Motel 6 Westminster South - Long Beach|Anaheim, CA|76|33.758232|-118.01948|TRUE|FALSE|FALSE|TRUE
5715715|Hilton Garden Inn Anaheim Resort|Anaheim, CA|355|33.8115388|-117.91234|FALSE|FALSE|TRUE|TRUE
5715715|Tropic Lodge|Anaheim, CA|73|33.774071|-117.97877|TRUE|FALSE|FALSE|TRUE
5715715|Motel 6 Buena Park, CA - Knotts Berry Farm - Disneyland|Anaheim, CA|80|33.857644|-118.02927|TRUE|FALSE|FALSE|TRUE
5715715|The Westin Anaheim Resort|Anaheim, CA|326|33.80212|-117.92242|FALSE|TRUE|TRUE|TRUE
5715715|DoubleTree by Hilton Anaheim - Orange County|Anaheim, CA|125|33.79653|-117.91593|FALSE|TRUE|FALSE|TRUE
5715715|Ramada by Wyndham Anaheim Convention Center|Anaheim, CA|157|33.796963|-117.91419|FALSE|TRUE|FALSE|TRUE
5715715|Anaheim Marriott Hotel|Anaheim, CA|215|33.79904|-117.91830|FALSE|TRUE|TRUE|TRUE
5715715|3rd Avenue Inn|Anaheim, CA|66|33.929359|-117.93386|TRUE|FALSE|FALSE|TRUE
5715715||Anaheim, CA|80|33.83475|-117.91173|TRUE|FALSE|FALSE|TRUE
5715715|Hotel 39 Westminster|Anaheim, CA|79|33.736249|-117.99001|TRUE|FALSE|FALSE|TRUE
5715715|DoubleTree Suites by Hilton Anaheim Rsrt - Conv Cntr|Anaheim, CA|161|33.796379|-117.91583|FALSE|TRUE|FALSE|TRUE
5715715|Home2Suites by Hilton Anaheim Resort|Anaheim, CA|362|33.8116018|-117.91279|FALSE|FALSE|TRUE|TRUE
5715715|The Viv Hotel, Anaheim, a Tribute Portfolio Hotel|Anaheim, CA|268|33.808813|-117.90660|FALSE|FALSE|TRUE|TRUE
5715715|Del Sol Inn - Anaheim Resort|Anaheim, CA|383|33.808422|-117.91366|FALSE|TRUE|TRUE|TRUE
5715715|Fairfield by Marriott Anaheim Resort|Anaheim, CA|407|33.81142|-117.91360|FALSE|TRUE|TRUE|TRUE
5715715|Motel 6 Westminster, CA - North|Anaheim, CA|74|33.772737|-118.00708|TRUE|FALSE|FALSE|TRUE
5715715|Hilton Anaheim|Anaheim, CA|250|33.80054|-117.91842|FALSE|TRUE|TRUE|TRUE
5715723|The Knickerbocker Hotel|New York, NY|617|40.75525| -73.98598|FALSE|TRUE|FALSE|TRUE
5715723|The One Boutique Hotel|New York, NY|105|40.7635042| -73.82842|TRUE|FALSE|FALSE|TRUE
5715723|Hillside Hotel|New York, NY|101|40.703716| -73.81475|TRUE|FALSE|FALSE|TRUE
5715723|WestHouse New York|New York, NY|776|40.764554| -73.98137|FALSE|FALSE|TRUE|TRUE
5715723|TRYP by Wyndham New York City Times Square / Midtown|New York, NY|308|40.753779| -73.99462|FALSE|TRUE|FALSE|TRUE
5715723|Equinox Hotel New York|New York, NY|1329|40.754651| -74.00221|FALSE|TRUE|TRUE|TRUE
5715723|Hotel Barriere Fouquets New York|New York, NY|1298|40.723617| -74.00975|FALSE|FALSE|TRUE|TRUE
5715723|Thatford Hotel|New York, NY|106|40.669406| -73.90947|TRUE|FALSE|FALSE|TRUE
5715723|SureStay Hotel by Best Western Secaucus Meadowlands|New York, NY|106|40.788781| -74.04623|TRUE|FALSE|FALSE|TRUE
5715723|The Times Square EDITION|New York, NY|1002|40.759149| -73.98416|FALSE|FALSE|TRUE|TRUE
5715723|Neptune Hotel|New York, NY|100|40.68786| -73.91880|TRUE|FALSE|FALSE|TRUE
5715723|Mr. C New York - Seaport|New York, NY|694|40.708059| -74.00145|FALSE|FALSE|TRUE|TRUE
5715723|Refinery Hotel|New York, NY|531|40.75217| -73.98536|FALSE|TRUE|FALSE|TRUE
5715723|Stewart Hotel|New York, NY|380|40.748811| -73.99189|FALSE|TRUE|FALSE|TRUE
5715723|Arlo Midtown|New York, NY|315|40.74633| -73.98491|FALSE|TRUE|FALSE|TRUE
5715723|Doubletree by Hilton New York Times Square South|New York, NY|319|40.753803| -73.99272|FALSE|TRUE|FALSE|TRUE
5715723|Flushing Hotel|New York, NY|94|40.76208| -73.83163|TRUE|FALSE|FALSE|TRUE
5715723|YOTEL New York Times Square|New York, NY|313|40.759161| -73.99547|FALSE|TRUE|FALSE|TRUE
5715723|Rodeway Inn Meadowlands|New York, NY|94|40.792918| -74.05712|TRUE|FALSE|FALSE|TRUE
5715723|Rodeway Inn Capri|New York, NY|99|40.85428| -74.03318|TRUE|FALSE|FALSE|TRUE
5715723|The Wall Street Hotel|New York, NY|702|40.70548| -74.00757|FALSE|FALSE|TRUE|TRUE
5715723|Hilton Garden Inn New York Times Square South|New York, NY|301|40.754482| -73.99360|FALSE|TRUE|FALSE|TRUE
5715723|InterContinental New York Barclay, an IHG Hotel|New York, NY|687|40.755663| -73.97353|FALSE|FALSE|TRUE|TRUE
5715723|Pod Times Square|New York, NY|324|40.75843| -73.99308|FALSE|TRUE|FALSE|TRUE
5715723|Flushing Central Hotel|New York, NY|106|40.7607| -73.83158|TRUE|FALSE|FALSE|TRUE
5715723|The Dominick|New York, NY|917|40.72532| -74.00550|FALSE|FALSE|TRUE|TRUE
5715723|The Beekman, A Thompson Hotel|New York, NY|639|40.711213| -74.00690|FALSE|FALSE|TRUE|TRUE
5715723|The Towers at Lotte New York Palace|New York, NY|1512|40.757974| -73.97487|FALSE|FALSE|TRUE|TRUE
5715723|Surface Inn Brooklyn|New York, NY|111|40.66949| -73.90902|TRUE|FALSE|FALSE|TRUE
5719078|Super 8 by Wyndham Sioux Falls|Sioux Falls, SD|87|43.515107| -96.77615|TRUE|FALSE|FALSE|TRUE
5719078|Holiday Inn Sioux Falls-City Centre, an IHG Hotel|Sioux Falls, SD|179|43.549421| -96.72758|FALSE|TRUE|TRUE|TRUE
5719078|Ramada by Wyndham Sioux Falls Arpt & Suites|Sioux Falls, SD|70|43.543252| -96.77558|TRUE|FALSE|FALSE|TRUE
5719078|Econo Lodge North|Sioux Falls, SD|74|43.60325| -96.71032|TRUE|TRUE|FALSE|TRUE
5719078|Clubhouse Hotel Suites Sioux Falls|Sioux Falls, SD|158|43.526156| -96.77363|FALSE|FALSE|TRUE|TRUE
5719078|Best Western Plus Ramkota Hotel|Sioux Falls, SD|123|43.57385| -96.76905|FALSE|TRUE|FALSE|TRUE
5719078|Baymont by Wyndham Sioux Falls|Sioux Falls, SD|79|43.51585| -96.78230|TRUE|FALSE|FALSE|TRUE
5719078|Staybridge Suites Sioux Falls, an IHG Hotel|Sioux Falls, SD|133|43.522936| -96.77907|FALSE|FALSE|TRUE|TRUE
5719078|Baymont by Wyndham Sioux Falls West|Sioux Falls, SD|68|43.546022| -96.73126|TRUE|FALSE|FALSE|TRUE
5719078|Ramada by Wyndham Sioux Falls Airport-Waterpark & Event Ctr|Sioux Falls, SD|69|43.562443| -96.74572|TRUE|TRUE|FALSE|TRUE
5719078|GLō Best Western Dawley Farms In Sioux Falls|Sioux Falls, SD|140|43.535445| -96.65353|FALSE|FALSE|TRUE|TRUE
5719078|Sleep Inn Airport|Sioux Falls, SD|75|43.563156| -96.76062|TRUE|TRUE|FALSE|TRUE
5719078|Days Inn by Wyndham Sioux Falls Airport|Sioux Falls, SD|82|43.60234| -96.71232|TRUE|TRUE|FALSE|TRUE
5719078|Staybridge Suites Sioux Falls Southwest, an IHG Hotel|Sioux Falls, SD|180|43.496323| -96.77636|FALSE|FALSE|TRUE|TRUE
5719078|Sheraton Sioux Falls & Convention Center|Sioux Falls, SD|118|43.56271| -96.74852|FALSE|TRUE|FALSE|TRUE
5719078|Hilton Garden Inn Sioux Falls South|Sioux Falls, SD|134|43.49665| -96.77196|FALSE|FALSE|TRUE|TRUE
5719078|Hilton Garden Inn Sioux Falls Downtown|Sioux Falls, SD|147|43.548| -96.72462|FALSE|FALSE|TRUE|TRUE
5719078|Home2 Suites By Hilton Sioux Falls/Sanford Medical Center|Sioux Falls, SD|144|43.53553| -96.74057|FALSE|FALSE|TRUE|TRUE
5719078|Fairfield Inn & Suites Sioux Falls Airport|Sioux Falls, SD|146|43.59083| -96.75678|FALSE|TRUE|TRUE|TRUE
5719078|AeroStay Hotel|Sioux Falls, SD|169|43.581232| -96.73192|FALSE|TRUE|TRUE|TRUE
5719078|Best Western Empire Towers|Sioux Falls, SD|76|43.516114| -96.77635|TRUE|FALSE|FALSE|TRUE
5719078|AmericInn by Wyndham Sioux Falls North|Sioux Falls, SD|118|43.571514| -96.76994|FALSE|TRUE|FALSE|TRUE
5719078|Days Inn by Wyndham Sioux Falls Empire|Sioux Falls, SD|67|43.514163| -96.78483|TRUE|FALSE|FALSE|TRUE
5720498|Hillside Hotel|Brooklyn, NY|101|40.703716| -73.81475|TRUE|FALSE|FALSE|TRUE
5720498|Airport Plaza Hotel JFK Airport|Brooklyn, NY|107|40.699652| -73.81113|TRUE|FALSE|FALSE|TRUE
5720498|Surface Inn Brooklyn|Brooklyn, NY|111|40.66949| -73.90902|TRUE|FALSE|FALSE|TRUE
5720498|Sheraton Brooklyn New York Hotel|Brooklyn, NY|312|40.69155| -73.98448|FALSE|TRUE|FALSE|TRUE
5720498|Holiday Inn Brooklyn Downtown, an IHG Hotel|Brooklyn, NY|268|40.687496| -73.98268|FALSE|TRUE|FALSE|TRUE
5720498|The Towers at Lotte New York Palace|Brooklyn, NY|1512|40.757974| -73.97487|FALSE|FALSE|TRUE|TRUE
5720498|Aloft New York Brooklyn|Brooklyn, NY|190|40.69173| -73.98467|FALSE|TRUE|FALSE|TRUE
5720498|Neptune Hotel|Brooklyn, NY|100|40.68786| -73.91880|TRUE|FALSE|FALSE|TRUE
5720498|Flushing Central Hotel|Brooklyn, NY|106|40.760691| -73.83161|TRUE|FALSE|FALSE|TRUE
5720498|WestHouse New York|Brooklyn, NY|776|40.764554| -73.98137|FALSE|FALSE|TRUE|TRUE
5720498|Casa Blanca Hotel Brooklyn|Brooklyn, NY|145|40.69638| -73.97384|FALSE|TRUE|FALSE|TRUE
5720498|Flushing Hotel|Brooklyn, NY|94|40.767499| -73.83308|TRUE|FALSE|FALSE|TRUE
5720498|The Dominick|Brooklyn, NY|917|40.72547| -74.00533|FALSE|FALSE|TRUE|TRUE
5720498|Rodeway Inn Meadowlands|Brooklyn, NY|94|40.792918| -74.05712|TRUE|FALSE|FALSE|TRUE
5720498|The Wall Street Hotel|Brooklyn, NY|702|40.705571| -74.00766|FALSE|FALSE|TRUE|TRUE
5720498|The One Boutique Hotel|Brooklyn, NY|105|40.7635042| -73.82842|TRUE|FALSE|FALSE|TRUE
5720498|Mr. C New York - Seaport|Brooklyn, NY|694|40.708059| -74.00145|FALSE|FALSE|TRUE|TRUE
5720498|Ace Hotel Brooklyn|Brooklyn, NY|317|40.687837| -73.98373|FALSE|TRUE|FALSE|TRUE
5720498|The Beekman, A Thompson Hotel|Brooklyn, NY|639|40.711213| -74.00690|FALSE|FALSE|TRUE|TRUE
5720498|The Times Square EDITION|Brooklyn, NY|1002|40.759149| -73.98416|FALSE|FALSE|TRUE|TRUE
5720498|Holiday Inn Express Brooklyn, an IHG Hotel|Brooklyn, NY|250|40.678161| -73.98431|FALSE|TRUE|FALSE|TRUE
5720498|NU Hotel Brooklyn|Brooklyn, NY|303|40.68883| -73.98880|FALSE|TRUE|FALSE|TRUE
5720498|InterContinental New York Barclay, an IHG Hotel|Brooklyn, NY|687|40.755663| -73.97353|FALSE|FALSE|TRUE|TRUE
5720498|Equinox Hotel New York|Brooklyn, NY|1329|40.754651| -74.00221|FALSE|FALSE|TRUE|TRUE
5720498|SureStay Hotel by Best Western Secaucus Meadowlands|Brooklyn, NY|106|40.788781| -74.04623|TRUE|FALSE|FALSE|TRUE
5720498|Hotel Le Bleu|Brooklyn, NY|293|40.67327| -73.98710|FALSE|TRUE|FALSE|TRUE
5720498|Thatford Hotel|Brooklyn, NY|106|40.669406| -73.90947|TRUE|FALSE|FALSE|TRUE
5720498|EVEN Hotel Brooklyn, an IHG Hotel|Brooklyn, NY|260|40.687558| -73.98184|FALSE|TRUE|FALSE|TRUE
5720498|Hampton Inn Brooklyn/Downtown|Brooklyn, NY|304|40.695706| -73.98402|FALSE|TRUE|FALSE|TRUE
5720498|Hotel Barriere Fouquets New York|Brooklyn, NY|1298|40.723617| -74.00975|FALSE|FALSE|TRUE|TRUE
5722656|Salamander Washington DC|College Park, MD|538|38.989697| -76.93776|FALSE|TRUE|TRUE|TRUE
5722656|Hampton Inn Laurel (Fort Meade Area)|College Park, MD|95|39.080053| -76.86845|TRUE|FALSE|FALSE|TRUE
5722656|Waldorf Astoria Washington DC|College Park, MD|644|38.894108| -77.02758|FALSE|FALSE|TRUE|TRUE
5722656|Red Roof Inn Washington DC - College Park|College Park, MD|102|39.005366| -76.92962|FALSE|TRUE|FALSE|TRUE
5722656|Hampton Inn College Park|College Park, MD|105|39.01376| -76.92854|FALSE|TRUE|FALSE|TRUE
5722656|Courtyard by Marriott Washington Downtown/Convention Center|College Park, MD|351|38.9043739| -77.02459|FALSE|FALSE|TRUE|TRUE
5722656|InterContinental Washington D.C. - The Wharf, an IHG Hotel|College Park, MD|371|38.879364| -77.02490|FALSE|FALSE|TRUE|TRUE
5722656|Howard Johnson by Wyndham College Park|College Park, MD|95|39.00441| -76.92960|TRUE|TRUE|FALSE|TRUE
5722656|Red Roof Inn Washington DC - Lanham|College Park, MD|86|38.964784| -76.85962|TRUE|FALSE|FALSE|TRUE
5722656|Comfort Inn College Park North|College Park, MD|85|39.049679| -76.93597|TRUE|FALSE|FALSE|TRUE
5722656|Pendry Washington DC - The Wharf|College Park, MD|489|38.989697| -76.93776|FALSE|TRUE|TRUE|TRUE
5722656|Residence Inn by Marriott Upper Marlboro Joint Base Andrews|College Park, MD|405|38.8673742| -76.84844|FALSE|FALSE|TRUE|TRUE
5722656|Residence Inn by Marriott Washington Downtown/Convention Center|College Park, MD|475|38.9043693| -77.02423|FALSE|FALSE|TRUE|TRUE
5722656|WoodSpring Suites Washington DC East Arena Drive|College Park, MD|88|38.907931| -76.85133|TRUE|FALSE|FALSE|TRUE
5722656|Sleep Inn And Suites Laurel|College Park, MD|79|39.106177| -76.83862|TRUE|FALSE|FALSE|TRUE
5722656|Cambria Hotel College Park|College Park, MD|143|38.993219| -76.93242|FALSE|TRUE|FALSE|TRUE
5722656|The Hotel at the University of Maryland|College Park, MD|168|38.986942| -76.93571|FALSE|TRUE|TRUE|TRUE
5722656|Conrad Washington, DC|College Park, MD|453|38.901372| -77.02528|FALSE|FALSE|TRUE|TRUE
5722656|Days Inn by Wyndham College Park|College Park, MD|91|39.004421| -76.93000|TRUE|TRUE|FALSE|TRUE
5722656|Best Western Plus College Park Hotel|College Park, MD|121|38.99396| -76.93216|FALSE|TRUE|FALSE|TRUE
5722656|Red Roof Inn Washington DC - Laurel|College Park, MD|79|39.063055| -76.83745|TRUE|FALSE|FALSE|TRUE
5722656|College Park Marriott Hotel & Conference Center|College Park, MD|151|38.986374| -76.95444|FALSE|TRUE|TRUE|TRUE
5722656|Best Western Capital Beltway|College Park, MD|91|38.961845| -76.86511|TRUE|FALSE|FALSE|TRUE
5722656|Quality Inn Takoma Park|College Park, MD|94|38.983948| -76.98675|TRUE|FALSE|FALSE|TRUE
5730183|Tourway Inn|Birmingham, AL|91|33.443119| -86.82929|TRUE|FALSE|FALSE|TRUE
5730183|Red Roof Inn PLUS+ Birmingham East - Irondale/Airport|Birmingham, AL|88|33.532285| -86.70332|TRUE|FALSE|FALSE|TRUE
5730183|Embassy Suites Hotel Birmingham|Birmingham, AL|162|33.518589| -86.81036|FALSE|TRUE|FALSE|TRUE
5730183|Elyton Hotel, Autograph Collection by Marriott|Birmingham, AL|195|33.514572| -86.80603|FALSE|TRUE|TRUE|TRUE
5730183|Quality Inn & Suites Birmingham - Highway 280|Birmingham, AL|81|33.42714| -86.70865|TRUE|FALSE|FALSE|TRUE
5730183|Quality Inn Airport - Southeast|Birmingham, AL|74|33.53316| -86.69097|TRUE|FALSE|FALSE|TRUE
5730183|Suburban Studios Birmingham Homewood I-65|Birmingham, AL|86|33.446785| -86.83006|TRUE|FALSE|FALSE|TRUE
5730183|The Westin Birmingham|Birmingham, AL|284|33.52545| -86.80852|FALSE|TRUE|TRUE|TRUE
5730183|Redmont Hotel Birmingham, Curio Collection by Hilton|Birmingham, AL|192|33.518734| -86.80638|FALSE|TRUE|TRUE|TRUE
5730183|Super 8 by Wyndham Homewood Birmingham Area|Birmingham, AL|67|33.466636| -86.82858|TRUE|FALSE|FALSE|TRUE
5730183|Marriott Birmingham|Birmingham, AL|190|33.50758| -86.80335|FALSE|TRUE|TRUE|TRUE
5730183|Grand Bohemian Hotel Mountain Brook, Autograph Collection|Birmingham, AL|303|33.487782| -86.77406|FALSE|FALSE|TRUE|TRUE
5730183|Econo Lodge|Birmingham, AL|77|33.46155| -86.82712|TRUE|FALSE|FALSE|TRUE
5730183|Hilton Birmingham Downtown at UAB|Birmingham, AL|167|33.50385| -86.79906|FALSE|FALSE|TRUE|TRUE
5730183|Frontdesk The Denham Bldg Apts Parkside Dist Birmingham|Birmingham, AL|172|33.506302| -86.81598|FALSE|TRUE|TRUE|TRUE
5730183|Sheraton Birmingham Hotel|Birmingham, AL|237|33.52418| -86.80997|FALSE|TRUE|TRUE|TRUE
5730183|Hilton Garden Inn Downtown Birmingham|Birmingham, AL|162|33.50894| -86.80680|FALSE|TRUE|FALSE|TRUE
5730183|Renaissance Birmingham Ross Bridge Golf Resort & Spa|Birmingham, AL|247|33.39271| -86.88082|FALSE|FALSE|TRUE|TRUE
5730183|Econo Lodge|Birmingham, AL|80|33.46155| -86.82712|TRUE|FALSE|FALSE|TRUE
5730183|Valley Hotel Homewood Birmingham, Curio Collection by Hilton|Birmingham, AL|235|33.481496| -86.79145|FALSE|FALSE|TRUE|TRUE
5730183|Red Roof Inn Birmingham South|Birmingham, AL|79|33.417967| -86.80303|TRUE|FALSE|FALSE|TRUE
5730183|FRONTDESK Lakeview Green Apts Birmingham|Birmingham, AL|113|33.514919| -86.78887|FALSE|TRUE|FALSE|TRUE
5730183|Ramada by Wyndham Birmingham Airport|Birmingham, AL|75|33.54758| -86.75828|TRUE|FALSE|FALSE|TRUE
5730183|The Kelly Birmingham, Tapestry Collection By Hilton|Birmingham, AL|166|33.514815| -86.80428|FALSE|TRUE|FALSE|TRUE
5730328|Comfort Inn & Suites|Cincinnati, OH|112|39.09547| -84.28096|TRUE|FALSE|FALSE|TRUE
5730328|21c Museum Hotel Cincinnati|Cincinnati, OH|251|39.10309| -84.51211|FALSE|TRUE|TRUE|TRUE
5730328|Comfort Suites Cincinnati Airport|Cincinnati, OH|105|39.077199| -84.66093|TRUE|FALSE|FALSE|TRUE
5730328|Super 8 by Wyndham Fort Mitchell Cincinnati Area|Cincinnati, OH|67|39.048462| -84.57065|TRUE|FALSE|FALSE|TRUE
5730328|Graduate Cincinnati|Cincinnati, OH|181|39.13667| -84.50733|FALSE|TRUE|TRUE|TRUE
5730328|Best Western Plus Hannaford Inn & Suites|Cincinnati, OH|92|39.206595| -84.37233|TRUE|FALSE|FALSE|TRUE
5730328|Radisson Hotel Cincinnati Riverfront|Cincinnati, OH|188|39.085743| -84.52184|FALSE|FALSE|TRUE|TRUE
5730328|The Westin Cincinnati|Cincinnati, OH|259|39.10075| -84.51230|FALSE|TRUE|TRUE|TRUE
5730328|The Lytle Park Hotel, Autograph Collection|Cincinnati, OH|382|39.101186| -84.50339|FALSE|TRUE|TRUE|TRUE
5730328|Hampton Inn & Suites Cincinnati/Uptown-University Area|Cincinnati, OH|182|39.13445| -84.50878|FALSE|TRUE|TRUE|TRUE
5730328|Wingate by Wyndham Erlanger/Cincinnati|Cincinnati, OH|113|39.028648| -84.61225|TRUE|FALSE|FALSE|TRUE
5730328|Extended Stay America Suites Cincinnati Blue Ash Reagan Hwy|Cincinnati, OH|71|39.224939| -84.38510|TRUE|FALSE|FALSE|TRUE
5730328|Comfort Suites Cincinnati University - Downtown|Cincinnati, OH|147|39.124508| -84.50200|FALSE|TRUE|TRUE|TRUE
5730328|Hampton Inn Cincinnati Airport - North|Cincinnati, OH|114|39.076057| -84.65808|TRUE|FALSE|FALSE|TRUE
5730328|Days Inn by Wyndham Fort Wright Cincinnati Area|Cincinnati, OH|70|39.056623| -84.54476|TRUE|FALSE|FALSE|TRUE
5730328|Red Roof Inn Cincinnati Airport–Florence/ Erlanger|Cincinnati, OH|76|39.026832| -84.61616|TRUE|FALSE|FALSE|TRUE
5730328|Holiday Inn Cincinnati-Riverfront, an IHG Hotel|Cincinnati, OH|180|39.08798| -84.52047|FALSE|FALSE|TRUE|TRUE
5730328|Hilton Cincinnati Netherland Plaza|Cincinnati, OH|265|39.10074| -84.51397|FALSE|TRUE|TRUE|TRUE
5730328|Embassy Suites by Hilton Cincinnati RiverCenter|Cincinnati, OH|142|39.089979| -84.51117|FALSE|TRUE|FALSE|TRUE
5730328|Hyatt Regency Cincinnati|Cincinnati, OH|286|39.10027| -84.51561|FALSE|TRUE|TRUE|TRUE
5730328|Quality Inn & Suites|Cincinnati, OH|85|39.10357| -84.52874|TRUE|TRUE|FALSE|TRUE
5735473|Courtyard by Marriott Blacksburg|Blacksburg, VA|126|37.19916| -80.40132|FALSE|TRUE|TRUE|TRUE
5735473|Clay Corner Inn|Blacksburg, VA|132|37.224946| -80.41447|FALSE|TRUE|TRUE|TRUE
5735473|Home2 Suites by Hilton Blacksburg, VA|Blacksburg, VA|126|37.215965| -80.40368|FALSE|TRUE|TRUE|TRUE
5735473|Days Inn by Wyndham Christiansburg|Blacksburg, VA|55|37.137391| -80.35318|TRUE|FALSE|FALSE|TRUE
5735473|Red Carpet Inn Blacksburg|Blacksburg, VA|111|37.21192| -80.39914|FALSE|TRUE|TRUE|TRUE
5735473|Quality Inn Christiansburg - Blacksburg|Blacksburg, VA|85|37.139618| -80.35285|TRUE|FALSE|FALSE|TRUE
5735473|Main Street Inn|Blacksburg, VA|122|37.22841| -80.41253|FALSE|TRUE|TRUE|TRUE
5735473|La Quinta Inn by Wyndham Radford|Blacksburg, VA|95|37.126429| -80.54052|TRUE|FALSE|FALSE|TRUE
5735473|Econo Lodge Christiansburg-Blacksburg I-81|Blacksburg, VA|58|37.137803| -80.35902|TRUE|FALSE|FALSE|TRUE
5735473|Hampton Inn Christiansburg/Blacksburg|Blacksburg, VA|111|37.1657| -80.41684|FALSE|FALSE|TRUE|TRUE
5735473|Residence Inn by Marriott Blacksburg-University|Blacksburg, VA|140|37.231878| -80.43052|FALSE|TRUE|TRUE|TRUE
5735473|Comfort Inn Blacksburg University Area|Blacksburg, VA|80|37.18478| -80.40803|TRUE|TRUE|FALSE|TRUE
5735473|Hyatt Place Blacksburg / University|Blacksburg, VA|181|37.23245| -80.43149|FALSE|TRUE|TRUE|TRUE
5735473|Super 8 by Wyndham Christiansburg|Blacksburg, VA|57|37.138512| -80.34874|TRUE|FALSE|FALSE|TRUE
5735473|Wingate by Wyndham Christiansburg|Blacksburg, VA|86|37.1404| -80.35310|TRUE|FALSE|FALSE|TRUE
5735473|SureStay Hotel by Best Western Christiansburg Blacksburg|Blacksburg, VA|77|37.169876| -80.41760|TRUE|FALSE|FALSE|TRUE
5735473|Quality Inn Radford-West Blacksburg I-81|Blacksburg, VA|63|37.126623| -80.53852|TRUE|FALSE|FALSE|TRUE
5735473|Hilton Garden Inn Blacksburg University|Blacksburg, VA|110|37.224967| -80.44214|FALSE|TRUE|FALSE|TRUE
5735473|The Inn at Virginia Tech and Skelton Conference Center|Blacksburg, VA|161|37.229703| -80.42994|FALSE|TRUE|TRUE|TRUE
5735473|Homewood Suites By Hilton Christiansburg|Blacksburg, VA|127|37.136911| -80.35215|FALSE|FALSE|TRUE|TRUE
5735473|Tru by Hilton Radford, VA|Blacksburg, VA|97|37.10216| -80.51606|TRUE|FALSE|FALSE|TRUE
5735474|SpringHill Suites Chicago O'Hare by Marriott|Evanston, IL|119|41.985127| -87.83005|TRUE|FALSE|FALSE|TRUE
5735474|Extended Stay America Suites Chicago Skokie|Evanston, IL|128|42.045072| -87.68770|TRUE|TRUE|FALSE|TRUE
5735474|Renaissance Chicago North Shore Hotel|Evanston, IL|128|42.135255| -87.78848|TRUE|FALSE|FALSE|TRUE
5735474|Baymont by Wyndham Glenview|Evanston, IL|95|42.085999| -87.86750|TRUE|FALSE|FALSE|TRUE
5735474|Hotel Versey Days Inn by Wyndham Chicago|Evanston, IL|109|41.932935| -87.64557|TRUE|FALSE|FALSE|TRUE
5735474|The Hotel at Midtown|Evanston, IL|478|41.925578| -87.67940|FALSE|FALSE|TRUE|TRUE
5735474|Hyatt House Chicago/Evanston|Evanston, IL|184|42.045605| -87.67961|FALSE|TRUE|TRUE|TRUE
5735474|Holiday Inn Chicago North-Evanston, an IHG Hotel|Evanston, IL|110|42.044338| -87.68160|TRUE|TRUE|FALSE|TRUE
5735474|Holiday Inn Chicago North Shore, an IHG Hotel|Evanston, IL|119|42.012699| -87.76030|TRUE|FALSE|FALSE|TRUE
5735474|Sheraton Chicago Northbrook Hotel|Evanston, IL|141|42.108293| -87.80730|FALSE|FALSE|TRUE|TRUE
5735474|Red Roof Inn Morton Grove|Evanston, IL|80|42.052799| -87.79996|TRUE|FALSE|FALSE|TRUE
5735474|Estia Hotel and Suites|Evanston, IL|98|42.045072| -87.68770|TRUE|TRUE|FALSE|TRUE
5735474|Hampton Inn Chicago North-Loyola Station|Evanston, IL|139|42.002376| -87.66120|FALSE|TRUE|TRUE|TRUE
5735474|Graduate Evanston|Evanston, IL|135|42.04651| -87.67714|FALSE|TRUE|TRUE|TRUE
5735474|DoubleTree by Hilton Chicago - North Shore Conference Center|Evanston, IL|143|42.054381| -87.74568|FALSE|TRUE|TRUE|TRUE
5735474|Hilton Garden Inn Chicago North Shore/Evanston|Evanston, IL|135|42.050714| -87.68514|FALSE|TRUE|TRUE|TRUE
5735474|Hilton Orrington / Evanston|Evanston, IL|136|42.0489| -87.68084|FALSE|TRUE|TRUE|TRUE
5735474|Best Western Plus Hawthorne Terrace Hotel|Evanston, IL|157|41.944129| -87.64594|FALSE|FALSE|TRUE|TRUE
5735474|Courtyard by Marriott Chicago Deerfield|Evanston, IL|121|42.153375| -87.84732|TRUE|FALSE|FALSE|TRUE
5735474|Heart O' Chicago|Evanston, IL|115|41.990321| -87.67211|TRUE|FALSE|FALSE|TRUE
5735474|Residence Inn by Marriott Chicago Wilmette/Skokie|Evanston, IL|172|42.065208| -87.75648|FALSE|TRUE|TRUE|TRUE
5735476|Holiday Inn Champaign, an IHG Hotel|Champaign, IL|129|40.096755| -88.24556|FALSE|TRUE|TRUE|TRUE
5735476|Champaign Garden Inn|Champaign, IL|118|40.11892| -88.24985|FALSE|TRUE|FALSE|TRUE
5735476|I Hotel And Conference Center|Champaign, IL|196|40.09374| -88.23731|FALSE|TRUE|TRUE|TRUE
5735476|Hampton Inn Champaign/Urbana|Champaign, IL|129|40.117| -88.22472|FALSE|TRUE|TRUE|TRUE
5735476|Best Western University Inn|Champaign, IL|92|40.132874| -88.22039|TRUE|FALSE|FALSE|TRUE
5735476|Courtyard Champaign|Champaign, IL|111|40.10463| -88.22447|TRUE|TRUE|FALSE|TRUE
5735476|Econo Lodge Champaign Urbana - University Area|Champaign, IL|71|40.130795| -88.21904|TRUE|FALSE|FALSE|TRUE
5735476|Home2 Suites by Hilton Champaign/Urbana|Champaign, IL|157|40.09236| -88.24736|FALSE|TRUE|TRUE|TRUE
5735476|La Quinta Inn by Wyndham Champaign|Champaign, IL|77|40.138541| -88.24486|TRUE|FALSE|FALSE|TRUE
5735476|Hilton Garden Inn Champaign/Urbana|Champaign, IL|133|40.099134| -88.24621|FALSE|TRUE|TRUE|TRUE
5735476|Baymont by Wyndham Champaign|Champaign, IL|78|40.13573| -88.24796|TRUE|FALSE|FALSE|TRUE
5735476|Homewood Suites by Hilton Champaign-Urbana|Champaign, IL|154|40.099696| -88.24585|FALSE|TRUE|TRUE|TRUE
5735476|Wyndham Garden Conference Center Champaign/Urbana|Champaign, IL|95|40.131425| -88.22185|TRUE|FALSE|FALSE|TRUE
5735476|Best Western Plus Champaign/Urbana Inn|Champaign, IL|105|40.138133| -88.25228|TRUE|FALSE|FALSE|TRUE
5735476|Candlewood Suites Champaign-Urbana University Area, an IHG Hotel|Champaign, IL|102|40.139024| -88.25177|TRUE|FALSE|FALSE|TRUE
5735476|TownePlace Suites by Marriott Champaign Urbana/Campustown|Champaign, IL|182|40.110813| -88.23089|FALSE|TRUE|TRUE|TRUE
5735476|Best Western Paradise Inn|Champaign, IL|103|40.063373| -88.25094|TRUE|FALSE|FALSE|TRUE
5735476|Fairfield Inn & Suites by Marriott Champaign|Champaign, IL|111|40.13579| -88.25158|TRUE|FALSE|FALSE|TRUE
5735476|Americas Best Value Inn Champaign|Champaign, IL|70|40.13303| -88.26197|TRUE|FALSE|FALSE|TRUE
5735476|Eastland Suites Hotel & Conference Center|Champaign, IL|130|40.13114| -88.19819|FALSE|FALSE|TRUE|TRUE
5735476|Residence Inn Champaign|Champaign, IL|134|40.13818| -88.25171|FALSE|FALSE|TRUE|TRUE
5735476|Hyatt Place Champaign-Urbana|Champaign, IL|144|40.118145| -88.24372|FALSE|TRUE|TRUE|TRUE
5735478|Super 8 by Wyndham Louisville/Expo Center|Louisville, KY|85|38.20351| -85.75118|TRUE|FALSE|FALSE|TRUE
5735478|Baymont by Wyndham Louisville East|Louisville, KY|69|38.22557| -85.58133|TRUE|FALSE|FALSE|TRUE
5735478|Econo Lodge Airport|Louisville, KY|79|38.162308| -85.69957|TRUE|FALSE|FALSE|TRUE
5735478|Omni Louisville Hotel|Louisville, KY|235|38.25206| -85.75490|FALSE|FALSE|TRUE|TRUE
5735478|Fairfield Inn & Suites by Marriott Louisville Downtown|Louisville, KY|137|38.25288| -85.75158|FALSE|TRUE|FALSE|TRUE
5735478|The Brown Hotel|Louisville, KY|222|38.24639| -85.75797|FALSE|FALSE|TRUE|TRUE
5735478|Galt House Hotel Trademark Collection by Wyndham|Louisville, KY|119|38.257948| -85.75606|FALSE|TRUE|FALSE|TRUE
5735478|Mint House at 800 Tower - Louisville|Louisville, KY|173|38.243845| -85.75925|FALSE|FALSE|TRUE|TRUE
5735478|Quality Inn & Suites|Louisville, KY|85|38.22422| -85.75211|TRUE|FALSE|FALSE|TRUE
5735478|Hampton Inn Louisville Downtown|Louisville, KY|117|38.25366| -85.75109|FALSE|TRUE|FALSE|TRUE
5735478|The Seelbach Hilton Louisville|Louisville, KY|194|38.25093| -85.75783|FALSE|FALSE|TRUE|TRUE
5735478|Best Western Green Tree Inn|Louisville, KY|79|38.319791| -85.75545|TRUE|FALSE|FALSE|TRUE
5735478|SpringHill Suites by Marriott Louisville Downtown|Louisville, KY|149|38.25283| -85.75123|FALSE|TRUE|FALSE|TRUE
5735478|Louisville Marriott Downtown|Louisville, KY|223|38.25315| -85.75468|FALSE|TRUE|TRUE|TRUE
5735478|Red Roof Inn Louisville East - Hurstbourne|Louisville, KY|58|38.225822| -85.58262|TRUE|FALSE|FALSE|TRUE
5735478|Ramada by Wyndham Sellersburg/Louisville North|Louisville, KY|84|38.393832| -85.76017|TRUE|FALSE|FALSE|TRUE
5735478|Hyatt Regency Louisville|Louisville, KY|172|38.2534| -85.75645|FALSE|TRUE|TRUE|TRUE
5735478|Econo Lodge|Louisville, KY|66|38.25226| -85.75285|TRUE|TRUE|FALSE|TRUE
5735478|Suburban Studios Louisville North|Louisville, KY|85|38.325287| -85.75597|TRUE|FALSE|FALSE|TRUE
5735478|Red Roof Inn Louisville Expo Airport|Louisville, KY|81|38.178995| -85.71845|TRUE|FALSE|FALSE|TRUE
5735478|Inn at St James Court|Louisville, KY|238|38.227792| -85.76366|FALSE|FALSE|TRUE|TRUE
5735478|21c Museum Hotel Louisville|Louisville, KY|207|38.2568| -85.76186|FALSE|FALSE|TRUE|TRUE
5735478|Red Roof Inn Louisville Fair and Expo|Louisville, KY|73|38.200419| -85.68736|TRUE|FALSE|FALSE|TRUE
5735478|Courtyard by Marriott Louisville Downtown|Louisville, KY|146|38.25581| -85.75360|FALSE|TRUE|FALSE|TRUE
5735478|Hotel Distil, Autograph Collection|Louisville, KY|230|38.256273| -85.75165|FALSE|TRUE|TRUE|TRUE
5735478|The Grady|Louisville, KY|238|38.257205| -85.75996|FALSE|TRUE|TRUE|TRUE
5735481|Hampton Inn Clemson-University Area|Clemson, SC|154|34.693369| -82.84774|TRUE|TRUE|TRUE|TRUE
5735481|Quality Inn Seneca US-123|Clemson, SC|91|34.687264| -82.81715|TRUE|TRUE|FALSE|TRUE
5735481|Courtyard Marriott Clemson|Clemson, SC|174|34.68928| -82.81386|FALSE|FALSE|TRUE|TRUE
5735481|Inn @ Clemson|Clemson, SC|121|34.69014| -82.82562|TRUE|TRUE|TRUE|TRUE
5735481|Liberty Hall Bed and Breakfast|Clemson, SC|234|34.644258| -82.78187|FALSE|FALSE|TRUE|TRUE
5735481|Clemson Lodge|Clemson, SC|110|34.688192| -82.81765|TRUE|TRUE|FALSE|TRUE
5735481|The Inn at Patrick Square|Clemson, SC|169|34.684868| -82.78670|FALSE|FALSE|TRUE|TRUE
5735481|Tru by Hilton Seneca Clemson|Clemson, SC|121|34.68917| -82.86222|TRUE|TRUE|TRUE|TRUE
5735481|Best Western Seneca-Clemson|Clemson, SC|101|34.696834| -82.95300|TRUE|FALSE|FALSE|TRUE
5735481|Lakeside Lodge Clemson|Clemson, SC|133|34.69204| -82.84551|TRUE|TRUE|TRUE|TRUE
5735481|The Shepherd Hotel Downtown Clemson|Clemson, SC|165|34.684483| -82.83801|TRUE|TRUE|TRUE|TRUE
5735481|The Abernathy of Clemson|Clemson, SC|165|34.683184| -82.84335|TRUE|TRUE|TRUE|TRUE
5735481|Clemson University's James F. Martin Inn|Clemson, SC|139|34.664232| -82.84237|TRUE|TRUE|TRUE|TRUE
5735481|Best Western Plus Clemson Hotel & Conference Center|Clemson, SC|103|34.688231| -82.82519|TRUE|TRUE|FALSE|TRUE
5735483|Even Hotels Ann Arbor, an IHG Hotel|Ann Arbor, MI|126|42.280826| -83.74304|TRUE|TRUE|FALSE|TRUE
5735483|Days Inn by Wyndham Ann Arbor|Ann Arbor, MI|65|42.252474| -83.68226|TRUE|FALSE|FALSE|TRUE
5735483|Sheraton Ann Arbor Hotel|Ann Arbor, MI|182|42.24092| -83.73597|FALSE|TRUE|TRUE|TRUE
5735483|Red Roof Inn PLUS+ Ann Arbor - U of Michigan North|Ann Arbor, MI|74|42.306976| -83.69031|TRUE|FALSE|FALSE|TRUE
5735483|Microtel Inn & Suites by Wyndham Ann Arbor|Ann Arbor, MI|75|42.30317| -83.68824|TRUE|FALSE|FALSE|TRUE
5735483|Sonesta Simply Suites Detroit Ann Arbor|Ann Arbor, MI|109|42.243763| -83.75781|TRUE|TRUE|FALSE|TRUE
5735483|Ann Arbor Marriott Ypsilanti at Eagle Crest|Ann Arbor, MI|164|42.224582| -83.61333|FALSE|FALSE|TRUE|TRUE
5735483|Stone Chalet B&B Inn and Event Center|Ann Arbor, MI|200|42.268431| -83.72234|FALSE|TRUE|TRUE|TRUE
5735483|Ann Arbor B&B Inn|Ann Arbor, MI|206|42.280826| -83.74304|FALSE|TRUE|TRUE|TRUE
5735483|Sonesta ES Suites Ann Arbor|Ann Arbor, MI|112|42.238902| -83.73586|TRUE|FALSE|FALSE|TRUE
5735483|Wyndham Garden Ann Arbor|Ann Arbor, MI|91|42.28387| -83.78845|TRUE|FALSE|FALSE|TRUE
5735483|Staybridge Suites Ann Arbor- Univ of Michigan, an IHG Hotel|Ann Arbor, MI|165|42.23097| -83.73839|FALSE|FALSE|TRUE|TRUE
5735483|Extended Stay America Suites Detroit Ann Arbor Briarwood Mal|Ann Arbor, MI|105|42.239052| -83.75295|TRUE|TRUE|FALSE|TRUE
5735483|Hyatt Place Ann Arbor|Ann Arbor, MI|157|42.2408| -83.73761|FALSE|TRUE|TRUE|TRUE
5735483|A Victory Inn & Suites - Ann Arbor|Ann Arbor, MI|79|42.25435| -83.68730|TRUE|FALSE|FALSE|TRUE
5735483|Extended Stay America Suites Detroit Ann Arbor University S|Ann Arbor, MI|90|42.241235| -83.73200|TRUE|TRUE|FALSE|TRUE
5735483|Bell Tower Hotel|Ann Arbor, MI|183|42.27927| -83.73989|FALSE|TRUE|TRUE|TRUE
5735483|The Kensington Hotel|Ann Arbor, MI|188|42.238867| -83.74120|FALSE|FALSE|TRUE|TRUE
5735483|Weber's Hotel & Restaurant|Ann Arbor, MI|176|42.284707| -83.79321|FALSE|FALSE|TRUE|TRUE
5735483|Graduate Ann Arbor|Ann Arbor, MI|168|42.28145| -83.74151|FALSE|TRUE|TRUE|TRUE
5735485|Days Inn by Wyndham Madison NE/Windsor|Madison, WI|72|43.192907| -89.33934|TRUE|FALSE|FALSE|TRUE
5735485|Quality Inn Madison West Near University Area|Madison, WI|69|43.052342| -89.50114|TRUE|FALSE|FALSE|TRUE
5735485|The Edgewater|Madison, WI|245|43.07931| -89.38984|FALSE|TRUE|TRUE|TRUE
5735485|Super 8 by Wyndham Madison South|Madison, WI|83|43.035844| -89.40923|TRUE|FALSE|FALSE|TRUE
5735485|Hotel Indigo Madison Downtown, an IHG Hotel|Madison, WI|173|43.082213| -89.37275|FALSE|FALSE|TRUE|TRUE
5735485|Grand Hotel Madison|Madison, WI|77|43.04459| -89.27415|TRUE|FALSE|FALSE|TRUE
5735485|Baymont Inn & Suites by Wyndham Madison|Madison, WI|86|43.03168| -89.41558|TRUE|FALSE|FALSE|TRUE
5735485|DoubleTree by Hilton Madison Downtown|Madison, WI|155|43.071393| -89.39423|FALSE|TRUE|TRUE|TRUE
5735485|Best Western Premier Park Hotel|Madison, WI|133|43.07298| -89.38481|FALSE|TRUE|TRUE|TRUE
5735485|Home2 Suites by Hilton Madison Central Alliant Energy Center|Madison, WI|152|43.042243| -89.37674|FALSE|FALSE|TRUE|TRUE
5735485|Hilton Garden Inn Madison Downtown|Madison, WI|127|43.068332| -89.39831|FALSE|TRUE|FALSE|TRUE
5735485|The Madison Concourse Hotel and Governor's Club|Madison, WI|132|43.075733| -89.38664|FALSE|TRUE|FALSE|TRUE
5735485|Hyatt Place Madison Downtown|Madison, WI|148|43.071686| -89.38746|FALSE|TRUE|TRUE|TRUE
5735485|MainStay Suites|Madison, WI|83|43.139444| -89.28722|TRUE|FALSE|FALSE|TRUE
5735485|Red Roof Inn Madison, WI|Madison, WI|63|43.135998| -89.30145|TRUE|FALSE|FALSE|TRUE
5735485|Valued Stay Madison|Madison, WI|77|43.046826| -89.26744|TRUE|FALSE|FALSE|TRUE
5735485|Hampton Inn & Suites Madison / Downtown|Madison, WI|132|43.0727| -89.39343|FALSE|TRUE|FALSE|TRUE
5735485|Econo Lodge Madison|Madison, WI|62|43.132488| -89.30341|TRUE|FALSE|FALSE|TRUE
5735485|Graduate Madison|Madison, WI|133|43.07552| -89.39564|FALSE|TRUE|TRUE|TRUE
5735485|Best Western Plus InnTowner Madison|Madison, WI|135|43.072436| -89.42773|FALSE|FALSE|TRUE|TRUE
5735485|Hilton Madison Monona Terrace|Madison, WI|156|43.07267| -89.38033|FALSE|TRUE|TRUE|TRUE
5735485|Sheraton Madison Hotel|Madison, WI|155|43.04749| -89.37309|FALSE|FALSE|TRUE|TRUE
5735485|Comfort Suites Madison West|Madison, WI|87|43.085606| -89.52305|TRUE|FALSE|FALSE|TRUE
5735485|AC Hotel by Marriott Madison Downtown|Madison, WI|213|43.076489| -89.38234|FALSE|TRUE|TRUE|TRUE
5735486|Travelodge by Wyndham Iowa City|Iowa City, IA|77|41.684359| -91.50344|TRUE|FALSE|FALSE|TRUE
5735486|MainStay Suites Coralville - Iowa City|Iowa City, IA|86|41.697797| -91.60391|TRUE|FALSE|FALSE|TRUE
5735486|Hotel Chauncey Iowa City, Tapestry Collection by Hilton|Iowa City, IA|126|41.659149| -91.52974|FALSE|FALSE|TRUE|TRUE
5735486|Staybridge Suites Iowa City Coralville, an IHG Hotel|Iowa City, IA|139|41.681248| -91.56269|FALSE|FALSE|TRUE|TRUE
5735486|Best Western Plus Coraville Hotel|Iowa City, IA|99|41.687879| -91.61168|TRUE|FALSE|FALSE|TRUE
5735486|Iowa House Hotel|Iowa City, IA|134|41.662798| -91.53873|FALSE|TRUE|TRUE|TRUE
5735486|Homewood Suites by Hilton Coralville - Iowa River Landing|Iowa City, IA|183|41.682604| -91.56218|FALSE|FALSE|TRUE|TRUE
5735486|Courtyard by Marriott Iowa City University Heights|Iowa City, IA|144|41.656137| -91.55217|FALSE|TRUE|TRUE|TRUE
5735486|Home2 Suites Iowa City Coralville|Iowa City, IA|153|41.687439| -91.61087|FALSE|FALSE|TRUE|TRUE
5735486|Sleep Inn North Liberty|Iowa City, IA|74|41.749795| -91.64068|TRUE|FALSE|FALSE|TRUE
5735486|Hampton Inn Iowa City/University Area|Iowa City, IA|154|41.649026| -91.53887|FALSE|FALSE|TRUE|TRUE
5735486|Element Iowa City|Iowa City, IA|158|41.65739| -91.53431|FALSE|TRUE|TRUE|TRUE
5735486|SureStay Plus Hotel by Best Western Coralville Iowa City|Iowa City, IA|94|41.675877| -91.56744|TRUE|TRUE|FALSE|TRUE
5735486|Hyatt Place Iowa City Downtown|Iowa City, IA|126|41.65623| -91.53228|FALSE|FALSE|TRUE|TRUE
5735486|Comfort Suites Coralville I-80|Iowa City, IA|100|41.68429| -91.60251|TRUE|FALSE|FALSE|TRUE
5735486|Graduate Iowa City|Iowa City, IA|90|41.65861| -91.53296|TRUE|TRUE|FALSE|TRUE
5735486|AmericInn by Wyndham Coralville|Iowa City, IA|67|41.701105| -91.60723|TRUE|FALSE|FALSE|TRUE
5735486|Heartland Inn|Iowa City, IA|111|41.66901| -91.56332|TRUE|TRUE|FALSE|TRUE
5735486|Hyatt Regency Coralville Hotel & Conference Center|Iowa City, IA|139|41.680897| -91.55859|FALSE|TRUE|TRUE|TRUE
5735486|Hilton Garden Inn Iowa City Downtown University|Iowa City, IA|129|41.65713| -91.53444|FALSE|TRUE|TRUE|TRUE
5735486|hotelVetro Iowa City, Tapestry Collection by Hilton|Iowa City, IA|125|41.658716| -91.53224|FALSE|TRUE|FALSE|TRUE
5735486|Super 8 by Wyndham Iowa City/Coralville|Iowa City, IA|68|41.677319| -91.56540|TRUE|TRUE|FALSE|TRUE
5735488|Days Inn by Wyndham Durham/Near Duke University|Durham, NC|76|36.02151| -78.94786|TRUE|TRUE|FALSE|TRUE
5735488|Extended Stay America Suites Raleigh RTP Hwy 55|Durham, NC|86|35.899168| -78.86364|TRUE|FALSE|FALSE|TRUE
5735488|Extended Stay America Suites Durham University Ivy Creek Blv|Durham, NC|92|35.960687| -78.96065|TRUE|FALSE|FALSE|TRUE
5735488|AC Hotel Durham|Durham, NC|154|36.00774| -78.94709|FALSE|TRUE|FALSE|TRUE
5735488|Durham Marriott City Center|Durham, NC|215|35.99735| -78.90255|FALSE|FALSE|TRUE|TRUE
5735488|Hilton Durham near Duke University|Durham, NC|119|36.02637| -78.95688|FALSE|TRUE|FALSE|TRUE
5735488|21c Museum Hotel Durham|Durham, NC|190|35.99598| -78.90185|FALSE|FALSE|TRUE|TRUE
5735488|Washington Duke Inn & Golf Club|Durham, NC|280|35.99294| -78.94739|FALSE|TRUE|TRUE|TRUE
5735488|OYO Hotel Durham West Hills|Durham, NC|69|36.034431| -79.00769|TRUE|FALSE|FALSE|TRUE
5735488|Marriott Raleigh Durham Research Triangle Park|Durham, NC|175|35.892582| -78.84648|FALSE|FALSE|TRUE|TRUE
5735488|SureStay Plus Hotel by Best Western Durham Medical Center|Durham, NC|72|36.025018| -78.95610|TRUE|TRUE|FALSE|TRUE
5735488|JB Duke Hotel|Durham, NC|237|35.99763| -78.94663|FALSE|TRUE|TRUE|TRUE
5735488|Comfort Suites Raleigh Durham Airport/Research Triangle Park|Durham, NC|89|35.8802582| -78.84364|TRUE|FALSE|FALSE|TRUE
5735488|Extended Stay America Suites Durham University|Durham, NC|92|35.994033| -78.89862|TRUE|FALSE|FALSE|TRUE
5735488|Extended Stay America Suites Raleigh RTP 4919 Miami Blvd|Durham, NC|75|35.887874| -78.84862|TRUE|FALSE|FALSE|TRUE
5735488|Arrowhead Inn|Durham, NC|263|36.118121| -78.90353|FALSE|FALSE|TRUE|TRUE
5735488|The Siena Hotel, Autograph Collection|Durham, NC|237|35.930481| -79.03454|FALSE|FALSE|TRUE|TRUE
5735488|University Inn Durham next to Duke University Medical Center|Durham, NC|124|36.009537| -78.93616|FALSE|TRUE|FALSE|TRUE
5735488|Hilton Garden Inn Durham/University Medical Center|Durham, NC|149|36.00721| -78.92448|FALSE|TRUE|FALSE|TRUE
5735488|The Durham Hotel|Durham, NC|212|35.99715| -78.90096|FALSE|FALSE|TRUE|TRUE
5735488|The Carolina Inn, a Destination by Hyatt Hotel|Durham, NC|239|35.909758| -79.05428|FALSE|FALSE|TRUE|TRUE
5735488|La Quinta Inn & Suites by Wyndham Raleigh/Durham Southpoint|Durham, NC|85|35.90759| -78.89143|TRUE|FALSE|FALSE|TRUE
5735488|Sonesta Select Durham Research Triangle Park|Durham, NC|87|35.90473| -78.89610|TRUE|FALSE|FALSE|TRUE
5735488|Residence Inn Durham McPherson/Duke University Medical Cntr|Durham, NC|153|36.001878| -78.91180|FALSE|TRUE|FALSE|TRUE
5735488|Rizzo Center, a Destination by Hyatt Hotel|Durham, NC|169|35.912365| -79.00462|FALSE|FALSE|TRUE|TRUE
5735488|Sleep Inn Raleigh Durham Airport|Durham, NC|89|35.8819| -78.84218|TRUE|FALSE|FALSE|TRUE
5735488|The Lodge at Duke Medical Center|Durham, NC|166|36.009521| -78.93675|FALSE|TRUE|FALSE|TRUE
5735491|Hotel Indigo Tallahassee - College Town, an IHG Hotel|Tallahassee, FL|156|30.435702| -84.29697|FALSE|TRUE|TRUE|TRUE
5735491|Sleep Inn University|Tallahassee, FL|69|30.474487| -84.36156|TRUE|FALSE|FALSE|TRUE
5735491|Four Points by Sheraton Tallahassee Downtown|Tallahassee, FL|113|30.4455| -84.28500|FALSE|TRUE|TRUE|TRUE
5735491|La Quinta Inn by Wyndham Tallahassee North|Tallahassee, FL|69|30.48197| -84.30543|TRUE|FALSE|FALSE|TRUE
5735491|Clarion Pointe Tallahassee-State Capitol|Tallahassee, FL|70|30.477735| -84.29993|TRUE|FALSE|FALSE|TRUE
5735491|Hotel Duval, Autograph Collection|Tallahassee, FL|162|30.445948| -84.28046|FALSE|TRUE|TRUE|TRUE
5735491|Baymont by Wyndham Midway/Tallahassee|Tallahassee, FL|74|30.493431| -84.42693|TRUE|FALSE|FALSE|TRUE
5735491|Holiday Inn Tallahassee E Capitol - Univ, an IHG Hotel|Tallahassee, FL|111|30.430516| -84.24662|FALSE|FALSE|TRUE|TRUE
5735491|Wyndham Garden Tallahassee Capitol|Tallahassee, FL|76|30.43563| -84.26001|TRUE|TRUE|FALSE|TRUE
5735491|Days Inn & Suites by Wyndham Tallahassee Conf Center I-10|Tallahassee, FL|338|30.47968| -84.30519|FALSE|FALSE|TRUE|TRUE
5735491|Hyatt House Tallahassee Capitol – University|Tallahassee, FL|127|30.43264| -84.28995|FALSE|TRUE|TRUE|TRUE
5735491|Fairfield Inn Tallahassee North/I-10|Tallahassee, FL|93|30.487589| -84.31574|TRUE|FALSE|FALSE|TRUE
5735491|Home2 Suites by Hilton Tallahassee State Capitol|Tallahassee, FL|98|30.44046| -84.26359|FALSE|TRUE|FALSE|TRUE
5735491|Quality Inn Tallahassee near University|Tallahassee, FL|61|30.48447| -84.31387|TRUE|FALSE|FALSE|TRUE
5735491|DoubleTree by Hilton Hotel Tallahassee|Tallahassee, FL|152|30.44156| -84.28161|FALSE|TRUE|TRUE|TRUE
5735491|Comfort Suites Tallahassee Downtown|Tallahassee, FL|116|30.438475| -84.26536|FALSE|TRUE|TRUE|TRUE
5735491|Econo Lodge North|Tallahassee, FL|72|30.47759| -84.29757|TRUE|FALSE|FALSE|TRUE
5735491|Red Roof Inn - Tallahassee East|Tallahassee, FL|89|30.482907| -84.16305|TRUE|FALSE|FALSE|TRUE
5735491|Courtyard by Marriott Tallahassee Downtown/Capitol|Tallahassee, FL|128|30.439| -84.26625|FALSE|TRUE|TRUE|TRUE
5735491|Aloft Tallahassee Downtown|Tallahassee, FL|118|30.44399| -84.28092|FALSE|TRUE|TRUE|TRUE
5735491|Sleep Inn & Suites Tallahassee-Capitol|Tallahassee, FL|69|30.48588| -84.31606|TRUE|FALSE|FALSE|TRUE
5735493|The Ritz-Carlton Coconut Grove, Miami|Coral Gables, FL|955|25.730447| -80.23806|FALSE|TRUE|TRUE|TRUE
5735493|Mr. C Miami – Coconut Grove|Coral Gables, FL|634|25.727556| -80.24194|FALSE|TRUE|TRUE|TRUE
5735493|Hyatt Regency Coral Gables|Coral Gables, FL|462|25.7518784| -80.25582|FALSE|TRUE|FALSE|TRUE
5735493|WoodSpring Suites Miami Southwest|Coral Gables, FL|107|25.619794| -80.37992|TRUE|FALSE|FALSE|TRUE
5735493|Motel 6 Miami, FL|Coral Gables, FL|101|25.808782| -80.31612|TRUE|FALSE|FALSE|TRUE
5735493|THesis Hotel Miami|Coral Gables, FL|249|25.712361| -80.27850|FALSE|TRUE|FALSE|TRUE
5735493|Hampton Inn Miami Dadeland|Coral Gables, FL|197|25.694006| -80.30704|FALSE|TRUE|FALSE|TRUE
5735493|Best Western Plus Miami-Doral/Dolphin Mall|Coral Gables, FL|133|25.809198| -80.36773|TRUE|FALSE|FALSE|TRUE
5735493|Quality Inn Miami South|Coral Gables, FL|134|25.634984| -80.33794|TRUE|FALSE|FALSE|TRUE
5735493|Hotel Ponce de Leon|Coral Gables, FL|112|25.75621| -80.25857|TRUE|FALSE|FALSE|TRUE
5735493|Mayfair House Hotel & Garden|Coral Gables, FL|382|25.728811| -80.24124|FALSE|TRUE|FALSE|TRUE
5735493|Four Seasons Hotel Miami|Coral Gables, FL|729|25.758805| -80.19226|FALSE|FALSE|TRUE|TRUE
5735493|Onyx Hotel Miami Airport|Coral Gables, FL|114|25.808323| -80.27891|TRUE|FALSE|FALSE|TRUE
5735493|Biltmore Hotel - Miami - Coral Gables|Coral Gables, FL|700|25.7409| -80.27771|FALSE|TRUE|TRUE|TRUE
5735493|Hilton Bentley Miami/South Beach|Coral Gables, FL|732|25.769791| -80.13281|FALSE|FALSE|TRUE|TRUE
5735493|Days Inn by Wyndham Miami Airport North|Coral Gables, FL|134|25.808275| -80.27500|TRUE|FALSE|FALSE|TRUE
5735493|SLS LUX Brickell|Coral Gables, FL|1271|25.766094| -80.19306|FALSE|FALSE|TRUE|TRUE
5735493|SLS Brickell|Coral Gables, FL|1158|25.761093| -80.19360|FALSE|FALSE|TRUE|TRUE
5735493|Extended Stay America Suites Miami Airport Doral|Coral Gables, FL|134|25.795872| -80.28705|TRUE|FALSE|FALSE|TRUE
5735493|Courtyard by Marriott Miami Dadeland|Coral Gables, FL|172|25.686086| -80.31478|FALSE|TRUE|FALSE|TRUE
5735493|Rodeway Inn South Miami Coral Gables|Coral Gables, FL|128|25.705416| -80.29105|TRUE|TRUE|FALSE|TRUE
5735493|Days Inn by Wyndham Miami International Airport|Coral Gables, FL|126|25.78073| -80.31354|TRUE|FALSE|FALSE|TRUE
5735493|JW Marriott Marquis Miami|Coral Gables, FL|610|25.771089| -80.18945|FALSE|FALSE|TRUE|TRUE
5735493|Mandarin Oriental, Miami|Coral Gables, FL|509|25.764991| -80.18540|FALSE|FALSE|TRUE|TRUE
5735493|La Quinta Inn by Wyndham Miami Airport North|Coral Gables, FL|128|25.810544| -80.31683|TRUE|FALSE|FALSE|TRUE
5735493|W Miami|Coral Gables, FL|765|25.70084| -80.25735|FALSE|TRUE|TRUE|TRUE
5735493|Chateaubleau Hotel|Coral Gables, FL|134|25.760782| -80.25870|TRUE|FALSE|FALSE|TRUE
5735495|Super 8 by Wyndham Bloomington|Bloomington, IN|65|39.187592| -86.54508|TRUE|FALSE|FALSE|TRUE
5735495|Hampton Inn Bloomington|Bloomington, IN|110|39.18527| -86.53352|TRUE|TRUE|FALSE|TRUE
5735495|Best Value Inn|Bloomington, IN|78|39.185875| -86.53332|TRUE|TRUE|FALSE|TRUE
5735495|The Beaumont House|Bloomington, IN|212|39.16923| -86.66535|FALSE|FALSE|TRUE|TRUE
5735495|Home2 Suites by Hilton Bloomington|Bloomington, IN|141|39.17988| -86.53321|FALSE|TRUE|TRUE|TRUE
5735495|Biddle Hotel and Conference Center|Bloomington, IN|133|39.167678| -86.52241|FALSE|TRUE|TRUE|TRUE
5735495|Quality Inn Bloomington near University|Bloomington, IN|65|39.187705| -86.54603|TRUE|FALSE|FALSE|TRUE
5735495|Comfort Inn Bloomington near University|Bloomington, IN|94|39.185271| -86.53625|TRUE|TRUE|FALSE|TRUE
5735495|La Quinta Inn & Suites by Wyndham Bloomington|Bloomington, IN|98|39.16659| -86.57700|TRUE|FALSE|FALSE|TRUE
5735495|Candlewood Suites Bloomington, an IHG Hotel|Bloomington, IN|106|39.150179| -86.57002|TRUE|FALSE|FALSE|TRUE
5735495|Travelodge by Wyndham Bloomington|Bloomington, IN|84|39.16472| -86.49981|TRUE|FALSE|FALSE|TRUE
5735495|Century Suites Hotel|Bloomington, IN|129|39.16342| -86.47212|FALSE|FALSE|TRUE|TRUE
5735495|Grant Street Inn|Bloomington, IN|133|39.16881| -86.52952|FALSE|TRUE|TRUE|TRUE
5735495|Holiday Inn Bloomington, an IHG Hotel|Bloomington, IN|107|39.185702| -86.53607|TRUE|TRUE|FALSE|TRUE
5735495|SpringHill Suites by Marriott Bloomington|Bloomington, IN|156|39.17063| -86.53550|FALSE|TRUE|TRUE|TRUE
5735495|Showers Inn|Bloomington, IN|156|39.17032| -86.53208|FALSE|TRUE|TRUE|TRUE
5735495|Graduate Bloomington|Bloomington, IN|132|39.16628| -86.53161|FALSE|FALSE|TRUE|TRUE
5735495|Wampler House|Bloomington, IN|167|39.11223| -86.53932|FALSE|FALSE|TRUE|TRUE
5735495|Courtyard by Marriott Bloomington|Bloomington, IN|113|39.16376| -86.53538|TRUE|FALSE|FALSE|TRUE
5735495|Hilton Garden Inn Bloomington|Bloomington, IN|132|39.16808| -86.53515|FALSE|TRUE|TRUE|TRUE
