id|name|city|price|lat|long|p|t|l|fresh
5502788|SpringHill Suites by Marriott Columbia|Columbia, MO| 114|38.96508| -92.28535|TRUE|FALSE|FALSE|TRUE
5502788|Holiday Inn Columbia East, an IHG Hotel|Columbia, MO| 143|38.95811| -92.25256|FALSE|FALSE|TRUE|TRUE
5502788|Hilton Garden Inn Columbia|Columbia, MO| 125|38.97470| -92.28922|FALSE|FALSE|TRUE|TRUE
5502788|Country Inn & Suites by Radisson, Columbia, MO|Columbia, MO| 102|38.95968| -92.28967|TRUE|FALSE|FALSE|TRUE
5502788|Drury Plaza Hotel Columbia East|Columbia, MO| 144|38.96065| -92.28959|FALSE|FALSE|TRUE|TRUE
5502788|Courtyard by Marriott Columbia Missouri|Columbia, MO| 140|38.91432| -92.29258|FALSE|TRUE|TRUE|TRUE
5502788|The Broadway Columbia - a DoubleTree by Hilton|Columbia, MO| 403|38.95175| -92.32465|FALSE|TRUE|TRUE|TRUE
5502788|La Quinta Inn & Suites by Wyndham Columbia|Columbia, MO| 105|38.96803| -92.37609|TRUE|FALSE|FALSE|TRUE
5502788|Super 8 by Wyndham Columbia East|Columbia, MO|  82|38.96089| -92.25079|TRUE|FALSE|FALSE|TRUE
5502788|Wingate by Wyndham - Columbia|Columbia, MO| 128|38.95827| -92.29132|FALSE|TRUE|TRUE|TRUE
5502788|Holiday Inn Executive Center-Columbia Mall, an IHG Hotel|Columbia, MO| 153|38.96700| -92.37362|FALSE|FALSE|TRUE|TRUE
5502788|Country Inn and Suites by Radisson, Columbia, MO|Columbia, MO| 110|38.95964| -92.28974|TRUE|FALSE|FALSE|TRUE
5502788|Comfort Suites Columbia - University Area|Columbia, MO|  95|38.96602| -92.35411|TRUE|TRUE|FALSE|TRUE
5502788|voco The Tiger Hotel, an IHG Hotel|Columbia, MO| 229|38.95087| -92.32880|FALSE|TRUE|TRUE|TRUE
5502788|Extended Stay America Suites Columbia Stadium Blvd|Columbia, MO| 102|38.93925| -92.35196|TRUE|TRUE|FALSE|TRUE
5502788|Best Western Plus Columbia Inn|Columbia, MO|  90|38.96281| -92.29375|TRUE|TRUE|FALSE|TRUE
5502788|Hampton Inn Columbia|Columbia, MO| 133|38.96294| -92.28750|FALSE|FALSE|TRUE|TRUE
5502788|Red Roof Inn Columbia, MO|Columbia, MO|  73|38.97044| -92.33521|TRUE|TRUE|FALSE|TRUE
5502788|Ramada by Wyndham Columbia|Columbia, MO|  72|38.96032| -92.29371|TRUE|TRUE|FALSE|TRUE
5502788|Stoney Creek Hotel Columbia|Columbia, MO| 134|38.92172| -92.33819|FALSE|TRUE|TRUE|TRUE
5586231|Quality Inn & Suites|Lubbock, TX|  82|33.56116|-101.94406|TRUE|FALSE|FALSE|TRUE
5586231|Hawthorn Suites by Wyndham Lubbock|Lubbock, TX| 136|33.57286|-101.90641|FALSE|TRUE|FALSE|TRUE
5586231|Extended Stay America Suites Lubbock Southwest|Lubbock, TX|  75|33.54321|-101.93798|TRUE|FALSE|FALSE|TRUE
5586231|Econo Lodge Lubbock I-27|Lubbock, TX|  87|33.54193|-101.84615|TRUE|FALSE|FALSE|TRUE
5586231|Holiday Inn Lubbock South, an IHG Hotel|Lubbock, TX| 152|33.53761|-101.95020|FALSE|FALSE|TRUE|TRUE
5586231|Quality Suites|Lubbock, TX|  93|33.56116|-101.94406|TRUE|FALSE|FALSE|TRUE
5586231|Red Roof Inn & Conference Center Lubbock|Lubbock, TX|  75|33.53243|-101.84589|TRUE|FALSE|FALSE|TRUE
5586231|Best Western Plus Lubbock Windsor Inn|Lubbock, TX|  93|33.54299|-101.84613|TRUE|FALSE|FALSE|TRUE
5586231|Hyatt Place Lubbock|Lubbock, TX| 198|33.58975|-101.86685|FALSE|TRUE|TRUE|TRUE
5586231|SureStay Plus Hotel by Best Western Lubbock Medical Center|Lubbock, TX|  78|33.57735|-101.89807|TRUE|TRUE|FALSE|TRUE
5586231|Guest House Inn|Lubbock, TX|  91|33.57748|-101.87494|TRUE|TRUE|FALSE|TRUE
5586231|Howard Johnson by Wyndham Lubbock TX|Lubbock, TX|  57|33.54754|-101.84618|TRUE|FALSE|FALSE|TRUE
5586231|Pioneer Pocket Hotel|Lubbock, TX| 154|33.58474|-101.84827|FALSE|TRUE|TRUE|TRUE
5586231|DoubleTree by Hilton Lubbock University Area|Lubbock, TX| 206|33.59061|-101.85448|FALSE|TRUE|TRUE|TRUE
5586231|Cotton Court Hotel|Lubbock, TX| 234|33.58522|-101.85337|FALSE|TRUE|TRUE|TRUE
5586231|Arbor Inn and Suites|Lubbock, TX|  91|33.54456|-101.93825|TRUE|FALSE|FALSE|TRUE
5586231|Staybridge Suites Lubbock, an IHG Hotel|Lubbock, TX| 141|33.57749|-101.87191|FALSE|TRUE|TRUE|TRUE
5586231|Overton Hotel and Conference Center|Lubbock, TX| 195|33.59081|-101.86785|FALSE|TRUE|TRUE|TRUE
5586231|Homewood Suites by Hilton Lubbock|Lubbock, TX| 273|33.54399|-101.93659|FALSE|FALSE|TRUE|TRUE
5586231|Courtyard by Marriott Lubbock Downtown/University Area|Lubbock, TX| 165|33.59357|-101.86484|FALSE|TRUE|TRUE|TRUE
5586231|Embassy Suites Lubbock|Lubbock, TX| 146|33.53485|-101.92493|FALSE|FALSE|TRUE|TRUE
5586277|Microtel Inn & Suites by Wyndham Stillwater|Stillwater, OK| 115|36.12557| -97.05305|TRUE|TRUE|TRUE|TRUE
5586277|Hampton Inn & Suites Stillwater|Stillwater, OK| 137|36.11461| -97.12177|TRUE|TRUE|TRUE|TRUE
5586277|SpringHill Suites by Marriott Stillwater|Stillwater, OK| 152|36.11909| -97.11713|TRUE|TRUE|TRUE|TRUE
5586277|Best Western Plus Cimarron Hotel & Suites|Stillwater, OK| 127|36.12580| -97.06004|TRUE|TRUE|TRUE|TRUE
5586277|Executive Inn Stillwater|Stillwater, OK|  69|36.11739| -97.12639|TRUE|TRUE|TRUE|TRUE
5586277|Wyndham Garden Stillwater|Stillwater, OK| 128|36.13162| -97.05018|TRUE|TRUE|TRUE|TRUE
5586277|Americas Best Value Inn Stillwater|Stillwater, OK|  58|36.11700| -97.12849|TRUE|FALSE|FALSE|TRUE
5586277|Residence Inn by Marriott Stillwater|Stillwater, OK| 281|36.11253| -97.11693|FALSE|TRUE|TRUE|TRUE
5586277|The Atherton Hotel At OSU|Stillwater, OK| 230|36.12045| -97.06880|TRUE|TRUE|TRUE|TRUE
5586277|Home2 Suites by Hilton Stillwater|Stillwater, OK| 148|36.12741| -97.05581|TRUE|TRUE|TRUE|TRUE
5586277|Holiday Inn Stillwater - University West, an IHG Hotel|Stillwater, OK| 201|36.11363| -97.12223|TRUE|TRUE|TRUE|TRUE
5601220|Quality Inn near Downtown Tucson|Tucson, AZ|  71|32.22187|-110.97127|TRUE|TRUE|FALSE|TRUE
5601220|Baymont by Wyndham Tucson Airport|Tucson, AZ|  93|32.12589|-110.93312|TRUE|FALSE|FALSE|TRUE
5601220|The Lodge at Ventana Canyon|Tucson, AZ| 329|32.32191|-110.84534|FALSE|FALSE|TRUE|TRUE
5601220|Knights Inn Tucson D.M.A.F Area|Tucson, AZ|  94|32.20341|-110.87553|TRUE|FALSE|FALSE|TRUE
5601220|DoubleTree by Hilton Tucson Downtown Convention Center|Tucson, AZ| 146|32.21732|-110.97321|FALSE|TRUE|FALSE|TRUE
5601220|Hacienda Del Sol Guest Ranch Resort|Tucson, AZ| 347|32.30802|-110.91444|FALSE|FALSE|TRUE|TRUE
5601220|Travel Inn|Tucson, AZ|  80|32.11720|-110.86047|TRUE|FALSE|FALSE|TRUE
5601220|The Westin La Paloma Resort and Spa|Tucson, AZ| 285|32.31465|-110.91615|FALSE|FALSE|TRUE|TRUE
5601220|Aloft Tucson University|Tucson, AZ| 146|32.23575|-110.94326|FALSE|TRUE|FALSE|TRUE
5601220|GLH Hotel|Tucson, AZ|  85|32.24987|-110.99386|TRUE|FALSE|FALSE|TRUE
5601220|Desert Diamond Casino & Hotel|Tucson, AZ| 282|32.11816|-110.96415|FALSE|FALSE|TRUE|TRUE
5601220|3 Palms Tucson North Foothills|Tucson, AZ|  99|32.34139|-110.97772|TRUE|FALSE|FALSE|TRUE
5601220|Stone Inn U of A|Tucson, AZ| 105|32.23820|-110.97141|FALSE|TRUE|FALSE|TRUE
5601220|Days Inn Tucson City Center|Tucson, AZ|  89|32.23119|-110.98414|TRUE|FALSE|FALSE|TRUE
5601220|Quality Inn Tucson Airport - East Valencia|Tucson, AZ|  89|32.13453|-110.92957|TRUE|FALSE|FALSE|TRUE
5601220|Graduate Tucson|Tucson, AZ| 184|32.23282|-110.95767|FALSE|TRUE|FALSE|TRUE
5601220|Days Inn by Wyndham Tucson Airport|Tucson, AZ|  89|32.16423|-110.91671|TRUE|FALSE|FALSE|TRUE
5601220|The Armory Park Inn|Tucson, AZ| 459|32.21632|-110.96422|FALSE|TRUE|TRUE|TRUE
5601220|JW Marriott Starr Pass Resort and Spa|Tucson, AZ| 324|32.21601|-111.05030|FALSE|FALSE|TRUE|TRUE
5601220|Westward Look Wyndham Grand Resort and Spa|Tucson, AZ| 197|32.34263|-110.96530|FALSE|FALSE|TRUE|TRUE
5601220|Tucson Marriott University Park|Tucson, AZ| 203|32.23252|-110.95832|FALSE|TRUE|TRUE|TRUE
5601220|Best Western Royal Sun Inn & Suites|Tucson, AZ| 120|32.23488|-110.97199|FALSE|TRUE|FALSE|TRUE
5601220|Loews Ventana Canyon Resort|Tucson, AZ| 269|32.32770|-110.85016|FALSE|FALSE|TRUE|TRUE
5601220|Econo Lodge near the University of Arizona|Tucson, AZ|  74|32.23188|-110.95011|TRUE|TRUE|FALSE|TRUE
5601220|Lodge on the Desert|Tucson, AZ| 205|32.22597|-110.90885|FALSE|FALSE|TRUE|TRUE
5601220|Red Roof Inn Tucson Downtown – University|Tucson, AZ| 102|32.23879|-110.97157|FALSE|TRUE|FALSE|TRUE
5601254|Ramada by Wyndham Mountain View|Stanford, CA| 121|37.40635|-122.06375|TRUE|FALSE|FALSE|TRUE
5601254|Americas Best Value Inn Mountain View|Stanford, CA| 112|37.38709|-122.08600|TRUE|FALSE|FALSE|TRUE
5601254|Quality Inn Santa Clara Convention Center|Stanford, CA| 106|37.40705|-121.99828|TRUE|FALSE|FALSE|TRUE
5601254|Stanford Motor Inn Palo Alto|Stanford, CA| 171|37.42042|-122.13665|FALSE|TRUE|FALSE|TRUE
5601254|Good Nite Inn - Redwood City|Stanford, CA| 104|37.49631|-122.23581|TRUE|FALSE|FALSE|TRUE
5601254|The Westin Palo Alto|Stanford, CA| 394|37.44063|-122.16310|FALSE|TRUE|FALSE|TRUE
5601254|Shashi Hotel Mountain View, an Urban Resort|Stanford, CA| 458|37.41695|-122.07772|FALSE|FALSE|TRUE|TRUE
5601254|Good Living Inn|Stanford, CA| 136|37.49595|-122.24755|TRUE|FALSE|FALSE|TRUE
5601254|Ramada by Wyndham Sunnyvale/Silicon Valley|Stanford, CA| 124|37.39097|-121.99232|TRUE|FALSE|FALSE|TRUE
5601254|Rosewood Sand Hill|Stanford, CA|1005|37.41924|-122.21292|FALSE|FALSE|TRUE|TRUE
5601254|Hotel Keen|Stanford, CA| 382|37.44476|-122.16403|FALSE|TRUE|FALSE|TRUE
5601254|Residence Inn Palo Alto Menlo Park|Stanford, CA| 489|37.45646|-122.18645|FALSE|FALSE|TRUE|TRUE
5601254|Days Inn by Wyndham Redwood City|Stanford, CA| 111|37.47102|-122.21615|TRUE|FALSE|FALSE|TRUE
5601254|The Clement Hotel – All Inclusive|Stanford, CA|1062|37.44024|-122.16268|FALSE|TRUE|TRUE|TRUE
5601254|el PRADO|Stanford, CA| 807|37.44766|-122.15908|FALSE|TRUE|TRUE|TRUE
5601254|Hotel Nia, Autograph Collection|Stanford, CA| 403|37.48251|-122.17716|FALSE|FALSE|TRUE|TRUE
5601254|Sheraton Palo Alto Hotel|Stanford, CA| 321|37.44141|-122.16388|FALSE|TRUE|FALSE|TRUE
5601254|Four Seasons Hotel Silicon Valley at East Palo Alto|Stanford, CA| 450|37.46030|-122.14243|FALSE|FALSE|TRUE|TRUE
5601254|Extended Stay America Suites San Jose Sunnyvale|Stanford, CA| 128|37.36482|-121.91163|TRUE|FALSE|FALSE|TRUE
5601254|Best Western Plus Riviera|Stanford, CA| 369|37.44694|-122.17256|FALSE|TRUE|FALSE|TRUE
5601254|The Nest Hotel Palo Alto|Stanford, CA| 434|37.41735|-122.12899|FALSE|FALSE|TRUE|TRUE
5601254|Extended Stay America Suites San Jose Mountain View|Stanford, CA| 141|37.38026|-122.06871|TRUE|FALSE|FALSE|TRUE
5601254|Enchanté Boutique Hotel|Stanford, CA| 574|37.38078|-122.11446|FALSE|FALSE|TRUE|TRUE
5601254|Super 8 by Wyndham Mountain View|Stanford, CA| 125|37.38965|-122.09332|TRUE|FALSE|FALSE|TRUE
5601254|Creekside Inn|Stanford, CA| 196|37.41897|-122.13564|FALSE|TRUE|FALSE|TRUE
5601254|The Stanford Park Hotel|Stanford, CA| 560|37.44776|-122.17224|FALSE|TRUE|TRUE|TRUE
5601254|Hotel Lucent|Stanford, CA| 287|37.45136|-122.17914|FALSE|TRUE|FALSE|TRUE
5601935|Quality Inn Bloomington near University|Bloomington, IN|  65|39.18771| -86.54603|TRUE|FALSE|FALSE|TRUE
5601935|Graduate Bloomington|Bloomington, IN| 167|39.16628| -86.53161|FALSE|FALSE|TRUE|TRUE
5601935|La Quinta Inn & Suites by Wyndham Bloomington|Bloomington, IN|  98|39.16659| -86.57700|TRUE|FALSE|FALSE|TRUE
5601935|Century Suites Hotel|Bloomington, IN| 162|39.16342| -86.47212|FALSE|FALSE|TRUE|TRUE
5601935|Home2 Suites by Hilton Bloomington|Bloomington, IN| 161|39.17988| -86.53321|FALSE|TRUE|TRUE|TRUE
5601935|Holiday Inn Bloomington, an IHG Hotel|Bloomington, IN|  97|39.18570| -86.53607|TRUE|TRUE|FALSE|TRUE
5601935|Travelodge by Wyndham Bloomington|Bloomington, IN|  72|39.16472| -86.49981|TRUE|FALSE|FALSE|TRUE
5601935|SpringHill Suites by Marriott Bloomington|Bloomington, IN| 189|39.17063| -86.53550|FALSE|TRUE|TRUE|TRUE
5601935|Comfort Inn Bloomington near University|Bloomington, IN|  94|39.18527| -86.53625|TRUE|TRUE|FALSE|TRUE
5601935|Hilton Garden Inn Bloomington|Bloomington, IN| 113|39.16808| -86.53515|TRUE|TRUE|FALSE|TRUE
5601935|Showers Inn|Bloomington, IN| 156|39.17032| -86.53208|FALSE|TRUE|TRUE|TRUE
5601935|Hyatt Place Bloomington|Bloomington, IN| 160|39.16609| -86.53581|FALSE|FALSE|TRUE|TRUE
5601935|Courtyard by Marriott Bloomington|Bloomington, IN| 113|39.16376| -86.53538|TRUE|FALSE|FALSE|TRUE
5601935|Candlewood Suites Bloomington, an IHG Hotel|Bloomington, IN| 105|39.15018| -86.57002|TRUE|FALSE|FALSE|TRUE
5601935|Hampton Inn Bloomington|Bloomington, IN| 110|39.18527| -86.53352|TRUE|TRUE|FALSE|TRUE
5601935|Grant Street Inn|Bloomington, IN| 133|39.16881| -86.52952|FALSE|TRUE|TRUE|TRUE
5601935|Wampler House|Bloomington, IN| 213|39.11223| -86.53932|FALSE|FALSE|TRUE|TRUE
5601935|Super 8 by Wyndham Bloomington|Bloomington, IN|  90|39.18759| -86.54508|TRUE|FALSE|FALSE|TRUE
5601935|Biddle Hotel and Conference Center|Bloomington, IN| 156|39.16768| -86.52241|FALSE|TRUE|TRUE|TRUE
5601935|Best Value Inn|Bloomington, IN|  78|39.18588| -86.53332|TRUE|TRUE|FALSE|TRUE
5601935|The Beaumont House|Bloomington, IN| 212|39.16923| -86.66535|FALSE|FALSE|TRUE|TRUE
5601954|hotelVetro Iowa City, Tapestry Collection by Hilton|Iowa City, IA| 139|41.65872| -91.53224|FALSE|TRUE|TRUE|TRUE
5601954|Hampton Inn Iowa City/University Area|Iowa City, IA| 124|41.64903| -91.53887|TRUE|TRUE|FALSE|TRUE
5601954|Super 8 by Wyndham Iowa City/Coralville|Iowa City, IA|  68|41.67732| -91.56540|TRUE|FALSE|FALSE|TRUE
5601954|The Highlander Hotel|Iowa City, IA| 124|41.68834| -91.49601|TRUE|FALSE|FALSE|TRUE
5601954|Element Iowa City|Iowa City, IA| 181|41.65739| -91.53431|FALSE|TRUE|TRUE|TRUE
5601954|Heartland Inn|Iowa City, IA| 106|41.66901| -91.56332|TRUE|TRUE|FALSE|TRUE
5601954|Iowa House Hotel|Iowa City, IA| 134|41.66280| -91.53873|FALSE|TRUE|TRUE|TRUE
5601954|Hyatt Regency Coralville Hotel & Conference Center|Iowa City, IA| 152|41.68090| -91.55859|FALSE|FALSE|TRUE|TRUE
5601954|Travelodge by Wyndham Iowa City|Iowa City, IA|  75|41.68436| -91.50344|TRUE|FALSE|FALSE|TRUE
5601954|SureStay Plus Hotel by Best Western Coralville Iowa City|Iowa City, IA|  94|41.67588| -91.56744|TRUE|TRUE|FALSE|TRUE
5601954|Homewood Suites by Hilton Coralville - Iowa River Landing|Iowa City, IA| 250|41.68260| -91.56218|FALSE|FALSE|TRUE|TRUE
5601954|Hotel Chauncey Iowa City, Tapestry Collection by Hilton|Iowa City, IA| 144|41.65915| -91.52974|FALSE|TRUE|TRUE|TRUE
5601954|Hilton Garden Inn Iowa City Downtown University|Iowa City, IA| 153|41.65713| -91.53444|FALSE|TRUE|TRUE|TRUE
5601954|MainStay Suites Coralville - Iowa City|Iowa City, IA|  86|41.69780| -91.60391|TRUE|FALSE|FALSE|TRUE
5601954|Sleep Inn North Liberty|Iowa City, IA| 106|41.74979| -91.64068|TRUE|FALSE|FALSE|TRUE
5601954|Home2 Suites Iowa City Coralville|Iowa City, IA| 153|41.68744| -91.61087|FALSE|FALSE|TRUE|TRUE
5601954|Comfort Suites Coralville I-80|Iowa City, IA| 119|41.68429| -91.60251|TRUE|FALSE|FALSE|TRUE
5601954|Residence Inn by Marriott Coralville|Iowa City, IA| 175|41.68676| -91.60917|FALSE|FALSE|TRUE|TRUE
5601954|AmericInn by Wyndham Coralville|Iowa City, IA|  90|41.70110| -91.60723|TRUE|FALSE|FALSE|TRUE
5601954|Graduate Iowa City|Iowa City, IA| 125|41.65861| -91.53296|FALSE|TRUE|FALSE|TRUE
5601954|Hyatt Place Iowa City Downtown|Iowa City, IA| 146|41.65623| -91.53228|FALSE|TRUE|TRUE|TRUE
5606024|Best Western Premier Park Hotel|Madison, WI| 162|43.07298| -89.38481|FALSE|TRUE|TRUE|TRUE
5606024|Hilton Garden Inn Madison Downtown|Madison, WI| 127|43.06833| -89.39831|FALSE|TRUE|FALSE|TRUE
5606024|Valued Stay Madison|Madison, WI|  86|43.04683| -89.26744|TRUE|FALSE|FALSE|TRUE
5606024|Best Western West Towne Suites|Madison, WI|  88|43.05425| -89.49944|TRUE|FALSE|FALSE|TRUE
5606024|Marriott Madison West|Madison, WI| 153|43.08764| -89.52264|FALSE|FALSE|TRUE|TRUE
5606024|Hilton Madison Monona Terrace|Madison, WI| 166|43.07267| -89.38033|FALSE|FALSE|TRUE|TRUE
5606024|Hyatt Place Madison / Verona|Madison, WI| 152|42.97500| -89.50876|FALSE|FALSE|TRUE|TRUE
5606024|Hotel Indigo Madison Downtown, an IHG Hotel|Madison, WI| 217|43.08221| -89.37275|FALSE|FALSE|TRUE|TRUE
5606024|Quality Inn Madison West Near University Area|Madison, WI|  69|43.05234| -89.50114|TRUE|FALSE|FALSE|TRUE
5606024|The Edgewater|Madison, WI| 363|43.07931| -89.38984|FALSE|TRUE|TRUE|TRUE
5606024|DoubleTree by Hilton Madison Downtown|Madison, WI| 155|43.07139| -89.39423|FALSE|TRUE|TRUE|TRUE
5606024|Red Roof Inn Madison, WI|Madison, WI|  70|43.13600| -89.30145|TRUE|FALSE|FALSE|TRUE
5606024|Graduate Madison|Madison, WI| 158|43.07552| -89.39564|FALSE|TRUE|TRUE|TRUE
5606024|MainStay Suites|Madison, WI|  83|43.13944| -89.28722|TRUE|FALSE|FALSE|TRUE
5606024|Best Western Plus InnTowner Madison|Madison, WI| 146|43.07244| -89.42773|FALSE|TRUE|TRUE|TRUE
5606024|Super 8 by Wyndham Madison South|Madison, WI|  88|43.03584| -89.40923|TRUE|FALSE|FALSE|TRUE
5606024|The Madison Concourse Hotel and Governor's Club|Madison, WI| 125|43.07573| -89.38664|FALSE|TRUE|FALSE|TRUE
5606024|Comfort Suites Madison West|Madison, WI|  89|43.08561| -89.52305|TRUE|FALSE|FALSE|TRUE
5606024|AC Hotel by Marriott Madison Downtown|Madison, WI| 225|43.07649| -89.38234|FALSE|TRUE|TRUE|TRUE
5606024|Hampton Inn & Suites Madison / Downtown|Madison, WI| 132|43.07270| -89.39343|FALSE|TRUE|FALSE|TRUE
5606024|Grand Hotel Madison|Madison, WI|  77|43.04459| -89.27415|TRUE|FALSE|FALSE|TRUE
5606024|Econo Lodge Madison|Madison, WI|  68|43.13249| -89.30341|TRUE|FALSE|FALSE|TRUE
5606024|Hyatt Place Madison Downtown|Madison, WI| 142|43.07169| -89.38746|FALSE|TRUE|FALSE|TRUE
5606024|Days Inn by Wyndham Madison NE/Windsor|Madison, WI|  72|43.19291| -89.33934|TRUE|FALSE|FALSE|TRUE
5606031|SpringHill Suites Chicago O'Hare by Marriott|Evanston, IL| 119|41.98513| -87.83005|TRUE|FALSE|FALSE|TRUE
5606031|Estia Hotel and Suites|Evanston, IL| 112|42.04507| -87.68770|TRUE|TRUE|FALSE|TRUE
5606031|Extended Stay America Suites Chicago Skokie|Evanston, IL| 141|42.04507| -87.68770|FALSE|TRUE|FALSE|TRUE
5606031|The Chicago Hotel Collection - Wrigleyville|Evanston, IL| 204|41.94553| -87.65487|FALSE|FALSE|TRUE|TRUE
5606031|Courtyard by Marriott Chicago Glenview/Northbrook|Evanston, IL| 124|42.08770| -87.86962|TRUE|FALSE|FALSE|TRUE
5606031|Holiday Inn Chicago North Shore, an IHG Hotel|Evanston, IL| 128|42.01270| -87.76030|TRUE|FALSE|FALSE|TRUE
5606031|Comfort Inn Convention Center - Chicago O'hare Airport|Evanston, IL| 130|42.00985| -87.87121|TRUE|FALSE|FALSE|TRUE
5606031|Renaissance Chicago O'Hare Suites Hotel|Evanston, IL| 119|41.98347| -87.84082|TRUE|FALSE|FALSE|TRUE
5606031|Residence Inn by Marriott Chicago Wilmette/Skokie|Evanston, IL| 161|42.06521| -87.75648|FALSE|TRUE|TRUE|TRUE
5606031|DoubleTree by Hilton Chicago - North Shore Conference Center|Evanston, IL| 135|42.05438| -87.74568|FALSE|TRUE|FALSE|TRUE
5606031|Holiday Inn Chicago North-Evanston, an IHG Hotel|Evanston, IL| 130|42.04434| -87.68160|TRUE|TRUE|FALSE|TRUE
5606031|The Hotel at Midtown|Evanston, IL| 478|41.92558| -87.67940|FALSE|FALSE|TRUE|TRUE
5606031|Red Roof Inn Morton Grove|Evanston, IL|  97|42.05280| -87.79996|TRUE|FALSE|FALSE|TRUE
5606031|Baymont by Wyndham Glenview|Evanston, IL| 123|42.08600| -87.86750|TRUE|FALSE|FALSE|TRUE
5606031|Hilton Garden Inn Chicago North Shore/Evanston|Evanston, IL| 155|42.05071| -87.68514|FALSE|TRUE|TRUE|TRUE
5606031|The Guesthouse Hotel|Evanston, IL| 821|41.97095| -87.66789|FALSE|FALSE|TRUE|TRUE
5606031|Heart O' Chicago|Evanston, IL| 129|41.99032| -87.67211|TRUE|FALSE|FALSE|TRUE
5606031|Hotel Zachary Chicago, a Tribute Portfolio Hotel|Evanston, IL| 363|41.94788| -87.65722|FALSE|FALSE|TRUE|TRUE
5606031|Hyatt House Chicago/Evanston|Evanston, IL| 226|42.04561| -87.67961|FALSE|TRUE|TRUE|TRUE
5606031|Graduate Evanston|Evanston, IL| 160|42.04651| -87.67714|FALSE|TRUE|TRUE|TRUE
5606031|Hampton Inn Chicago North-Loyola Station|Evanston, IL| 169|42.00238| -87.66120|FALSE|TRUE|TRUE|TRUE
5606031|Marriott Chicago O'Hare|Evanston, IL| 149|41.98551| -87.84119|FALSE|FALSE|TRUE|TRUE
5606031|Hilton Orrington / Evanston|Evanston, IL| 133|42.04890| -87.68084|FALSE|TRUE|FALSE|TRUE
5606035|Sleep Inn And Suites Laurel|College Park, MD|  90|39.10618| -76.83862|TRUE|FALSE|FALSE|TRUE
5606035|Quality Inn Takoma Park|College Park, MD| 109|38.98395| -76.98675|FALSE|TRUE|FALSE|TRUE
5606035|Waldorf Astoria Washington DC|College Park, MD| 644|38.89411| -77.02758|FALSE|FALSE|TRUE|TRUE
5606035|WoodSpring Suites Washington DC East Arena Drive|College Park, MD|  97|38.90793| -76.85133|TRUE|FALSE|FALSE|TRUE
5606035|Pendry Washington DC - The Wharf|College Park, MD| 517|38.98970| -76.93776|FALSE|TRUE|TRUE|TRUE
5606035|Comfort Inn College Park North|College Park, MD|  88|39.04968| -76.93597|TRUE|FALSE|FALSE|TRUE
5606035|Howard Johnson by Wyndham College Park|College Park, MD| 101|39.00441| -76.92960|TRUE|TRUE|FALSE|TRUE
5606035|Red Roof Inn Washington DC - Lanham|College Park, MD|  88|38.96478| -76.85962|TRUE|FALSE|FALSE|TRUE
5606035|Metro Points Hotel|College Park, MD|  97|38.95892| -76.86889|TRUE|FALSE|FALSE|TRUE
5606035|Red Roof Inn Washington DC - Laurel|College Park, MD|  93|39.06305| -76.83745|TRUE|FALSE|FALSE|TRUE
5606035|Conrad Washington, DC|College Park, MD| 459|38.90137| -77.02528|FALSE|FALSE|TRUE|TRUE
5606035|Best Western Plus College Park Hotel|College Park, MD| 152|38.99396| -76.93216|FALSE|TRUE|TRUE|TRUE
5606035|Generator Hotel Washington DC|College Park, MD| 120|38.98970| -76.93776|FALSE|TRUE|FALSE|TRUE
5606035|Crowne Plaza College Park - Washington DC, an IHG Hotel|College Park, MD| 143|39.00652| -76.89629|FALSE|FALSE|TRUE|TRUE
5606035|Best Western Capital Beltway|College Park, MD| 101|38.96184| -76.86511|TRUE|FALSE|FALSE|TRUE
5606035|Riggs Washington DC|College Park, MD| 367|38.89714| -77.02438|FALSE|FALSE|TRUE|TRUE
5606035|Hampton Inn Laurel (Fort Meade Area)|College Park, MD|  95|39.08005| -76.86845|TRUE|FALSE|FALSE|TRUE
5606035|Salamander Washington DC|College Park, MD| 460|38.98970| -76.93776|FALSE|TRUE|TRUE|TRUE
5606035|Hampton Inn College Park|College Park, MD| 139|39.01376| -76.92854|FALSE|TRUE|TRUE|TRUE
5606035|District Hotel|College Park, MD| 106|38.98970| -76.93776|FALSE|TRUE|FALSE|TRUE
5606035|Holiday Inn Washington-College Pk (I-95)|College Park, MD| 134|39.02058| -76.92660|FALSE|TRUE|TRUE|TRUE
5606035|Hilton Garden Inn Washington DC/Greenbelt|College Park, MD| 133|38.99826| -76.89588|FALSE|FALSE|TRUE|TRUE
5606035|Days Inn by Wyndham College Park|College Park, MD| 101|39.00442| -76.93000|TRUE|TRUE|FALSE|TRUE
5612248|Hilton Philadelphia at Penn's Landing|Philadelphia, PA|1517|39.94536| -75.14137|FALSE|TRUE|TRUE|TRUE
5612248|Parkway Inn|Philadelphia, PA| 109|39.91875| -75.32845|TRUE|FALSE|FALSE|TRUE
5612248|Club Quarters Hotel Rittenhouse Square, Philadelphia|Philadelphia, PA| 449|39.95122| -75.16840|FALSE|TRUE|FALSE|TRUE
5612248|The Notary Hotel, Philadelphia, Autograph Collection|Philadelphia, PA| 683|39.95301| -75.16174|FALSE|FALSE|TRUE|TRUE
5612248|Days Inn by Wyndham Springfield/Phil.Intl Airport|Philadelphia, PA| 117|39.91948| -75.32802|TRUE|FALSE|FALSE|TRUE
5612248|Red Carpet Inn Philadelphia Airport|Philadelphia, PA|  93|39.87242| -75.28119|TRUE|FALSE|FALSE|TRUE
5612248|Sofitel Philadelphia at Rittenhouse Square|Philadelphia, PA| 604|39.95085| -75.16911|FALSE|TRUE|FALSE|TRUE
5612248|The Logan Philadelphia, Curio Collection by Hilton|Philadelphia, PA| 909|39.95693| -75.17027|FALSE|FALSE|TRUE|TRUE
5612248|Philly Inn & Suites|Philadelphia, PA| 131|39.95258| -75.16522|TRUE|FALSE|FALSE|TRUE
5612248|Red Roof Inn PLUS+ Philadelphia Airport|Philadelphia, PA| 123|39.86820| -75.30609|TRUE|FALSE|FALSE|TRUE
5612248|Philadelphia Marriott Old City|Philadelphia, PA| 615|39.94621| -75.14342|FALSE|TRUE|TRUE|TRUE
5612248|The Rittenhouse Philadelphia|Philadelphia, PA|1395|39.94966| -75.16482|FALSE|TRUE|TRUE|TRUE
5612248|Days Inn by Wyndham Runnemede Philadelphia Area|Philadelphia, PA| 122|39.85779| -75.07254|TRUE|FALSE|FALSE|TRUE
5612248|W Philadelphia|Philadelphia, PA| 860|39.95124| -75.16490|FALSE|FALSE|TRUE|TRUE
5612248|The Bellevue Hotel, in The Unbound Collection by Hyatt|Philadelphia, PA| 808|39.94912| -75.16484|FALSE|TRUE|TRUE|TRUE
5612248|Fitler Club|Philadelphia, PA| 643|39.95349| -75.17914|FALSE|FALSE|TRUE|TRUE
5612248|Element Philadelphia Downtown|Philadelphia, PA| 607|39.95112| -75.16520|FALSE|TRUE|FALSE|TRUE
5612248|Days Inn by Wyndham Philadelphia - Roosevelt Boulevard|Philadelphia, PA| 119|40.02974| -75.10607|TRUE|FALSE|FALSE|TRUE
5612248|Howard Johnson by Wyndham Blackwood Near Philadelphia|Philadelphia, PA| 138|39.81340| -75.06928|TRUE|FALSE|FALSE|TRUE
5612248|Super 8 by Wyndham Gloucester|Philadelphia, PA| 131|39.95258| -75.16522|TRUE|FALSE|FALSE|TRUE
5612248|Kimpton Hotel Monaco Philadelphia, an IHG Hotel|Philadelphia, PA| 845|39.94914| -75.14888|FALSE|TRUE|TRUE|TRUE
5612248|Canopy by Hilton Philadelphia Center City|Philadelphia, PA| 644|39.95094| -75.15996|FALSE|TRUE|TRUE|TRUE
5612248|Travelodge by Wyndham Bellmawr|Philadelphia, PA|  92|39.86208| -75.07705|TRUE|FALSE|FALSE|TRUE
5612248|Warwick Hotel Rittenhouse Square|Philadelphia, PA| 502|39.94917| -75.16954|FALSE|TRUE|FALSE|TRUE
5613213|The Pontchartrain Hotel|New Orleans, LA| 465|29.93499| -90.07966|FALSE|TRUE|TRUE|TRUE
5613213|Best Western Bayou Inn|New Orleans, LA| 163|29.90780| -90.16035|TRUE|FALSE|FALSE|TRUE
5613213|Olde Town Inn|New Orleans, LA| 194|29.96776| -90.05529|FALSE|TRUE|FALSE|TRUE
5613213|Best Western Plus Westbank|New Orleans, LA| 211|29.87531| -90.04981|FALSE|FALSE|TRUE|TRUE
5613213|Brent House Hotel|New Orleans, LA| 263|29.96137| -90.14585|FALSE|FALSE|TRUE|TRUE
5613213|Quality Inn New Orleans I-10 East|New Orleans, LA|  78|30.03715| -89.97409|TRUE|FALSE|FALSE|TRUE
5613213|Riverside Hotel|New Orleans, LA| 122|29.85646| -89.98640|TRUE|FALSE|FALSE|TRUE
5613213|Days Inn by Wyndham New Orleans Pontchartrain|New Orleans, LA|  94|30.00213| -90.03978|TRUE|FALSE|FALSE|TRUE
5613213|Comfort Suites Harvey - New Orleans West|New Orleans, LA| 163|29.87871| -90.04946|TRUE|FALSE|FALSE|TRUE
5613213|La Quinta Inn by Wyndham New Orleans Veterans / Metairie|New Orleans, LA|  91|30.00483| -90.20567|TRUE|FALSE|FALSE|TRUE
5613213|Comfort Inn Marrero - New Orleans West|New Orleans, LA| 152|29.89219| -90.12282|TRUE|FALSE|FALSE|TRUE
5613213|Lamothe House|New Orleans, LA| 220|29.96318| -90.05934|FALSE|TRUE|TRUE|TRUE
5613213|Extended Stay America Suites New Orleans Metairie|New Orleans, LA| 145|29.98409| -90.15285|TRUE|FALSE|FALSE|TRUE
5613213|Lucky Inn|New Orleans, LA| 251|29.96603| -90.08545|FALSE|TRUE|TRUE|TRUE
5613213|Hotel de la Monnaie|New Orleans, LA| 639|29.96169| -90.05694|FALSE|TRUE|TRUE|TRUE
5613213|Selina Catahoula New Orleans|New Orleans, LA| 692|29.95185| -90.07321|FALSE|TRUE|TRUE|TRUE
5613213|Suburban Studios|New Orleans, LA| 105|29.90910| -90.20646|TRUE|FALSE|FALSE|TRUE
5613213|Midtown Hotel - Downtown New Orleans|New Orleans, LA| 116|29.94978| -90.06771|TRUE|TRUE|FALSE|TRUE
5613213|Hotel Vinache|New Orleans, LA| 293|29.95629| -90.07443|FALSE|TRUE|TRUE|TRUE
5613213|The Ben Louie|New Orleans, LA| 190|29.96626| -90.10094|FALSE|TRUE|FALSE|TRUE
5613213|The Frenchmen|New Orleans, LA|1569|30.00757| -90.06095|FALSE|FALSE|TRUE|TRUE
5613213|Loews New Orleans Hotel|New Orleans, LA| 598|29.94797| -90.06621|FALSE|TRUE|TRUE|TRUE
5613225|Grand Beach Hotel Surfside|Miami Gardens, FL| 546|25.88445| -80.12222|FALSE|FALSE|TRUE|TRUE
5613225|Hollywood Beach Hotels|Miami Gardens, FL| 132|25.94204| -80.24560|TRUE|TRUE|FALSE|TRUE
5613225|SERENA Hotel Aventura Miami, Tapestry Collection by Hilton|Miami Gardens, FL| 229|25.97312| -80.14548|FALSE|TRUE|FALSE|TRUE
5613225|SpringHill Suites by Marriott Fort Lauderdale Miramar|Miami Gardens, FL| 202|25.97424| -80.29263|FALSE|TRUE|FALSE|TRUE
5613225|Shell Motel|Miami Gardens, FL| 146|26.00112| -80.14249|TRUE|FALSE|FALSE|TRUE
5613225|Thunderbird Hotel|Miami Gardens, FL| 141|25.94204| -80.24560|TRUE|TRUE|FALSE|TRUE
5613225|The Ritz-Carlton Bal Harbour, Miami|Miami Gardens, FL|1043|25.89900| -80.12330|FALSE|FALSE|TRUE|TRUE
5613225|Miami Lakes Hotel|Miami Gardens, FL| 164|25.91206| -80.31126|FALSE|TRUE|FALSE|TRUE
5613225|Grand Palms Spa & Golf Resort|Miami Gardens, FL| 121|26.00016| -80.35079|TRUE|FALSE|FALSE|TRUE
5613225|The Clevelander|Miami Gardens, FL| 150|25.78078| -80.13098|TRUE|FALSE|FALSE|TRUE
5613225|Hilton Aventura Miami|Miami Gardens, FL| 301|25.95325| -80.14345|FALSE|TRUE|FALSE|TRUE
5613225|Hyde Beach House|Miami Gardens, FL| 581|25.98685| -80.12071|FALSE|FALSE|TRUE|TRUE
5613225|Margaritaville Hollywood Beach Resort|Miami Gardens, FL| 562|26.01878| -80.11674|FALSE|FALSE|TRUE|TRUE
5613225|Travelodge by Wyndham Miami Biscayne Bay|Miami Gardens, FL| 141|25.82499| -80.18661|TRUE|FALSE|FALSE|TRUE
5613225|The Oasis Tower at Seminole Hard Rock|Miami Gardens, FL| 752|26.05187| -80.21052|FALSE|FALSE|TRUE|TRUE
5613225|The St. Regis Bal Harbour Resort|Miami Gardens, FL|1220|25.88909| -80.12241|FALSE|FALSE|TRUE|TRUE
5613225|Hollywood Beach Suites, a South Beach Group Hotel|Miami Gardens, FL| 150|25.77903| -80.13172|TRUE|FALSE|FALSE|TRUE
5613225|Dream Inn|Miami Gardens, FL| 137|25.94204| -80.24560|TRUE|TRUE|FALSE|TRUE
5613225|Stadium Hotel|Miami Gardens, FL| 162|25.95790| -80.23885|FALSE|TRUE|FALSE|TRUE
5613225|Private Ocean Condos at Marenas Beach|Miami Gardens, FL|1083|25.94916| -80.11988|FALSE|FALSE|TRUE|TRUE
5613225|Acqualina Resort & Residences On The Beach|Miami Gardens, FL|1413|25.94082| -80.12092|FALSE|FALSE|TRUE|TRUE
5613225|Greniers|Miami Gardens, FL| 146|26.02505| -80.11578|TRUE|FALSE|FALSE|TRUE
5613225|Seminole Hard Rock Hotel and Casino|Miami Gardens, FL| 712|26.05082| -80.21155|FALSE|FALSE|TRUE|TRUE
5613225|Miami Gardens Inn & Suites|Miami Gardens, FL| 138|25.94204| -80.24560|TRUE|TRUE|FALSE|TRUE
5613225|May-Dee Suites|Miami Gardens, FL| 212|26.01073| -80.19495|FALSE|TRUE|FALSE|TRUE
5613225|Hotolos Hollywood|Miami Gardens, FL| 136|26.04703| -80.15850|TRUE|FALSE|FALSE|TRUE
5613225|Four Seasons Hotel at The Surf Club|Miami Gardens, FL|2467|25.87772| -80.12142|FALSE|FALSE|TRUE|TRUE
5617953|Jet Luxury Elite at The Signature|Las Vegas, NV| 170|36.10601|-115.16678|FALSE|TRUE|FALSE|TRUE
5617953|El Cortez Hotel and Casino - 21 and Over|Las Vegas, NV|  85|36.16943|-115.13873|TRUE|FALSE|FALSE|TRUE
5617953|Holiday Inn Express Las Vegas South, an IHG Hotel|Las Vegas, NV| 163|36.08478|-115.18478|FALSE|TRUE|FALSE|TRUE
5617953|OYO Hotel and Casino Las Vegas|Las Vegas, NV| 181|36.10039|-115.16772|FALSE|TRUE|FALSE|TRUE
5617953|Homewood Suites by Hilton Las Vegas City Center|Las Vegas, NV| 415|36.10609|-115.18211|FALSE|TRUE|TRUE|TRUE
5617953|ARIA Sky Suites|Las Vegas, NV|1312|36.10765|-115.17577|FALSE|TRUE|TRUE|TRUE
5617953|The ENGLISH Hotel, Las Vegas, a Tribute Portfolio Hotel|Las Vegas, NV| 375|36.16146|-115.15223|FALSE|FALSE|TRUE|TRUE
5617953|Super 8 by Wyndham Las Vegas North Strip/Fremont St. Area|Las Vegas, NV|  49|36.15606|-115.14829|TRUE|FALSE|FALSE|TRUE
5617953|Bellagio|Las Vegas, NV| 413|36.11311|-115.17701|FALSE|FALSE|TRUE|TRUE
5617953|Longhorn Casino & Hotel|Las Vegas, NV|  68|36.10704|-115.05916|TRUE|FALSE|FALSE|TRUE
5617953|Residence Inn Las Vegas Convention Center by Marriott|Las Vegas, NV| 430|36.13086|-115.15528|FALSE|FALSE|TRUE|TRUE
5617953|Hampton Inn Tropicana|Las Vegas, NV| 144|36.09967|-115.18338|FALSE|TRUE|FALSE|TRUE
5617953|Courtyard by Marriott Las Vegas South|Las Vegas, NV| 166|36.08382|-115.18304|FALSE|TRUE|FALSE|TRUE
5617953|Residence Inn Las Vegas Airport|Las Vegas, NV| 687|36.08705|-115.13801|FALSE|FALSE|TRUE|TRUE
5617953|Fairfield Inn and Suites by Marriott Las Vegas South|Las Vegas, NV| 155|36.08451|-115.18330|FALSE|TRUE|FALSE|TRUE
5617953|Nobu Hotel at Caesars Palace|Las Vegas, NV| 425|36.11671|-115.17519|FALSE|FALSE|TRUE|TRUE
5617953|Oasis at Gold Spike - Adults Only|Las Vegas, NV|  65|36.17095|-115.13982|TRUE|FALSE|FALSE|TRUE
5617953|Silver Sevens Hotel & Casino|Las Vegas, NV|  82|36.11376|-115.15265|TRUE|FALSE|FALSE|TRUE
5617953|Thunderbird Hotel|Las Vegas, NV|  59|36.15581|-115.14903|TRUE|FALSE|FALSE|TRUE
5617953|NoMad Las Vegas|Las Vegas, NV| 559|36.10474|-115.17651|FALSE|TRUE|TRUE|TRUE
5617953|Mardi Gras Hotel & Casino|Las Vegas, NV|  61|36.12549|-115.15446|TRUE|FALSE|FALSE|TRUE
5617953|Virgin Hotels Las Vegas, Curio Collection by Hilton|Las Vegas, NV| 321|36.10877|-115.15373|FALSE|FALSE|TRUE|TRUE
5617953|Arizona Charlie's Boulder|Las Vegas, NV|  71|36.12406|-115.07554|TRUE|FALSE|FALSE|TRUE
5617953|Residence Inn by Marriott Las Vegas Hughes Center|Las Vegas, NV| 350|36.11576|-115.15594|FALSE|FALSE|TRUE|TRUE
5617953|Howard Johnson by Wyndham Las Vegas near the Strip|Las Vegas, NV|  57|36.09948|-115.16580|TRUE|TRUE|FALSE|TRUE
5617953|Sunrise Inn Hotel|Las Vegas, NV|  94|36.21813|-115.12921|TRUE|FALSE|FALSE|TRUE
5622440|Super 8 by Wyndham Indianapolis/Emerson Ave|Indianapolis, IN|  85|39.70099| -86.08389|TRUE|FALSE|FALSE|TRUE
5622440|Rodeway Inn|Indianapolis, IN|  83|39.82140| -86.04500|TRUE|FALSE|FALSE|TRUE
5622440|Comfort Inn Indianapolis South I-65|Indianapolis, IN| 139|39.71476| -86.12201|FALSE|TRUE|FALSE|TRUE
5622440|JW Marriott Indianapolis|Indianapolis, IN| 560|39.76659| -86.16769|FALSE|TRUE|TRUE|TRUE
5622440|TownePlace Suites by Marriott Indianapolis Downtown|Indianapolis, IN|1110|39.75806| -86.15957|FALSE|TRUE|TRUE|TRUE
5622440|Extended Stay America Suites Indianapolis Airport W Southern|Indianapolis, IN|  69|39.72960| -86.25363|TRUE|FALSE|FALSE|TRUE
5622440|Marriott Indianapolis East|Indianapolis, IN| 178|39.79744| -86.04119|FALSE|FALSE|TRUE|TRUE
5622440|Homewood Suites by Hilton Indianapolis Canal IUPUI|Indianapolis, IN| 435|39.77309| -86.16580|FALSE|TRUE|TRUE|TRUE
5622440|The Westin Indianapolis|Indianapolis, IN| 519|39.76647| -86.16359|FALSE|TRUE|TRUE|TRUE
5622440|Omni Severin Hotel|Indianapolis, IN| 701|39.76381| -86.15980|FALSE|TRUE|TRUE|TRUE
5622440|Baymont by Wyndham Indianapolis West|Indianapolis, IN|  90|39.82521| -86.27816|TRUE|FALSE|FALSE|TRUE
5622440|Hampton Inn Indianapolis Canal IUPUI|Indianapolis, IN| 386|39.77309| -86.16582|FALSE|TRUE|TRUE|TRUE
5622440|Studio 6 Indianapolis, IN|Indianapolis, IN|  92|39.82268| -86.27231|TRUE|FALSE|FALSE|TRUE
5622440|Days Inn by Wyndham Indianapolis East Post Road|Indianapolis, IN|  78|39.79823| -86.01011|TRUE|FALSE|FALSE|TRUE
5622440|Extended Stay America Suites Indianapolis Airport|Indianapolis, IN|  79|39.72538| -86.26306|TRUE|FALSE|FALSE|TRUE
5622440|Sheraton Indianapolis City Centre Hotel|Indianapolis, IN| 504|39.76964| -86.15866|FALSE|TRUE|TRUE|TRUE
5622440|WoodSpring Suites Indianapolis Airport South|Indianapolis, IN|  94|39.70298| -86.25862|TRUE|FALSE|FALSE|TRUE
5622440|Super 8 by Wyndham Indianapolis South|Indianapolis, IN|  92|39.69757| -86.15026|TRUE|TRUE|FALSE|TRUE
5622440|Royal Inn|Indianapolis, IN| 120|39.76840| -86.15807|FALSE|TRUE|FALSE|TRUE
5622440|Holiday Inn Indianapolis Airport Area N, an IHG Hotel|Indianapolis, IN| 160|39.72762| -86.25818|FALSE|FALSE|TRUE|TRUE
5622440|Ramada by Wyndham Indianapolis Speedway|Indianapolis, IN|  94|39.80660| -86.28421|TRUE|FALSE|FALSE|TRUE
5622440|La Quinta Inn by Wyndham Indianapolis Airport Executive Dr|Indianapolis, IN| 162|39.72704| -86.25821|FALSE|FALSE|TRUE|TRUE
5622642|OYO Hotel Decatur I-285 The Perimeter|Atlanta, GA|  92|33.73786| -84.23582|TRUE|FALSE|FALSE|TRUE
5622642|Hyatt Place Atlanta Centennial Park|Atlanta, GA| 166|33.76254| -84.39597|FALSE|TRUE|TRUE|TRUE
5622642|Reverb by Hard Rock Atlanta Downtown|Atlanta, GA| 203|33.75348| -84.39925|FALSE|TRUE|TRUE|TRUE
5622642|W Atlanta Downtown|Atlanta, GA| 252|33.76491| -84.38954|FALSE|FALSE|TRUE|TRUE
5622642|Barclay Hotel Atlanta Downtown|Atlanta, GA| 101|33.75734| -84.38944|FALSE|TRUE|FALSE|TRUE
5622642|Econo Lodge Conley|Atlanta, GA|  84|33.66714| -84.33847|TRUE|FALSE|FALSE|TRUE
5622642|AC Hotel by Marriott Atlanta Downtown|Atlanta, GA| 158|33.75994| -84.39102|FALSE|TRUE|TRUE|TRUE
5622642|Econo Lodge At Six Flags|Atlanta, GA|  98|33.77361| -84.55028|TRUE|FALSE|FALSE|TRUE
5622642|Omni Atlanta Hotel at CNN Center|Atlanta, GA| 210|33.75915| -84.39494|FALSE|TRUE|TRUE|TRUE
5622642|Quality Inn Atlanta Airport - Central|Atlanta, GA|  96|33.62451| -84.45417|TRUE|FALSE|FALSE|TRUE
5622642|Econo Lodge|Atlanta, GA|  85|33.65881| -84.43356|TRUE|FALSE|FALSE|TRUE
5622642|Clarion Inn & Suites Atlanta Downtown|Atlanta, GA| 124|33.74900| -84.40337|FALSE|TRUE|FALSE|TRUE
5622642|Howard Johnson by Wyndham Atlanta Airport/College Park|Atlanta, GA|  89|33.61529| -84.43967|TRUE|FALSE|FALSE|TRUE
5622642|Holiday Inn Express and Suites Atlanta Downtown, an IHG Hotel|Atlanta, GA| 125|33.75789| -84.38989|FALSE|TRUE|FALSE|TRUE
5622642|Rodeway Inn At Six Flags|Atlanta, GA| 100|33.77213| -84.55608|TRUE|FALSE|FALSE|TRUE
5622642|SpringHill Suites by Marriott Atlanta Downtown|Atlanta, GA| 163|33.76497| -84.39502|FALSE|FALSE|TRUE|TRUE
5622642|Fairfield Inn & Suites Atlanta Downtown|Atlanta, GA| 143|33.75287| -84.39119|FALSE|TRUE|FALSE|TRUE
5622642|Rodeway Inn|Atlanta, GA|  82|33.74900| -84.38798|TRUE|FALSE|FALSE|TRUE
5622642|Nobu Hotel Atlanta|Atlanta, GA| 467|33.85439| -84.36349|FALSE|FALSE|TRUE|TRUE
5622642|Days Inn by Wyndham Hartsfield Jackson Atlanta Airport West|Atlanta, GA|  84|33.63341| -84.49180|TRUE|FALSE|FALSE|TRUE
5622642|Quality Suites Atlanta Airport East|Atlanta, GA|  96|33.61301| -84.40140|TRUE|FALSE|FALSE|TRUE
5622642|AC Hotel by Marriott Atlanta Airport Gateway|Atlanta, GA| 589|33.64129| -84.45706|FALSE|FALSE|TRUE|TRUE
5622642|The American Hotel Atlanta Downtown - a DoubleTree by Hilton|Atlanta, GA| 158|33.75931| -84.38992|FALSE|TRUE|TRUE|TRUE
5622642|Home2 Suites by Hilton Atlanta Downtown|Atlanta, GA| 153|33.75698| -84.39114|FALSE|TRUE|FALSE|TRUE
5622642|Thompson Buckhead|Atlanta, GA| 395|33.83833| -84.37435|FALSE|FALSE|TRUE|TRUE
5622921|Holiday Inn Express and Suites Atlanta Downtown, an IHG Hotel|Atlanta, GA| 125|33.75789| -84.38989|FALSE|TRUE|FALSE|TRUE
5622921|Barclay Hotel Atlanta Downtown|Atlanta, GA| 101|33.75734| -84.38944|FALSE|TRUE|FALSE|TRUE
5622921|Home2 Suites by Hilton Atlanta Downtown|Atlanta, GA| 153|33.75698| -84.39114|FALSE|TRUE|FALSE|TRUE
5622921|OYO Hotel Decatur I-285 The Perimeter|Atlanta, GA|  92|33.73786| -84.23582|TRUE|FALSE|FALSE|TRUE
5622921|Reverb by Hard Rock Atlanta Downtown|Atlanta, GA| 203|33.75348| -84.39925|FALSE|TRUE|TRUE|TRUE
5622921|Rodeway Inn|Atlanta, GA|  82|33.74900| -84.38798|TRUE|FALSE|FALSE|TRUE
5622921|Econo Lodge At Six Flags|Atlanta, GA|  98|33.77361| -84.55028|TRUE|FALSE|FALSE|TRUE
5622921|Quality Suites Atlanta Airport East|Atlanta, GA|  96|33.61301| -84.40140|TRUE|FALSE|FALSE|TRUE
5622921|Quality Inn Atlanta Airport - Central|Atlanta, GA|  96|33.62451| -84.45417|TRUE|FALSE|FALSE|TRUE
5622921|AC Hotel by Marriott Atlanta Downtown|Atlanta, GA| 158|33.75994| -84.39102|FALSE|TRUE|TRUE|TRUE
5622921|Econo Lodge Conley|Atlanta, GA|  84|33.66714| -84.33847|TRUE|FALSE|FALSE|TRUE
5622921|Days Inn by Wyndham Hartsfield Jackson Atlanta Airport West|Atlanta, GA|  84|33.63341| -84.49180|TRUE|FALSE|FALSE|TRUE
5622921|Nobu Hotel Atlanta|Atlanta, GA| 467|33.85439| -84.36349|FALSE|FALSE|TRUE|TRUE
5622921|W Atlanta Downtown|Atlanta, GA| 252|33.76491| -84.38954|FALSE|FALSE|TRUE|TRUE
5622921|Rodeway Inn At Six Flags|Atlanta, GA| 100|33.77213| -84.55608|TRUE|FALSE|FALSE|TRUE
5622921|Econo Lodge|Atlanta, GA|  85|33.65881| -84.43356|TRUE|FALSE|FALSE|TRUE
5622921|AC Hotel by Marriott Atlanta Airport Gateway|Atlanta, GA| 589|33.64129| -84.45706|FALSE|FALSE|TRUE|TRUE
5622921|Thompson Buckhead|Atlanta, GA| 395|33.83833| -84.37435|FALSE|FALSE|TRUE|TRUE
5622921|Fairfield Inn & Suites Atlanta Downtown|Atlanta, GA| 143|33.75287| -84.39119|FALSE|TRUE|FALSE|TRUE
5622921|Omni Atlanta Hotel at CNN Center|Atlanta, GA| 210|33.75915| -84.39494|FALSE|TRUE|TRUE|TRUE
5622921|Howard Johnson by Wyndham Atlanta Airport/College Park|Atlanta, GA|  89|33.61529| -84.43967|TRUE|FALSE|FALSE|TRUE
5622921|SpringHill Suites by Marriott Atlanta Downtown|Atlanta, GA| 163|33.76497| -84.39502|FALSE|FALSE|TRUE|TRUE
5622921|Clarion Inn & Suites Atlanta Downtown|Atlanta, GA| 124|33.74900| -84.40337|FALSE|TRUE|FALSE|TRUE
5622921|The American Hotel Atlanta Downtown - a DoubleTree by Hilton|Atlanta, GA| 158|33.75931| -84.38992|FALSE|TRUE|TRUE|TRUE
5622921|Hyatt Place Atlanta Centennial Park|Atlanta, GA| 166|33.76254| -84.39597|FALSE|TRUE|TRUE|TRUE
5622925|Starlight Inn Valley Blvd|Pasadena, CA|  97|34.06889|-118.17723|TRUE|FALSE|FALSE|TRUE
5622925|Langham Huntington, Pasadena, Los Angeles|Pasadena, CA| 414|34.12075|-118.13342|FALSE|FALSE|TRUE|TRUE
5622925|Bokai Garden Hotel|Pasadena, CA|  84|34.07467|-118.07403|TRUE|FALSE|FALSE|TRUE
5622925|Hollywood Roxy Hotel|Pasadena, CA|  95|34.10069|-118.30964|TRUE|FALSE|FALSE|TRUE
5622925|Downtown Los Angeles Proper Hotel, a Member of Design Hotels|Pasadena, CA| 419|34.03937|-118.25892|FALSE|FALSE|TRUE|TRUE
5622925|Hilton Pasadena|Pasadena, CA| 195|34.14269|-118.14091|FALSE|TRUE|FALSE|TRUE
5622925|The Westin Pasadena|Pasadena, CA| 289|34.14913|-118.14200|FALSE|TRUE|TRUE|TRUE
5622925|The Ritz-Carlton, Los Angeles|Pasadena, CA| 796|34.04526|-118.26662|FALSE|FALSE|TRUE|TRUE
5622925|JW Marriott Los Angeles L.A. LIVE|Pasadena, CA| 412|34.04524|-118.26647|FALSE|FALSE|TRUE|TRUE
5622925|Cara|Pasadena, CA| 487|34.10287|-118.30868|FALSE|FALSE|TRUE|TRUE
5622925|Level Los Angeles Downtown - South Olive|Pasadena, CA| 690|34.04375|-118.25798|FALSE|FALSE|TRUE|TRUE
5622925|Hollywood Inn Express South|Pasadena, CA| 101|34.06797|-118.27007|TRUE|FALSE|FALSE|TRUE
5622925|Pasadena Hotel & Pool|Pasadena, CA| 204|34.14778|-118.14452|FALSE|TRUE|FALSE|TRUE
5622925|Garden Inn|Pasadena, CA|  81|34.09633|-118.07290|TRUE|FALSE|FALSE|TRUE
5622925|City Center Hotel|Pasadena, CA|  92|34.14778|-118.14452|TRUE|TRUE|FALSE|TRUE
5622925|Sheraton Pasadena Hotel|Pasadena, CA| 185|34.14295|-118.14422|FALSE|TRUE|FALSE|TRUE
5622925|Holiday Lodge|Pasadena, CA| 110|34.14778|-118.14452|FALSE|TRUE|FALSE|TRUE
5622925|Highland Park Motel|Pasadena, CA| 469|34.12216|-118.20927|FALSE|FALSE|TRUE|TRUE
5622925|Quality Inn Rosemead - Los Angeles|Pasadena, CA|  97|34.08094|-118.06275|TRUE|FALSE|FALSE|TRUE
5622925|Welcome Inn on Colorado Blvd|Pasadena, CA|  91|34.13893|-118.20781|TRUE|FALSE|FALSE|TRUE
5622925|Conrad Los Angeles|Pasadena, CA| 510|34.14980|-118.13269|FALSE|TRUE|TRUE|TRUE
5622925|Pasadena Rose & Crown Hotel|Pasadena, CA| 156|34.14778|-118.14452|FALSE|TRUE|FALSE|TRUE
5622925|Hyatt Place Pasadena|Pasadena, CA| 248|34.14493|-118.14189|FALSE|TRUE|FALSE|TRUE
5622925|Courtyard by Marriott Old Pasadena|Pasadena, CA| 162|34.14873|-118.15028|FALSE|TRUE|FALSE|TRUE
5622925|Antonio Hotel|Pasadena, CA|  86|34.04595|-118.20875|TRUE|FALSE|FALSE|TRUE
5622925|Ace Hotel Downtown Los Angeles|Pasadena, CA| 408|34.04188|-118.25703|FALSE|FALSE|TRUE|TRUE
5622925|Stuart Hotel - Near Good Samaritan Hospital|Pasadena, CA|  90|34.05326|-118.27140|TRUE|FALSE|FALSE|TRUE
5626995|Four Seasons Hotel One Dalton Street, Boston|Chestnut Hill, MA| 926|42.34582| -71.08414|FALSE|FALSE|TRUE|TRUE
5626995|Extended Stay America Suites Boston Waltham 32 4th Ave|Chestnut Hill, MA| 117|42.39379| -71.25915|TRUE|FALSE|FALSE|TRUE
5626995|Hilton Garden Inn Boston/Waltham|Chestnut Hill, MA|  97|42.39638| -71.25588|TRUE|FALSE|FALSE|TRUE
5626995|Sheraton Boston Needham Hotel|Chestnut Hill, MA| 111|42.30306| -71.21998|TRUE|FALSE|FALSE|TRUE
5626995|The Whitney Hotel|Chestnut Hill, MA| 570|42.33287| -71.17276|FALSE|TRUE|FALSE|TRUE
5626995|The Liberty, a Marriott Luxury Collection Hotel, Boston|Chestnut Hill, MA| 608|42.33287| -71.17276|FALSE|TRUE|TRUE|TRUE
5626995|The Charles Hotel|Chestnut Hill, MA| 579|42.37229| -71.12298|FALSE|FALSE|TRUE|TRUE
5626995|Aloft Lexington|Chestnut Hill, MA| 122|42.44543| -71.26068|TRUE|FALSE|FALSE|TRUE
5626995|Ramada by Wyndham Boston|Chestnut Hill, MA| 118|42.29494| -71.04685|TRUE|FALSE|FALSE|TRUE
5626995|Holiday Inn Express Boston - Waltham, an IHG Hotel|Chestnut Hill, MA| 116|42.39861| -71.25818|TRUE|FALSE|FALSE|TRUE
5626995|The Newbury Boston|Chestnut Hill, MA| 796|42.35274| -71.07152|FALSE|FALSE|TRUE|TRUE
5626995|Freepoint Hotel Cambridge, Tapestry Collection by Hilton|Chestnut Hill, MA| 141|42.33287| -71.17276|FALSE|TRUE|FALSE|TRUE
5626995|Boston Harbor Hotel|Chestnut Hill, MA| 619|42.35619| -71.05037|FALSE|FALSE|TRUE|TRUE
5626995|Courtyard by Marriott Boston Brookline|Chestnut Hill, MA| 189|42.34117| -71.12295|FALSE|TRUE|FALSE|TRUE
5626995|AC Hotel by Marriott Boston Cleveland Circle|Chestnut Hill, MA| 197|42.33479| -71.15027|FALSE|TRUE|FALSE|TRUE
5626995|Best Western Plus Waltham Boston|Chestnut Hill, MA|  94|42.39768| -71.25780|TRUE|FALSE|FALSE|TRUE
5626995|Four Seasons Hotel Boston|Chestnut Hill, MA| 985|42.33287| -71.17276|FALSE|TRUE|TRUE|TRUE
5626995|Four Points by Sheraton Boston Newton|Chestnut Hill, MA| 113|42.35677| -71.18701|TRUE|TRUE|FALSE|TRUE
5626995|The Ritz-Carlton, Boston|Chestnut Hill, MA| 926|42.35312| -71.06325|FALSE|FALSE|TRUE|TRUE
5626995|Mandarin Oriental Boston|Chestnut Hill, MA|1007|42.32299| -71.16756|FALSE|TRUE|TRUE|TRUE
5626995|Fairfield Inn by Marriott Boston Dedham|Chestnut Hill, MA| 103|42.33287| -71.17276|TRUE|TRUE|FALSE|TRUE
5626995|The Langham, Boston|Chestnut Hill, MA| 582|42.35648| -71.05450|FALSE|FALSE|TRUE|TRUE
5626995|The Westin Waltham-Boston|Chestnut Hill, MA| 122|42.39531| -71.25976|TRUE|FALSE|FALSE|TRUE
5626995|Fifteen Beacon|Chestnut Hill, MA| 693|42.33291| -71.17222|FALSE|TRUE|TRUE|TRUE
5626995|Extended Stay America Suites Boston Waltham 52 4th Ave|Chestnut Hill, MA| 117|42.39450| -71.25845|TRUE|FALSE|FALSE|TRUE
5629812|Hyatt Place Durham Southpoint|Durham, NC| 159|35.90075| -78.96151|FALSE|TRUE|TRUE|TRUE
5629812|Extended Stay America Suites Raleigh RTP 4919 Miami Blvd|Durham, NC|  92|35.88787| -78.84862|TRUE|FALSE|FALSE|TRUE
5629812|Extended Stay America Suites Durham University|Durham, NC|  92|35.99403| -78.89862|TRUE|FALSE|FALSE|TRUE
5629812|SpringHill Suites by Marriott Durham Chapel Hill|Durham, NC| 168|35.95189| -78.99198|FALSE|FALSE|TRUE|TRUE
5629812|Extended Stay America Suites Raleigh RTP 4610 Miami Blvd|Durham, NC| 102|35.89464| -78.84886|TRUE|TRUE|FALSE|TRUE
5629812|Comfort Suites Raleigh Durham Airport/Research Triangle Park|Durham, NC| 100|35.88026| -78.84364|TRUE|FALSE|FALSE|TRUE
5629812|DoubleTree Suites by Hilton Raleigh-Durham|Durham, NC| 163|35.90972| -78.89691|FALSE|TRUE|TRUE|TRUE
5629812|Hilton Garden Inn Durham Southpoint|Durham, NC| 154|35.90235| -78.93862|FALSE|TRUE|TRUE|TRUE
5629812|Days Inn by Wyndham Durham/Near Duke University|Durham, NC|  76|36.02151| -78.94786|TRUE|FALSE|FALSE|TRUE
5629812|Extended Stay America Suites Raleigh RDU Airport|Durham, NC| 102|35.88008| -78.78800|TRUE|FALSE|FALSE|TRUE
5629812|Days Inn by Wyndham Raleigh-Airport-Research Triangle Park|Durham, NC|  91|35.85820| -78.81999|TRUE|FALSE|FALSE|TRUE
5629812|Millennium Durham|Durham, NC| 111|35.88740| -78.85642|FALSE|TRUE|TRUE|TRUE
5629812|La Quinta Inn & Suites by Wyndham Raleigh/Durham Southpoint|Durham, NC| 107|35.90759| -78.89143|FALSE|TRUE|FALSE|TRUE
5629812|Unscripted Durham|Durham, NC| 395|35.99648| -78.90104|FALSE|FALSE|TRUE|TRUE
5629812|Residence Inn by Marriott Durham-Research Triangle Park|Durham, NC| 173|35.90404| -78.89740|FALSE|TRUE|TRUE|TRUE
5629812|Extended Stay America Suites Durham University Ivy Creek Blv|Durham, NC| 102|35.96069| -78.96065|TRUE|FALSE|FALSE|TRUE
5629812|HYATT house Raleigh Durham Airport|Durham, NC| 152|35.85501| -78.84070|FALSE|FALSE|TRUE|TRUE
5629812|Sleep Inn Raleigh Durham Airport|Durham, NC|  92|35.88190| -78.84218|TRUE|FALSE|FALSE|TRUE
5629812|Sheraton Imperial Hotel Raleigh-Durham Airport/RTP|Durham, NC| 149|35.87788| -78.83830|FALSE|FALSE|TRUE|TRUE
5629812|Extended Stay America Suites Raleigh RTP Hwy 55|Durham, NC| 102|35.89917| -78.86364|TRUE|TRUE|FALSE|TRUE
5629812|OYO Hotel Durham West Hills|Durham, NC|  65|36.03443| -79.00769|TRUE|FALSE|FALSE|TRUE
5629812|Comfort Inn Research Triangle Park|Durham, NC| 122|35.90767| -78.89302|FALSE|TRUE|TRUE|TRUE
5629812|Candlewood Suites Durham, an IHG Hotel|Durham, NC| 101|35.90213| -78.89981|TRUE|TRUE|FALSE|TRUE
5629812|SureStay Plus Hotel by Best Western Durham Medical Center|Durham, NC|  72|36.02502| -78.95610|TRUE|FALSE|FALSE|TRUE
5631467|Hollywood Beach Suites, a South Beach Group Hotel|Miami Gardens, FL| 150|25.77903| -80.13172|TRUE|FALSE|FALSE|TRUE
5631467|Miami Lakes Hotel|Miami Gardens, FL| 164|25.91206| -80.31126|FALSE|TRUE|FALSE|TRUE
5631467|Hollywood Beach Hotels|Miami Gardens, FL| 132|25.94204| -80.24560|TRUE|TRUE|FALSE|TRUE
5631467|The Clevelander|Miami Gardens, FL| 150|25.78078| -80.13098|TRUE|FALSE|FALSE|TRUE
5631467|Thunderbird Hotel|Miami Gardens, FL| 141|25.94204| -80.24560|TRUE|TRUE|FALSE|TRUE
5631467|Miami Gardens Inn & Suites|Miami Gardens, FL| 138|25.94204| -80.24560|TRUE|TRUE|FALSE|TRUE
5631467|SpringHill Suites by Marriott Fort Lauderdale Miramar|Miami Gardens, FL| 202|25.97424| -80.29263|FALSE|TRUE|FALSE|TRUE
5631467|Margaritaville Hollywood Beach Resort|Miami Gardens, FL| 562|26.01878| -80.11674|FALSE|FALSE|TRUE|TRUE
5631467|Hotolos Hollywood|Miami Gardens, FL| 136|26.04703| -80.15850|TRUE|FALSE|FALSE|TRUE
5631467|Four Seasons Hotel at The Surf Club|Miami Gardens, FL|2467|25.87772| -80.12142|FALSE|FALSE|TRUE|TRUE
5631467|The Oasis Tower at Seminole Hard Rock|Miami Gardens, FL| 752|26.05187| -80.21052|FALSE|FALSE|TRUE|TRUE
5631467|SERENA Hotel Aventura Miami, Tapestry Collection by Hilton|Miami Gardens, FL| 229|25.97312| -80.14548|FALSE|TRUE|FALSE|TRUE
5631467|Travelodge by Wyndham Miami Biscayne Bay|Miami Gardens, FL| 141|25.82499| -80.18661|TRUE|FALSE|FALSE|TRUE
5631467|Grand Palms Spa & Golf Resort|Miami Gardens, FL| 121|26.00016| -80.35079|TRUE|FALSE|FALSE|TRUE
5631467|Hyde Beach House|Miami Gardens, FL| 581|25.98685| -80.12071|FALSE|FALSE|TRUE|TRUE
5631467|The Ritz-Carlton Bal Harbour, Miami|Miami Gardens, FL|1043|25.89900| -80.12330|FALSE|FALSE|TRUE|TRUE
5631467|Seminole Hard Rock Hotel and Casino|Miami Gardens, FL| 712|26.05082| -80.21155|FALSE|FALSE|TRUE|TRUE
5631467|Hilton Aventura Miami|Miami Gardens, FL| 301|25.95325| -80.14345|FALSE|TRUE|FALSE|TRUE
5631467|Grand Beach Hotel Surfside|Miami Gardens, FL| 546|25.88445| -80.12222|FALSE|FALSE|TRUE|TRUE
5631467|Greniers|Miami Gardens, FL| 146|26.02505| -80.11578|TRUE|FALSE|FALSE|TRUE
5631467|Private Ocean Condos at Marenas Beach|Miami Gardens, FL|1083|25.94916| -80.11988|FALSE|FALSE|TRUE|TRUE
5631467|May-Dee Suites|Miami Gardens, FL| 212|26.01073| -80.19495|FALSE|TRUE|FALSE|TRUE
5631467|Acqualina Resort & Residences On The Beach|Miami Gardens, FL|1413|25.94082| -80.12092|FALSE|FALSE|TRUE|TRUE
5631467|The St. Regis Bal Harbour Resort|Miami Gardens, FL|1220|25.88909| -80.12241|FALSE|FALSE|TRUE|TRUE
5631467|Dream Inn|Miami Gardens, FL| 137|25.94204| -80.24560|TRUE|TRUE|FALSE|TRUE
5631467|Stadium Hotel|Miami Gardens, FL| 162|25.95790| -80.23885|FALSE|TRUE|FALSE|TRUE
5631467|Shell Motel|Miami Gardens, FL| 146|26.00112| -80.14249|TRUE|FALSE|FALSE|TRUE
5637605|The Virginian Lynchburg Curio Collection|Lynchburg, VA| 200|37.41546| -79.14407|FALSE|FALSE|TRUE|TRUE
5637605|Homewood Suites by Hilton Lynchburg|Lynchburg, VA| 162|37.34571| -79.18653|FALSE|TRUE|TRUE|TRUE
5637605|Courtyard by Marriott Lynchburg|Lynchburg, VA| 143|37.36886| -79.17334|TRUE|TRUE|TRUE|TRUE
5637605|Residence Inn by Marriott Lynchburg|Lynchburg, VA| 211|37.36260| -79.18089|FALSE|TRUE|TRUE|TRUE
5637605|SpringHill Suites by Marriott Lynchburg Airport/University Area|Lynchburg, VA| 171|37.33517| -79.19109|FALSE|FALSE|TRUE|TRUE
5637605|Knights Inn Madison Heights, VA|Lynchburg, VA|  83|37.48239| -79.11992|TRUE|FALSE|FALSE|TRUE
5637605|Super 8 by Wyndham Lynchburg VA|Lynchburg, VA| 124|37.35926| -79.17133|TRUE|TRUE|FALSE|TRUE
5637605|WoodSpring Suites Lynchburg VA|Lynchburg, VA|  85|37.37068| -79.17706|TRUE|TRUE|FALSE|TRUE
5637605|Lynchburg Grand Hotel|Lynchburg, VA| 168|37.41677| -79.14477|FALSE|FALSE|TRUE|TRUE
5637605|Affordable Corporate Suites - Lynchburg|Lynchburg, VA| 106|37.37224| -79.19801|TRUE|FALSE|FALSE|TRUE
5637605|Sleep Inn Lynchburg - University Area & Hwy 460|Lynchburg, VA| 129|37.36377| -79.17078|TRUE|TRUE|FALSE|TRUE
5637605|Comfort Inn & Suites Lynchburg Airport - University Area|Lynchburg, VA| 131|37.33285| -79.19097|TRUE|FALSE|FALSE|TRUE
5637605|Baymont by Wyndham Lynchburg|Lynchburg, VA|  87|37.36974| -79.18214|TRUE|FALSE|FALSE|TRUE
5637605|Quality Inn Lynchburg near University|Lynchburg, VA| 114|37.36753| -79.18090|TRUE|TRUE|FALSE|TRUE
5637605|Extended Stay America Suites Lynchburg University Blvd|Lynchburg, VA| 144|37.35647| -79.17077|FALSE|TRUE|TRUE|TRUE
5637605|Hampton Inn & Suites Lynchburg|Lynchburg, VA| 178|37.33359| -79.19071|FALSE|FALSE|TRUE|TRUE
5637605|Hilton Garden Inn Lynchburg|Lynchburg, VA| 143|37.34490| -79.18715|TRUE|TRUE|TRUE|TRUE
5637605|TRU by Hilton Lynchburg|Lynchburg, VA| 161|37.33972| -79.19835|FALSE|FALSE|TRUE|TRUE
5637605|Microtel Inn & Suites By Wyndham Lynchburg|Lynchburg, VA| 109|37.36706| -79.18133|TRUE|TRUE|FALSE|TRUE
5637605|Craddock Terry Hotel, Lynchburg, a Tribute Portfolio Hotel|Lynchburg, VA| 190|37.41138| -79.13752|FALSE|FALSE|TRUE|TRUE
5646924|Hampton Inn Ruston|Ruston, LA| 108|32.54191| -92.64000|TRUE|TRUE|TRUE|TRUE
5646924|Onyx Inn and Suites|Ruston, LA|  90|32.53942| -92.61455|TRUE|TRUE|TRUE|TRUE
5646924|Super 8 by Wyndham Ruston|Ruston, LA|  91|32.53684| -92.65348|TRUE|TRUE|TRUE|TRUE
5646924|Courtyard by Marriott Ruston|Ruston, LA| 137|32.54283| -92.63389|TRUE|TRUE|TRUE|TRUE
5646924|Best Western PLUS Ruston Hotel|Ruston, LA| 104|32.53940| -92.62613|TRUE|TRUE|TRUE|TRUE
5646924|Quality Inn Ruston|Ruston, LA|  83|32.54134| -92.61193|TRUE|TRUE|TRUE|TRUE
5646924|Days Inn by Wyndham Ruston LA|Ruston, LA|  90|32.54122| -92.61452|TRUE|TRUE|TRUE|TRUE
5646988|Grand Hyatt San Antonio River Walk|San Antonio, TX| 394|29.42193| -98.48437|FALSE|TRUE|TRUE|TRUE
5646988|Courtyard Marriott Riverwalk|San Antonio, TX| 365|29.42555| -98.49165|FALSE|TRUE|TRUE|TRUE
5646988|Days Inn by Wyndham San Antonio at Palo Alto|San Antonio, TX|  59|29.32889| -98.55163|TRUE|FALSE|FALSE|TRUE
5646988|Extended Stay SA|San Antonio, TX|  57|29.56888| -98.47979|TRUE|FALSE|FALSE|TRUE
5646988|Flex Studios|San Antonio, TX|  58|29.52851| -98.56124|TRUE|FALSE|FALSE|TRUE
5646988|La Quinta Inn & Suites by Wyndham San Antonio Downtown|San Antonio, TX| 190|29.41963| -98.49720|FALSE|FALSE|TRUE|TRUE
5646988|Deluxe Inn San Antonio|San Antonio, TX|  58|29.40391| -98.62514|TRUE|FALSE|FALSE|TRUE
5646988|Travel Inn San Antonio|San Antonio, TX|  59|29.48312| -98.40129|TRUE|FALSE|FALSE|TRUE
5646988|Days Inn by Wyndham San Antonio|San Antonio, TX|  60|29.52344| -98.39550|TRUE|FALSE|FALSE|TRUE
5646988|Marriott San Antonio Riverwalk|San Antonio, TX| 395|29.42235| -98.48450|FALSE|TRUE|TRUE|TRUE
5646988|Knights Inn San Antonio near AT&T Center|San Antonio, TX|  64|29.42572| -98.41894|TRUE|FALSE|FALSE|TRUE
5646988|Hyatt Regency San Antonio Riverwalk|San Antonio, TX| 391|29.42559| -98.48820|FALSE|TRUE|TRUE|TRUE
5646988|Canopy by Hilton San Antonio Riverwalk|San Antonio, TX| 387|29.42504| -98.49144|FALSE|TRUE|TRUE|TRUE
5646988|Star Inn Hotel Seaworld San Antonio|San Antonio, TX|  64|29.46722| -98.61688|TRUE|FALSE|FALSE|TRUE
5646988|Mokara Hotel & Spa San Antonio|San Antonio, TX| 606|29.42469| -98.49054|FALSE|TRUE|TRUE|TRUE
5646988|Thompson San Antonio – Riverwalk|San Antonio, TX| 399|29.43169| -98.48904|FALSE|FALSE|TRUE|TRUE
5646988|Drury Plaza Hotel San Antonio Riverwalk|San Antonio, TX| 359|29.42427| -98.49201|FALSE|TRUE|TRUE|TRUE
5646988|Holiday Inn Express San Antonio Rivercenter Area, an IHG Hotel|San Antonio, TX| 155|29.42112| -98.47507|FALSE|TRUE|FALSE|TRUE
5646988|Days Inn by Wyndham San Antonio Splashtown/ATT Center|San Antonio, TX|  63|29.44650| -98.43196|TRUE|FALSE|FALSE|TRUE
5646988|Red Roof Inn PLUS+ San Antonio Downtown - Riverwalk|San Antonio, TX| 152|29.42559| -98.48083|FALSE|TRUE|FALSE|TRUE
5646988|Hotel Contessa|San Antonio, TX| 435|29.42310| -98.48982|FALSE|TRUE|TRUE|TRUE
5646988|Rodeway Inn Lackland AFB - Sea World|San Antonio, TX|  58|29.40580| -98.61666|TRUE|FALSE|FALSE|TRUE
5647014|WoodSpring Suites Miami Southwest|Miami, FL| 130|25.61979| -80.37988|TRUE|FALSE|FALSE|TRUE
5647014|Quality Inn Miami South|Miami, FL| 162|25.63498| -80.33766|TRUE|FALSE|FALSE|TRUE
5647014|Red Roof Inn PLUS+ Miami Airport|Miami, FL| 167|25.80513| -80.26317|TRUE|FALSE|FALSE|TRUE
5647014|Chateaubleau Hotel|Miami, FL| 168|25.76078| -80.25870|TRUE|FALSE|FALSE|TRUE
5647014|Regency Miami Airport by Sonesta|Miami, FL| 157|25.78177| -80.26493|TRUE|FALSE|FALSE|TRUE
5647014|Hilton Garden Inn Miami Dolphin Mall|Miami, FL| 242|25.78936| -80.37574|FALSE|TRUE|FALSE|TRUE
5647014|Homewood Suites by Hilton Miami Dolphin Mall|Miami, FL| 216|25.78950| -80.37595|FALSE|TRUE|FALSE|TRUE
5647014|SpringHill Suites by Marriott Miami Doral|Miami, FL| 210|25.80995| -80.36792|FALSE|TRUE|FALSE|TRUE
5647014|Private Residences at Hotel Arya by SoFLA Vacations|Miami, FL| 495|25.76168| -80.19179|FALSE|FALSE|TRUE|TRUE
5647014|Biltmore Hotel - Miami - Coral Gables|Miami, FL| 632|25.74090| -80.27771|FALSE|FALSE|TRUE|TRUE
5647014|La Quinta Inn by Wyndham Miami Airport North|Miami, FL| 166|25.81055| -80.31670|TRUE|FALSE|FALSE|TRUE
5647014|Courtyard by Marriott Miami at Dolphin Mall|Miami, FL| 268|25.78484| -80.37784|FALSE|TRUE|FALSE|TRUE
5647014|Motel 6 Miami, FL|Miami, FL| 146|25.80837| -80.31615|TRUE|FALSE|FALSE|TRUE
5647014|Loews Coral Gables Hotel|Miami, FL| 445|25.74471| -80.25742|FALSE|FALSE|TRUE|TRUE
5647014|The Ritz-Carlton Coconut Grove, Miami|Miami, FL| 824|25.73031| -80.23821|FALSE|FALSE|TRUE|TRUE
5647014|Hyatt Place Miami Airport West/Doral|Miami, FL| 367|25.80847| -80.32780|FALSE|FALSE|TRUE|TRUE
5647014|THesis Hotel Miami|Miami, FL| 479|25.71236| -80.27850|FALSE|FALSE|TRUE|TRUE
5647014|iCoconutGrove Vacation Rentals|Miami, FL| 535|25.72735| -80.24060|FALSE|FALSE|TRUE|TRUE
5647014|Baymont by Wyndham Miami Doral|Miami, FL| 157|25.80916| -80.36881|TRUE|TRUE|FALSE|TRUE
5647014|Aloft Miami Doral|Miami, FL| 196|25.80341| -80.36865|FALSE|TRUE|FALSE|TRUE
5647014|Comfort Suites Miami - Kendall|Miami, FL| 234|25.73318| -80.38265|FALSE|TRUE|FALSE|TRUE
5647014|Best Western Plus Miami-Doral/Dolphin Mall|Miami, FL| 175|25.80920| -80.36773|FALSE|TRUE|FALSE|TRUE
5647014|Hyatt Regency Coral Gables|Miami, FL| 507|25.75188| -80.25582|FALSE|FALSE|TRUE|TRUE
5647014|Hotel Colonnade Coral Gables, Autograph Collection|Miami, FL| 489|25.75038| -80.25825|FALSE|FALSE|TRUE|TRUE
5647014|Miami Princess Hotel|Miami, FL| 158|25.78286| -80.26499|TRUE|FALSE|FALSE|TRUE
5647014|DoubleTree by Hilton Miami - Doral, FL|Miami, FL| 253|25.79049| -80.36250|FALSE|TRUE|FALSE|TRUE
5647014|Rodeway Inn South Miami Coral Gables|Miami, FL| 140|25.70568| -80.29093|TRUE|FALSE|FALSE|TRUE
5647014|Mayfair House Hotel & Garden|Miami, FL| 380|25.72881| -80.24124|FALSE|FALSE|TRUE|TRUE
5647014|Nuvo Suites Hotel|Miami, FL| 218|25.79030| -80.36987|FALSE|TRUE|FALSE|TRUE
5647014|Days Inn by Wyndham Miami Airport North|Miami, FL| 168|25.80832| -80.27503|TRUE|FALSE|FALSE|TRUE
5647020|The Seagate Hotel & Spa|Boca Raton, FL| 530|26.46114| -80.06142|FALSE|FALSE|TRUE|TRUE
5647020|Embassy Suites Boca Raton|Boca Raton, FL| 191|26.39750| -80.09604|FALSE|TRUE|FALSE|TRUE
5647020|Towneplace Suites by Marriott Boca Raton|Boca Raton, FL| 143|26.39512| -80.09753|TRUE|TRUE|FALSE|TRUE
5647020|Opal Grand Oceanfront Resort & Spa|Boca Raton, FL| 463|26.46242| -80.05896|FALSE|FALSE|TRUE|TRUE
5647020|Boca Suites Deerfield Beach|Boca Raton, FL| 149|26.32151| -80.11282|TRUE|FALSE|FALSE|TRUE
5647020|Honu Cove|Boca Raton, FL| 174|26.30893| -80.07807|TRUE|FALSE|FALSE|TRUE
5647020|Crane's Beach House Boutique Hotel & Luxury Villas|Boca Raton, FL| 451|26.46006| -80.06112|FALSE|FALSE|TRUE|TRUE
5647020|La Quinta Inn by Wyndham Deerfield Beach I-95 at Hillsboro E|Boca Raton, FL| 119|26.31986| -80.10946|TRUE|FALSE|FALSE|TRUE
5647020|Extended Stay America Suites Boca Raton Commerce|Boca Raton, FL| 166|26.41875| -80.09115|TRUE|FALSE|FALSE|TRUE
5647020|Best Western Plus University Inn|Boca Raton, FL| 186|26.37527| -80.07582|FALSE|TRUE|FALSE|TRUE
5647020|Boca Raton Marriott at Boca Center|Boca Raton, FL| 354|26.36180| -80.12268|FALSE|TRUE|FALSE|TRUE
5647020|Extended Stay America Suites Fort Lauderdale Deerfield Beach|Boca Raton, FL| 177|26.30204| -80.11875|TRUE|FALSE|FALSE|TRUE
5647020|Fairfield Inn And Suites By Marriott Boca Raton|Boca Raton, FL| 182|26.38041| -80.10983|FALSE|TRUE|FALSE|TRUE
5647020|Residence Inn by Marriott Delray Beach|Boca Raton, FL| 457|26.46205| -80.06078|FALSE|FALSE|TRUE|TRUE
5647020|Beach Club at The Boca Raton|Boca Raton, FL|1063|26.34195| -80.07750|FALSE|FALSE|TRUE|TRUE
5647020|Springhill Suites By Marriott Boca Raton|Boca Raton, FL| 143|26.39549| -80.09659|TRUE|TRUE|FALSE|TRUE
5647020|Aloft Delray Beach|Boca Raton, FL| 406|26.45772| -80.06826|FALSE|FALSE|TRUE|TRUE
5647020|Quality Inn Boca Raton University Area|Boca Raton, FL| 152|26.37730| -80.07694|TRUE|TRUE|FALSE|TRUE
5647020|Royal Blues Hotel|Boca Raton, FL| 659|26.31481| -80.07597|FALSE|FALSE|TRUE|TRUE
5647020|Tower at The Boca Raton|Boca Raton, FL| 945|26.33989| -80.07857|FALSE|FALSE|TRUE|TRUE
5647020|The Ray Hotel Delray Beach, Curio Collection by Hilton|Boca Raton, FL| 824|26.46593| -80.07099|FALSE|FALSE|TRUE|TRUE
5647020|Renaissance Boca Raton Hotel|Boca Raton, FL| 220|26.36585| -80.12441|FALSE|TRUE|FALSE|TRUE
5647020|Shores Terrace|Boca Raton, FL| 168|26.24531| -80.08767|TRUE|FALSE|FALSE|TRUE
5647020|Wyndham Boca Raton Hotel|Boca Raton, FL| 258|26.36705| -80.12324|FALSE|TRUE|FALSE|TRUE
5647020|Sonesta Select Boca Raton|Boca Raton, FL| 177|26.36908| -80.12257|TRUE|TRUE|FALSE|TRUE
5647020|Best Western Plus Deerfield Beach Hotel & Suites|Boca Raton, FL| 141|26.30303| -80.12129|TRUE|FALSE|FALSE|TRUE
5647020|Waterstone Resort & Marina Boca, Curio Collection by Hilton|Boca Raton, FL| 453|26.33896| -80.07332|FALSE|FALSE|TRUE|TRUE
5648402|Arya Inn & Suites|Arlington, TX|  83|32.83452| -96.99184|TRUE|FALSE|FALSE|TRUE
5648402|Crowne Plaza Suites Arlington - Ballpark - Stadium, an IHG Hotel|Arlington, TX| 159|32.76056| -97.05647|FALSE|FALSE|TRUE|TRUE
5648402|Courtyard by Marriott Dallas Arlington/Entertainment Dist|Arlington, TX| 180|32.75760| -97.08895|FALSE|TRUE|TRUE|TRUE
5648402|Quality Inn at Arlington Highlands|Arlington, TX|  89|32.67999| -97.11338|TRUE|FALSE|FALSE|TRUE
5648402|Sleep Inn Arlington Near Six Flags|Arlington, TX| 101|32.75355| -97.06618|TRUE|FALSE|FALSE|TRUE
5648402|Hyatt Place Dallas/Arlington|Arlington, TX| 168|32.75081| -97.06593|FALSE|TRUE|TRUE|TRUE
5648402|DoubleTree by Hilton Hotel Arlington DFW South|Arlington, TX| 171|32.77338| -97.06353|FALSE|FALSE|TRUE|TRUE
5648402|Hilton Arlington|Arlington, TX| 174|32.76248| -97.06729|FALSE|FALSE|TRUE|TRUE
5648402|Extended Stay America Suites Arlington|Arlington, TX| 113|32.73569| -97.10807|FALSE|TRUE|FALSE|TRUE
5648402|SpringHill Suites Dallas Arlington North|Arlington, TX| 140|32.76329| -97.07872|FALSE|TRUE|FALSE|TRUE
5648402|Live by Loews, Arlington, TX|Arlington, TX| 534|32.74950| -97.08570|FALSE|TRUE|TRUE|TRUE
5648402|OYO Hotel Irving DFW Airport South|Arlington, TX|  67|32.83824| -96.98151|TRUE|FALSE|FALSE|TRUE
5648402|Hyatt Place Dallas/North Arlington/Grand Prairie|Arlington, TX| 148|32.77198| -97.06053|FALSE|FALSE|TRUE|TRUE
5648402|Motel 6 Arlington, Tx – Entertainment District|Arlington, TX| 107|32.74876| -97.09796|TRUE|TRUE|FALSE|TRUE
5648402|Courtyard by Marriott Dallas-Fort Worth/Bedford|Arlington, TX| 110|32.83822| -97.12953|TRUE|FALSE|FALSE|TRUE
5648402|Microtel Inn by Wyndham Arlington/Dallas Area|Arlington, TX|  98|32.66682| -97.13578|TRUE|FALSE|FALSE|TRUE
5648402|Sheraton Arlington Hotel|Arlington, TX| 200|32.75686| -97.08185|FALSE|TRUE|TRUE|TRUE
5648402|Super 8 by Wyndham Irving DFW Airport/South|Arlington, TX|  92|32.83844| -97.01175|TRUE|FALSE|FALSE|TRUE
5648402|Hilton Garden Inn Dallas/Arlington|Arlington, TX| 183|32.76053| -97.07172|FALSE|TRUE|TRUE|TRUE
5648402|Howard Johnson by Wyndham Arlington Ballpark / Six Flags|Arlington, TX| 102|32.75889| -97.07810|TRUE|TRUE|FALSE|TRUE
5648402|HomeTowne Studios by Red Roof Dallas - Irving|Arlington, TX|  82|32.86436| -96.99415|TRUE|FALSE|FALSE|TRUE
5648402|Aloft Dallas Arlington Entertainment District|Arlington, TX| 151|32.76138| -97.07485|FALSE|TRUE|TRUE|TRUE
5648415|SpringHill Suites Boise West/Eagle|Boise, ID| 162|43.66220|-116.33534|FALSE|FALSE|TRUE|TRUE
5648415|Comfort Suites Airport|Boise, ID|  99|43.57559|-116.21303|TRUE|FALSE|FALSE|TRUE
5648415|Hampton Inn & Suites Boise-Downtown|Boise, ID| 153|43.61227|-116.20534|FALSE|TRUE|TRUE|TRUE
5648415|Rodeway Inn Boise Airport|Boise, ID| 101|43.56582|-116.22232|TRUE|FALSE|FALSE|TRUE
5648415|Simple Suites Boise Airport|Boise, ID|  94|43.57319|-116.21786|TRUE|FALSE|FALSE|TRUE
5648415|Modern Hotel|Boise, ID| 180|43.61841|-116.21042|FALSE|TRUE|TRUE|TRUE
5648415|Airport Inn|Boise, ID| 101|43.56989|-116.21405|TRUE|FALSE|FALSE|TRUE
5648415|Fairfield Inn By Marriott Boise|Boise, ID| 110|43.61502|-116.20231|FALSE|TRUE|FALSE|TRUE
5648415|Best Western Northwest Lodge|Boise, ID| 106|43.53962|-116.15731|TRUE|FALSE|FALSE|TRUE
5648415|Hyatt Place Boise/Downtown|Boise, ID| 197|43.61884|-116.20483|FALSE|TRUE|TRUE|TRUE
5648415|Ramada by Wyndham Boise|Boise, ID|  85|43.57275|-116.21385|TRUE|FALSE|FALSE|TRUE
5648415|Red Lion Hotel Boise Downtowner|Boise, ID|  79|43.62118|-116.21648|TRUE|FALSE|FALSE|TRUE
5648415|Holiday Inn Express Boise - University Area, an IHG Hotel|Boise, ID| 113|43.59782|-116.18656|FALSE|TRUE|FALSE|TRUE
5648415|Hilton Garden Inn Boise Downtown|Boise, ID| 162|43.61668|-116.21097|FALSE|TRUE|TRUE|TRUE
5648415|Hyatt Place Boise/Towne Square|Boise, ID| 152|43.61319|-116.28526|FALSE|FALSE|TRUE|TRUE
5648415|Inn America - Boise|Boise, ID| 104|43.56881|-116.20956|TRUE|FALSE|FALSE|TRUE
5648415|Hotel 43|Boise, ID| 225|43.61556|-116.20664|FALSE|TRUE|TRUE|TRUE
5648415|Lotus By Hotel Inn|Boise, ID| 101|43.57150|-116.21227|TRUE|FALSE|FALSE|TRUE
5648415|Inn at 500 Capitol|Boise, ID| 266|43.61132|-116.20469|FALSE|TRUE|TRUE|TRUE
5648415|SpringHill Suites by Marriott Boise ParkCenter|Boise, ID| 141|43.59463|-116.17731|FALSE|TRUE|FALSE|TRUE
5648415|Extended Stay America Suites Boise Airport|Boise, ID| 102|43.56582|-116.22232|TRUE|FALSE|FALSE|TRUE
5648415|The Riverside Hotel, BW Premier Collection|Boise, ID| 188|43.61992|-116.23399|FALSE|FALSE|TRUE|TRUE
5648415|The Grove Hotel|Boise, ID| 225|43.61409|-116.20405|FALSE|TRUE|TRUE|TRUE
5648427|Breathtaking condo in the heart of Old Town|Fort Collins, CO| 356|40.58407|-105.07182|FALSE|TRUE|TRUE|TRUE
5648427|La Quinta Inn by Wyndham Fort Collins|Fort Collins, CO|  84|40.58014|-105.00793|TRUE|FALSE|FALSE|TRUE
5648427|Clarion Inn|Fort Collins, CO|  66|40.58526|-105.08442|TRUE|TRUE|FALSE|TRUE
5648427|Hilton Fort Collins|Fort Collins, CO| 108|40.56602|-105.08257|FALSE|TRUE|FALSE|TRUE
5648427|Baymont by Wyndham Fort Collins|Fort Collins, CO|  70|40.58185|-105.00672|TRUE|FALSE|FALSE|TRUE
5648427|Stylish Getaway w/ Designer Touches- Free Bikes|Fort Collins, CO| 365|40.58526|-105.08442|FALSE|TRUE|TRUE|TRUE
5648427|Fairfield Inn & Suites Fort Collins South|Fort Collins, CO| 102|40.52175|-105.01291|TRUE|FALSE|FALSE|TRUE
5648427|Stylish condo in the heart of Old Town|Fort Collins, CO| 356|40.58407|-105.07182|FALSE|TRUE|TRUE|TRUE
5648427|Hampton Inn Ft Collins|Fort Collins, CO|  98|40.52288|-105.04712|TRUE|FALSE|FALSE|TRUE
5648427|Comfort Inn Fort Collins North|Fort Collins, CO|  95|40.58011|-105.00433|TRUE|FALSE|FALSE|TRUE
5648427|The Armstrong Hotel|Fort Collins, CO| 246|40.58447|-105.07735|FALSE|TRUE|TRUE|TRUE
5648427|Days Inn by Wyndham Fort Collins|Fort Collins, CO|  83|40.58042|-105.00894|TRUE|FALSE|FALSE|TRUE
5648427|Fort Collins Marriott|Fort Collins, CO| 134|40.52269|-105.05574|FALSE|FALSE|TRUE|TRUE
5648427|Home2 Suites by Hilton Fort Collins|Fort Collins, CO| 131|40.52154|-105.04237|FALSE|FALSE|TRUE|TRUE
5648427|Gorgeous Condo in the Heart of Old Town|Fort Collins, CO| 356|40.58407|-105.07182|FALSE|TRUE|TRUE|TRUE
5648427|Comfort Suites Fort Collins Near University|Fort Collins, CO| 107|40.52190|-105.05234|TRUE|FALSE|FALSE|TRUE
5648427|The Elizabeth Hotel, Autograph Collection|Fort Collins, CO| 305|40.58754|-105.07379|FALSE|TRUE|TRUE|TRUE
5648427|Courtyard by Marriott Fort Collins|Fort Collins, CO| 105|40.52269|-105.05574|TRUE|FALSE|FALSE|TRUE
5648427|Contemporary condo in the heart of Old Town|Fort Collins, CO| 378|40.58407|-105.07182|FALSE|TRUE|TRUE|TRUE
5648427|AmericInn by Wyndham Windsor Ft. Collins|Fort Collins, CO|  95|40.47763|-104.98965|TRUE|FALSE|FALSE|TRUE
5648427|Amazing Condo in the Heart of Old Town|Fort Collins, CO| 356|40.58407|-105.07182|FALSE|TRUE|TRUE|TRUE
5648472|Hyatt Place Fresno|Fresno, CA| 188|36.84289|-119.78412|FALSE|FALSE|TRUE|TRUE
5648472|Best Western Plus Fresno Inn|Fresno, CA| 137|36.80922|-119.78024|FALSE|TRUE|FALSE|TRUE
5648472|Courtyard by Marriott Fresno|Fresno, CA| 198|36.81134|-119.78680|FALSE|TRUE|TRUE|TRUE
5648472|Clarion Pointe Fresno near Yosemite|Fresno, CA|  82|36.79159|-119.79154|TRUE|FALSE|FALSE|TRUE
5648472|Quality Inn Fresno Yosemite Airport|Fresno, CA|  98|36.76575|-119.72184|TRUE|FALSE|FALSE|TRUE
5648472|SpringHill Suites by Marriott Fresno|Fresno, CA| 193|36.83649|-119.77812|FALSE|TRUE|TRUE|TRUE
5648472|HomeTowne Studios by Red Roof Fresno - West|Fresno, CA|  74|36.79254|-119.79128|TRUE|FALSE|FALSE|TRUE
5648472|Quality Inn Fresno Near University|Fresno, CA|  95|36.82392|-119.78351|TRUE|TRUE|FALSE|TRUE
5648472|Studio 6 Fresno, CA - Extended Stay|Fresno, CA|  98|36.83639|-119.78902|TRUE|FALSE|FALSE|TRUE
5648472|DoubleTree by Hilton Fresno Convention Center|Fresno, CA| 184|36.73282|-119.78432|FALSE|FALSE|TRUE|TRUE
5648472|Hotel Piccadilly|Fresno, CA|  95|36.80773|-119.83314|TRUE|FALSE|FALSE|TRUE
5648472|Home2 Suites by Hilton Clovis Fresno Airport|Fresno, CA| 161|36.80284|-119.69945|FALSE|FALSE|TRUE|TRUE
5648472|Hilton Garden Inn Clovis|Fresno, CA| 170|36.80769|-119.72064|FALSE|FALSE|TRUE|TRUE
5648472|Fresno City Inn|Fresno, CA|  81|36.79265|-119.79098|TRUE|FALSE|FALSE|TRUE
5648472|La Quinta Inn by Wyndham Fresno Yosemite|Fresno, CA|  96|36.74069|-119.78006|TRUE|FALSE|FALSE|TRUE
5648472|Ramada by Wyndham Fresno North|Fresno, CA|  91|36.80984|-119.78332|TRUE|TRUE|FALSE|TRUE
5648472|Holiday Inn Express® Hotel Clovis / Fresno, an IHG Hotel|Fresno, CA| 154|36.80800|-119.72350|FALSE|TRUE|FALSE|TRUE
5648472|Sonesta ES Suites Fresno|Fresno, CA| 163|36.81412|-119.78659|FALSE|TRUE|TRUE|TRUE
5648472|Courtyard by Marriott Fresno Clovis|Fresno, CA| 181|36.80804|-119.68949|FALSE|FALSE|TRUE|TRUE
5648472|Country Inn & Suites by Radisson, Fresno North, CA|Fresno, CA| 122|36.82436|-119.78391|FALSE|TRUE|FALSE|TRUE
5648472|Homewood Suites by Hilton Fresno|Fresno, CA| 214|36.83687|-119.77766|FALSE|TRUE|TRUE|TRUE
5648472|Homewood Suites by Hilton Fresno Airport/Clovis, CA|Fresno, CA| 182|36.80218|-119.69925|FALSE|FALSE|TRUE|TRUE
5648472|Best Western Village Inn|Fresno, CA|  97|36.77890|-119.78953|TRUE|FALSE|FALSE|TRUE
5648472|University Square Hotel|Fresno, CA|  75|36.80734|-119.75501|TRUE|TRUE|FALSE|TRUE
5648506|Courtyard by Marriott San Jose Cupertino|San Jose, CA| 402|37.33256|-122.01515|FALSE|FALSE|TRUE|TRUE
5648506|Hotel De Anza, a Destination by Hyatt Hotel|San Jose, CA| 202|37.33442|-121.89505|FALSE|TRUE|FALSE|TRUE
5648506|Quality Inn San Jose Airport/Silicon Valley|San Jose, CA| 112|37.40412|-121.90435|TRUE|FALSE|FALSE|TRUE
5648506|Arena Hotel|San Jose, CA| 104|37.33205|-121.90629|TRUE|FALSE|FALSE|TRUE
5648506|Hilton Garden Inn Cupertino|San Jose, CA| 361|37.33344|-122.01487|FALSE|FALSE|TRUE|TRUE
5648506|SureStay Plus Hotel by Best Western San Jose Central City|San Jose, CA| 117|37.29679|-121.85323|TRUE|TRUE|FALSE|TRUE
5648506|Wyndham Garden San Jose Airport|San Jose, CA| 111|37.36202|-121.90637|TRUE|FALSE|FALSE|TRUE
5648506|The Westin San Jose|San Jose, CA| 355|37.33102|-121.88736|FALSE|TRUE|TRUE|TRUE
5648506|Hotel Valencia Santana Row|San Jose, CA| 548|37.32084|-121.94809|FALSE|FALSE|TRUE|TRUE
5648506|Signia by Hilton San Jose|San Jose, CA| 361|37.33306|-121.88870|FALSE|TRUE|TRUE|TRUE
5648506|Best Western Lanai Garden Inn & Suites|San Jose, CA| 139|37.32018|-121.83027|FALSE|TRUE|FALSE|TRUE
5648506|Four Points by Sheraton San Jose Downtown|San Jose, CA| 151|37.33212|-121.88811|FALSE|TRUE|FALSE|TRUE
5648506|Clarion Inn Silicon Valley|San Jose, CA| 115|37.28592|-121.84227|TRUE|FALSE|FALSE|TRUE
5648506|Extended Studio Suites|San Jose, CA|  98|37.37558|-121.91870|TRUE|FALSE|FALSE|TRUE
5648506|Residence Inn by Marriott San Jose Cupertino|San Jose, CA| 492|37.32433|-122.00993|FALSE|FALSE|TRUE|TRUE
5648506|AC Hotel by Marriott San Jose Downtown|San Jose, CA| 225|37.33320|-121.89617|FALSE|TRUE|FALSE|TRUE
5648506|Quality Inn Santa Clara Convention Center|San Jose, CA| 106|37.40705|-121.99828|TRUE|FALSE|FALSE|TRUE
5648506|San Jose Marriott|San Jose, CA| 284|37.33032|-121.88837|FALSE|TRUE|FALSE|TRUE
5648506|Signature Inn Santa Clara|San Jose, CA| 117|37.34493|-121.93227|TRUE|FALSE|FALSE|TRUE
5648506|Comfort Suites San Jose Airport|San Jose, CA| 110|37.36352|-121.91064|TRUE|FALSE|FALSE|TRUE
5648506|Hyatt Place San Jose/Downtown|San Jose, CA| 157|37.33011|-121.89112|FALSE|TRUE|FALSE|TRUE
5648506|Homewood Suites by Hilton San Jose Airport-Silicon Valley|San Jose, CA| 406|37.38461|-121.92837|FALSE|FALSE|TRUE|TRUE
5648506|Hilton San Jose|San Jose, CA| 293|37.32923|-121.89052|FALSE|TRUE|TRUE|TRUE
5648506|Days Inn by Wyndham San Jose|San Jose, CA|  92|37.27739|-121.83400|TRUE|FALSE|FALSE|TRUE
5648506|Aloft Cupertino|San Jose, CA| 364|37.32518|-122.03261|FALSE|FALSE|TRUE|TRUE
5648506|Santa Clara Marriott|San Jose, CA| 363|37.39058|-121.97423|FALSE|FALSE|TRUE|TRUE
5648506|Cherry Orchard Inn|San Jose, CA| 111|37.35299|-122.00325|TRUE|FALSE|FALSE|TRUE
5648518|Hampton Inn Tropicana|Las Vegas, NV| 144|36.09967|-115.18338|FALSE|TRUE|FALSE|TRUE
5648518|Oasis at Gold Spike - Adults Only|Las Vegas, NV|  65|36.17095|-115.13982|TRUE|FALSE|FALSE|TRUE
5648518|Holiday Inn Express Las Vegas South, an IHG Hotel|Las Vegas, NV| 163|36.08478|-115.18478|FALSE|TRUE|FALSE|TRUE
5648518|Fairfield Inn and Suites by Marriott Las Vegas South|Las Vegas, NV| 155|36.08451|-115.18330|FALSE|TRUE|FALSE|TRUE
5648518|Bellagio|Las Vegas, NV| 413|36.11311|-115.17701|FALSE|FALSE|TRUE|TRUE
5648518|Courtyard by Marriott Las Vegas South|Las Vegas, NV| 166|36.08382|-115.18304|FALSE|TRUE|FALSE|TRUE
5648518|Arizona Charlie's Boulder|Las Vegas, NV|  71|36.12406|-115.07554|TRUE|FALSE|FALSE|TRUE
5648518|Residence Inn Las Vegas Convention Center by Marriott|Las Vegas, NV| 430|36.13086|-115.15528|FALSE|FALSE|TRUE|TRUE
5648518|El Cortez Hotel and Casino - 21 and Over|Las Vegas, NV|  85|36.16943|-115.13873|TRUE|FALSE|FALSE|TRUE
5648518|Residence Inn Las Vegas Airport|Las Vegas, NV| 687|36.08705|-115.13801|FALSE|FALSE|TRUE|TRUE
5648518|Jet Luxury Elite at The Signature|Las Vegas, NV| 170|36.10601|-115.16678|FALSE|TRUE|FALSE|TRUE
5648518|Nobu Hotel at Caesars Palace|Las Vegas, NV| 425|36.11671|-115.17519|FALSE|FALSE|TRUE|TRUE
5648518|Virgin Hotels Las Vegas, Curio Collection by Hilton|Las Vegas, NV| 321|36.10877|-115.15373|FALSE|FALSE|TRUE|TRUE
5648518|Residence Inn by Marriott Las Vegas Hughes Center|Las Vegas, NV| 350|36.11576|-115.15594|FALSE|FALSE|TRUE|TRUE
5648518|Silver Sevens Hotel & Casino|Las Vegas, NV|  82|36.11376|-115.15265|TRUE|FALSE|FALSE|TRUE
5648518|Mardi Gras Hotel & Casino|Las Vegas, NV|  61|36.12549|-115.15446|TRUE|FALSE|FALSE|TRUE
5648518|NoMad Las Vegas|Las Vegas, NV| 559|36.10474|-115.17651|FALSE|TRUE|TRUE|TRUE
5648518|Homewood Suites by Hilton Las Vegas City Center|Las Vegas, NV| 415|36.10609|-115.18211|FALSE|TRUE|TRUE|TRUE
5648518|Longhorn Casino & Hotel|Las Vegas, NV|  68|36.10704|-115.05916|TRUE|FALSE|FALSE|TRUE
5648518|Thunderbird Hotel|Las Vegas, NV|  59|36.15581|-115.14903|TRUE|FALSE|FALSE|TRUE
5648518|Sunrise Inn Hotel|Las Vegas, NV|  94|36.21813|-115.12921|TRUE|FALSE|FALSE|TRUE
5648518|The ENGLISH Hotel, Las Vegas, a Tribute Portfolio Hotel|Las Vegas, NV| 375|36.16146|-115.15223|FALSE|FALSE|TRUE|TRUE
5648518|Howard Johnson by Wyndham Las Vegas near the Strip|Las Vegas, NV|  57|36.09948|-115.16580|TRUE|TRUE|FALSE|TRUE
5648518|OYO Hotel and Casino Las Vegas|Las Vegas, NV| 181|36.10039|-115.16772|FALSE|TRUE|FALSE|TRUE
5648518|Super 8 by Wyndham Las Vegas North Strip/Fremont St. Area|Las Vegas, NV|  49|36.15606|-115.14829|TRUE|FALSE|FALSE|TRUE
5648518|ARIA Sky Suites|Las Vegas, NV|1312|36.10765|-115.17577|FALSE|TRUE|TRUE|TRUE
5648532|La Jolla Shores Hotel|San Diego, CA| 376|32.85496|-117.25820|FALSE|FALSE|TRUE|TRUE
5648532|Lodge at 32nd|San Diego, CA|  77|32.71352|-117.12548|TRUE|FALSE|FALSE|TRUE
5648532|Howard Johnson by Wyndham National City/San Diego South|San Diego, CA|  78|32.67770|-117.10830|TRUE|FALSE|FALSE|TRUE
5648532|Rodeway Inn San Diego Near SDSU|San Diego, CA|  96|32.78114|-117.08210|FALSE|TRUE|FALSE|TRUE
5648532|Carte Hotel San Diego Downtown, Curio Collection by Hilton|San Diego, CA| 385|32.71974|-117.16667|FALSE|FALSE|TRUE|TRUE
5648532|Heritage Inn La Mesa|San Diego, CA|  88|32.77315|-117.02779|TRUE|FALSE|FALSE|TRUE
5648532|Sunrise Inn San Diego|San Diego, CA|  83|32.72215|-117.23150|TRUE|FALSE|FALSE|TRUE
5648532|El Cordova Hotel on Coronado Island|San Diego, CA| 363|32.68249|-117.17757|FALSE|FALSE|TRUE|TRUE
5648532|Heritage Inn San Diego|San Diego, CA|  87|32.75618|-117.21899|TRUE|FALSE|FALSE|TRUE
5648532|Sheraton Mission Valley San Diego Hotel|San Diego, CA| 162|32.76501|-117.15053|FALSE|TRUE|FALSE|TRUE
5648532|Extended Stay America Suites San Diego Fashion Valley|San Diego, CA| 123|32.77871|-117.16154|FALSE|TRUE|FALSE|TRUE
5648532|SureStay Hotel by Best Western Chula Vista San Diego Bay|San Diego, CA|  78|32.64092|-117.09752|TRUE|FALSE|FALSE|TRUE
5648532|Travelodge by Wyndham San Diego SeaWorld|San Diego, CA|  85|32.74743|-117.20733|TRUE|FALSE|FALSE|TRUE
5648532|Extended Stay America Suites San Diego Mission Valley Stadiu|San Diego, CA| 144|32.77871|-117.16154|FALSE|TRUE|FALSE|TRUE
5648532|Homewood Suites by Hilton San Diego Hotel Circle/SeaWorld Area|San Diego, CA| 808|32.75876|-117.18313|FALSE|FALSE|TRUE|TRUE
5648532|Rodeway Inn National City San Diego South|San Diego, CA|  72|32.67718|-117.10835|TRUE|FALSE|FALSE|TRUE
5648532|Super 8 by Wyndham San Diego Hotel Circle|San Diego, CA|  90|32.75996|-117.16633|FALSE|TRUE|FALSE|TRUE
5648532|Town and Country San Diego|San Diego, CA| 213|32.76294|-117.16780|FALSE|TRUE|FALSE|TRUE
5648532|Hotel del Coronado, Curio Collection by Hilton|San Diego, CA| 500|32.68050|-117.17754|FALSE|FALSE|TRUE|TRUE
5648532|Found Hotel San Diego|San Diego, CA|  73|32.72576|-117.16744|TRUE|FALSE|FALSE|TRUE
5648532|Rodeway Inn Lemon Grove San Diego East|San Diego, CA|  81|32.74300|-117.03717|TRUE|FALSE|FALSE|TRUE
5648532|Hotel Marisol Coronado|San Diego, CA| 351|32.68478|-117.18030|FALSE|FALSE|TRUE|TRUE
5648532|Beach Village at The Del, Curio Collection by Hilton|San Diego, CA|1101|32.68116|-117.17887|FALSE|FALSE|TRUE|TRUE
5648532|Springhill Suites San Diego Mission Valley|San Diego, CA| 213|32.77170|-117.13725|FALSE|TRUE|FALSE|TRUE
5648532|Shore House at The Del, Curio Collection by Hilton|San Diego, CA|1343|32.67988|-117.17712|FALSE|FALSE|TRUE|TRUE
5648532|Ramada Suites by Wyndham San Diego|San Diego, CA| 100|32.76304|-117.15908|FALSE|TRUE|FALSE|TRUE
5648532|Residence Inn by Marriott San Diego Downtown/Bayfront|San Diego, CA| 417|32.71696|-117.17182|FALSE|FALSE|TRUE|TRUE
5648532|Coronado Island Marriott Resort & Spa|San Diego, CA| 540|32.69488|-117.16581|FALSE|FALSE|TRUE|TRUE
5648532|Days Inn by Wyndham Mission Valley Qualcomm Stadium/ SDSU|San Diego, CA|  96|32.78192|-117.08448|FALSE|TRUE|FALSE|TRUE
5648532|Berkshire Motor Hotel|San Diego, CA| 127|32.75559|-117.13738|FALSE|TRUE|FALSE|TRUE
5649201|Howard Johnson by Wyndham Blackwood Near Philadelphia|Philadelphia, PA| 138|39.81340| -75.06928|TRUE|FALSE|FALSE|TRUE
5649201|Red Roof Inn PLUS+ Philadelphia Airport|Philadelphia, PA| 123|39.86820| -75.30609|TRUE|FALSE|FALSE|TRUE
5649201|Hilton Philadelphia at Penn's Landing|Philadelphia, PA|1517|39.94536| -75.14137|FALSE|TRUE|TRUE|TRUE
5649201|The Notary Hotel, Philadelphia, Autograph Collection|Philadelphia, PA| 683|39.95301| -75.16174|FALSE|FALSE|TRUE|TRUE
5649201|Club Quarters Hotel Rittenhouse Square, Philadelphia|Philadelphia, PA| 449|39.95122| -75.16840|FALSE|TRUE|FALSE|TRUE
5649201|Fitler Club|Philadelphia, PA| 643|39.95349| -75.17914|FALSE|FALSE|TRUE|TRUE
5649201|Parkway Inn|Philadelphia, PA| 109|39.91875| -75.32845|TRUE|FALSE|FALSE|TRUE
5649201|W Philadelphia|Philadelphia, PA| 860|39.95124| -75.16490|FALSE|FALSE|TRUE|TRUE
5649201|Philadelphia Marriott Old City|Philadelphia, PA| 615|39.94621| -75.14342|FALSE|TRUE|TRUE|TRUE
5649201|The Rittenhouse Philadelphia|Philadelphia, PA|1395|39.94966| -75.16482|FALSE|TRUE|TRUE|TRUE
5649201|Red Carpet Inn Philadelphia Airport|Philadelphia, PA|  93|39.87242| -75.28119|TRUE|FALSE|FALSE|TRUE
5649201|The Logan Philadelphia, Curio Collection by Hilton|Philadelphia, PA| 909|39.95693| -75.17027|FALSE|FALSE|TRUE|TRUE
5649201|Warwick Hotel Rittenhouse Square|Philadelphia, PA| 502|39.94917| -75.16954|FALSE|TRUE|FALSE|TRUE
5649201|Travelodge by Wyndham Bellmawr|Philadelphia, PA|  92|39.86208| -75.07705|TRUE|FALSE|FALSE|TRUE
5649201|Canopy by Hilton Philadelphia Center City|Philadelphia, PA| 644|39.95094| -75.15996|FALSE|TRUE|TRUE|TRUE
5649201|Super 8 by Wyndham Gloucester|Philadelphia, PA| 131|39.95258| -75.16522|TRUE|FALSE|FALSE|TRUE
5649201|Philly Inn & Suites|Philadelphia, PA| 131|39.95258| -75.16522|TRUE|FALSE|FALSE|TRUE
5649201|Days Inn by Wyndham Runnemede Philadelphia Area|Philadelphia, PA| 122|39.85779| -75.07254|TRUE|FALSE|FALSE|TRUE
5649201|Kimpton Hotel Monaco Philadelphia, an IHG Hotel|Philadelphia, PA| 845|39.94914| -75.14888|FALSE|TRUE|TRUE|TRUE
5649201|Element Philadelphia Downtown|Philadelphia, PA| 607|39.95112| -75.16520|FALSE|TRUE|FALSE|TRUE
5649201|Days Inn by Wyndham Springfield/Phil.Intl Airport|Philadelphia, PA| 117|39.91948| -75.32802|TRUE|FALSE|FALSE|TRUE
5649201|Sofitel Philadelphia at Rittenhouse Square|Philadelphia, PA| 604|39.95085| -75.16911|FALSE|TRUE|FALSE|TRUE
5649201|Days Inn by Wyndham Philadelphia - Roosevelt Boulevard|Philadelphia, PA| 119|40.02974| -75.10607|TRUE|FALSE|FALSE|TRUE
5649201|The Bellevue Hotel, in The Unbound Collection by Hyatt|Philadelphia, PA| 808|39.94912| -75.16484|FALSE|TRUE|TRUE|TRUE
5649222|Hilton Garden Inn Dallas/Market Center|Dallas, TX| 101|32.80189| -96.83311|FALSE|TRUE|FALSE|TRUE
5649222|The Statler Dallas Curio Collection By Hilton|Dallas, TX| 410|32.78019| -96.79500|FALSE|FALSE|TRUE|TRUE
5649222|Thompson Dallas|Dallas, TX| 761|32.77307| -96.49411|FALSE|FALSE|TRUE|TRUE
5649222|The Lumen|Dallas, TX| 198|32.84106| -96.78746|FALSE|TRUE|TRUE|TRUE
5649222|Virgin Hotels Dallas|Dallas, TX| 472|32.79695| -96.82188|FALSE|TRUE|TRUE|TRUE
5649222|Extended Stay America Suites Dallas Greenville Avenue|Dallas, TX|  83|32.86713| -96.76684|TRUE|TRUE|FALSE|TRUE
5649222|Americas Best Value Inn Addison Dallas|Dallas, TX|  85|32.95453| -96.84653|TRUE|FALSE|FALSE|TRUE
5649222|Tropicana Inn and Suites|Dallas, TX|  75|32.86990| -96.91933|TRUE|FALSE|FALSE|TRUE
5649222|Quality Inn & Suites Dallas - Cityplace|Dallas, TX| 100|32.81461| -96.78887|FALSE|TRUE|FALSE|TRUE
5649222|Hilton Garden Inn Dallas Central Expy North Park Area, TX|Dallas, TX| 129|32.88662| -96.76885|FALSE|TRUE|TRUE|TRUE
5649222|Wingate by Wyndham Dallas Love Field|Dallas, TX| 126|32.82983| -96.87268|FALSE|FALSE|TRUE|TRUE
5649222|Tru by Hilton Dallas Downtown Market Center|Dallas, TX| 134|32.79933| -96.82148|FALSE|TRUE|TRUE|TRUE
5649222|SpringHill Suites by Marriott Dallas Central Expressway|Dallas, TX| 129|32.88503| -96.77089|FALSE|TRUE|TRUE|TRUE
5649222|Studio 6 Dallas, TX|Dallas, TX|  85|32.85811| -96.88676|TRUE|FALSE|FALSE|TRUE
5649222|MainStay Suites Addison-Dallas|Dallas, TX|  71|32.95651| -96.82929|TRUE|FALSE|FALSE|TRUE
5649222|Quality Suites Addison - Dallas|Dallas, TX|  81|32.95594| -96.83445|TRUE|FALSE|FALSE|TRUE
5649222|Arya Inn & Suites Farmers Branch|Dallas, TX|  75|32.83452| -96.99184|TRUE|FALSE|FALSE|TRUE
5649222|The Addison Hotel|Dallas, TX|  85|32.95252| -96.82913|TRUE|FALSE|FALSE|TRUE
5649222|SpringHill Suites Dallas Downtown / West End|Dallas, TX| 137|32.78278| -96.80662|FALSE|FALSE|TRUE|TRUE
5649222|Studio 6 Suites - Dallas, TX - Downtown|Dallas, TX|  80|32.79831| -96.82576|TRUE|TRUE|FALSE|TRUE
5649222|Home2 Suites by Hilton Dallas North Park|Dallas, TX| 114|32.89103| -96.76675|FALSE|TRUE|FALSE|TRUE
5649222|Dallas Marriott Suites Medical/Market Center|Dallas, TX| 147|32.80493| -96.83867|FALSE|FALSE|TRUE|TRUE
5649222|Super 8 by Wyndham Garland North Dallas Area|Dallas, TX|  53|32.87509| -96.68181|TRUE|FALSE|FALSE|TRUE
5649222|Hawthorn Suites by Wyndham Richardson|Dallas, TX|  69|32.97404| -96.72110|TRUE|FALSE|FALSE|TRUE
5649265|Houston Marriott Medical Center/Museum District|Houston, TX| 159|29.71005| -95.40087|FALSE|FALSE|TRUE|TRUE
5649265|The Westin Houston Medical Center|Houston, TX| 177|29.70970| -95.40158|FALSE|FALSE|TRUE|TRUE
5649265|La Colombe d'Or Hotel|Houston, TX| 477|29.74164| -95.39162|FALSE|TRUE|TRUE|TRUE
5649265|Romana Hotel|Houston, TX|  70|29.71082| -95.50405|TRUE|FALSE|FALSE|TRUE
5649265|SureStay Plus Hotel by Best Western Houston Medical Center|Houston, TX| 121|29.70827| -95.40412|FALSE|FALSE|TRUE|TRUE
5649265|InterContinental Houston Medical Center, an IHG Hotel|Houston, TX| 172|29.70753| -95.40466|FALSE|FALSE|TRUE|TRUE
5649265|Hilton Garden Inn Houston Medical Center, TX|Houston, TX| 149|29.70455| -95.38559|FALSE|TRUE|TRUE|TRUE
5649265|Quality Inn|Houston, TX|  66|29.76043| -95.36980|TRUE|TRUE|FALSE|TRUE
5649265|Travelodge by Wyndham Houston Hobby Airport|Houston, TX|  61|29.65237| -95.26050|TRUE|FALSE|FALSE|TRUE
5649265|Howard Johnson by Wyndham Houston|Houston, TX|  63|29.77823| -95.40776|TRUE|FALSE|FALSE|TRUE
5649265|OYO Hotel Houston I-69 & I-610|Houston, TX|  66|29.76043| -95.36980|TRUE|TRUE|FALSE|TRUE
5649265|MainStay Suites Texas Medical Center/Reliant Park|Houston, TX|  95|29.69987| -95.37829|FALSE|TRUE|FALSE|TRUE
5649265|Aloft Houston Downtown|Houston, TX| 139|29.75753| -95.36357|FALSE|TRUE|TRUE|TRUE
5649265|Days Inn by Wyndham Houston East|Houston, TX|  75|29.77441| -95.23874|TRUE|FALSE|FALSE|TRUE
5649265|Marriott Marquis Houston|Houston, TX| 293|29.75437| -95.35763|FALSE|TRUE|TRUE|TRUE
5649265|Express Inn Hobby|Houston, TX|  71|29.65164| -95.25715|TRUE|FALSE|FALSE|TRUE
5649265|AC Hotel by Marriott Houston Downtown|Houston, TX| 152|29.75840| -95.36332|FALSE|TRUE|TRUE|TRUE
5649265|Rodeway Inn|Houston, TX|  60|29.81487| -95.46101|TRUE|FALSE|FALSE|TRUE
5649265|Baymont by Wyndham Houston Hobby Airport|Houston, TX|  69|29.63061| -95.23389|TRUE|FALSE|FALSE|TRUE
5649265|Hyatt Place Houston Downtown|Houston, TX| 181|29.75883| -95.36142|FALSE|TRUE|TRUE|TRUE
5649265|Rest Up Inn|Houston, TX|  61|29.67593| -95.42754|TRUE|FALSE|FALSE|TRUE
5649265|Days Inn & Suites by Wyndham Downtown/University of Houston|Houston, TX|  93|29.71069| -95.31080|FALSE|TRUE|FALSE|TRUE
5655684|Holiday Inn Express Cleveland Downtown, an IHG Hotel|Cleveland, OH| 233|41.50039| -81.68879|FALSE|TRUE|TRUE|TRUE
5655684|La Quinta Inn by Wyndham Cleveland Independence|Cleveland, OH| 105|41.39373| -81.64880|TRUE|FALSE|FALSE|TRUE
5655684|Hyatt Regency Cleveland At The Arcade|Cleveland, OH| 239|41.50076| -81.69075|FALSE|TRUE|TRUE|TRUE
5655684|Hilton Garden Inn Cleveland Downtown|Cleveland, OH| 183|41.49617| -81.68131|FALSE|TRUE|FALSE|TRUE
5655684|Metropolitan at The 9, Autograph Collection|Cleveland, OH| 278|41.49978| -81.68605|FALSE|TRUE|TRUE|TRUE
5655684|Renaissance Cleveland Hotel|Cleveland, OH| 199|41.49856| -81.69471|FALSE|TRUE|FALSE|TRUE
5655684|Travelodge by Wyndham Cleveland Airport|Cleveland, OH|  71|41.41807| -81.79263|TRUE|FALSE|FALSE|TRUE
5655684|Days Inn by Wyndham Cleveland Lakewood|Cleveland, OH|  87|41.48959| -81.77313|TRUE|FALSE|FALSE|TRUE
5655684|Crowne Plaza Cleveland at Playhouse Square, an IHG Hotel|Cleveland, OH| 206|41.50049| -81.68329|FALSE|TRUE|FALSE|TRUE
5655684|Hampton Inn Cleveland-Downtown|Cleveland, OH| 194|41.50249| -81.68908|FALSE|TRUE|FALSE|TRUE
5655684|InterContinental Cleveland, an IHG Hotel|Cleveland, OH| 311|41.50173| -81.61939|FALSE|FALSE|TRUE|TRUE
5655684|Residence Inn By Marriott Cleveland Downtown|Cleveland, OH| 242|41.49871| -81.68902|FALSE|TRUE|TRUE|TRUE
5655684|DoubleTree by Hilton Cleveland - Independence|Cleveland, OH| 109|41.39331| -81.65011|TRUE|FALSE|FALSE|TRUE
5655684|Hilton Cleveland Downtown|Cleveland, OH| 228|41.50279| -81.69562|FALSE|FALSE|TRUE|TRUE
5655684|Extended Stay America Premier Suites - Cleveland - Independence|Cleveland, OH| 110|41.40293| -81.65252|TRUE|FALSE|FALSE|TRUE
5655684|Comfort Inn|Cleveland, OH| 106|41.50092| -81.67835|TRUE|FALSE|FALSE|TRUE
5655684|Extended Stay America Suites Cleveland Brooklyn|Cleveland, OH| 105|41.42483| -81.75763|TRUE|FALSE|FALSE|TRUE
5655684|InterContinental Suites Hotel Cleveland, an IHG Hotel|Cleveland, OH| 222|41.50306| -81.62491|FALSE|FALSE|TRUE|TRUE
5655684|Hotel Indigo Cleveland Downtown, an IHG Hotel|Cleveland, OH| 241|41.49820| -81.68767|FALSE|TRUE|TRUE|TRUE
5655684|Travelodge by Wyndham Cleveland Lakewood|Cleveland, OH|  87|41.49014| -81.77088|TRUE|FALSE|FALSE|TRUE
5655684|Drury Plaza Hotel Cleveland Downtown|Cleveland, OH| 233|41.50221| -81.69202|FALSE|FALSE|TRUE|TRUE
5655684|Economy Inn North Randall|Cleveland, OH|  90|41.42920| -81.52489|TRUE|FALSE|FALSE|TRUE
5655684|Kimpton Schofield Hotel, an IHG Hotel|Cleveland, OH| 284|41.49961| -81.68674|FALSE|TRUE|TRUE|TRUE
5655684|Red Roof Inn Cleveland - Independence|Cleveland, OH|  95|41.39458| -81.64999|TRUE|FALSE|FALSE|TRUE
5657026|Courtyard by Marriott Buffalo Amherst/University|Buffalo, NY| 134|42.97970| -78.78195|FALSE|TRUE|FALSE|TRUE
5657026|La Quinta Inn & Suites by Wyndham Buffalo Amherst|Buffalo, NY| 163|43.00486| -78.81757|FALSE|TRUE|FALSE|TRUE
5657026|Comfort Inn|Buffalo, NY|  82|42.88645| -78.87837|TRUE|FALSE|FALSE|TRUE
5657026|CenterWay Hotel Tonawanda|Buffalo, NY|  80|42.99662| -78.86616|TRUE|FALSE|FALSE|TRUE
5657026|Holiday Inn Express Lockport, an IHG Hotel|Buffalo, NY| 117|43.09230| -78.69771|TRUE|FALSE|FALSE|TRUE
5657026|Buffalo Marriott at LECOM HARBORCENTER|Buffalo, NY| 502|42.87687| -78.87692|FALSE|FALSE|TRUE|TRUE
5657026|Hampton Inn Lockport - Buffalo|Buffalo, NY| 125|43.12968| -78.69752|TRUE|FALSE|FALSE|TRUE
5657026|Suburban Studios Buffalo Airport|Buffalo, NY| 105|42.93034| -78.72999|TRUE|FALSE|FALSE|TRUE
5657026|Hilton Garden Inn Buffalo Downtown|Buffalo, NY| 397|42.88618| -78.87383|FALSE|FALSE|TRUE|TRUE
5657026|Fairbridge Inn Express Buffalo Airport Williamsville|Buffalo, NY|  67|42.96395| -78.73781|TRUE|FALSE|FALSE|TRUE
5657026|Home2 Suites by Hilton Amherst Buffalo|Buffalo, NY| 158|43.00185| -78.82132|FALSE|TRUE|FALSE|TRUE
5657026|Reikart House, Buffalo, a Tribute Portfolio Hotel|Buffalo, NY| 194|42.95985| -78.77040|FALSE|FALSE|TRUE|TRUE
5657026|Staybridge Suites Buffalo-Amherst, an IHG Hotel|Buffalo, NY| 192|42.99700| -78.80148|FALSE|TRUE|TRUE|TRUE
5657026|Hyatt Place Buffalo/Amherst|Buffalo, NY| 192|42.96078| -78.76965|FALSE|FALSE|TRUE|TRUE
5657026|Sleep Inn|Buffalo, NY| 131|43.00568| -78.81907|FALSE|TRUE|FALSE|TRUE
5657026|DoubleTree by Hilton Hotel Buffalo - Amherst|Buffalo, NY| 118|42.98985| -78.79527|TRUE|TRUE|FALSE|TRUE
5657026|Hampton Inn Buffalo - Amherst, NY|Buffalo, NY| 146|42.99418| -78.78527|FALSE|TRUE|FALSE|TRUE
5657026|Courtyard Buffalo Downtown / Canalside|Buffalo, NY| 398|42.87817| -78.87631|FALSE|FALSE|TRUE|TRUE
5657026|Quality Inn Airport|Buffalo, NY|  96|42.93040| -78.72998|TRUE|FALSE|FALSE|TRUE
5657026|Residence Inn by Marriott Buffalo Galleria Mall|Buffalo, NY| 369|42.90729| -78.77037|FALSE|FALSE|TRUE|TRUE
5657026|Embassy Suites Buffalo|Buffalo, NY| 359|42.88968| -78.87780|FALSE|FALSE|TRUE|TRUE
5657026|Buffalo Marriott Niagara|Buffalo, NY| 139|42.98858| -78.79294|FALSE|TRUE|FALSE|TRUE
5657026|Fairfield Inn & Suites by Marriott Buffalo Amherst/University|Buffalo, NY| 177|42.99615| -78.80265|FALSE|TRUE|FALSE|TRUE
5657026|Radisson Hotel Niagara Falls-Grand Island|Buffalo, NY| 109|43.02136| -78.89637|TRUE|FALSE|FALSE|TRUE
5657026|M Hotel Buffalo|Buffalo, NY| 127|42.90955| -78.76045|TRUE|FALSE|FALSE|TRUE
5657026|The Mosey Buffalo Williamsville, Tapestry Collection by Hilton|Buffalo, NY| 201|42.95981| -78.75892|FALSE|FALSE|TRUE|TRUE
5657026|The Westin Buffalo|Buffalo, NY| 465|42.89120| -78.87701|FALSE|FALSE|TRUE|TRUE
5657026|Residence Inn by Marriott Buffalo Downtown|Buffalo, NY| 373|42.90112| -78.87365|FALSE|FALSE|TRUE|TRUE
5657026|Comfort Inn University|Buffalo, NY| 140|42.99046| -78.79073|FALSE|TRUE|FALSE|TRUE
5657098|Days Inn by Wyndham Ann Arbor|Ypsilanti, MI|  93|42.25247| -83.68226|TRUE|TRUE|FALSE|TRUE
5657098|Hampton Inn Ann Arbor - North|Ypsilanti, MI| 123|42.30771| -83.69090|FALSE|TRUE|TRUE|TRUE
5657098|The University Inn Ann Arbor|Ypsilanti, MI| 113|42.25855| -83.71223|TRUE|TRUE|FALSE|TRUE
5657098|Graduate Ann Arbor|Ypsilanti, MI| 214|42.28134| -83.74168|FALSE|FALSE|TRUE|TRUE
5657098|Red Roof Inn PLUS+ Ann Arbor - U of Michigan North|Ypsilanti, MI|  84|42.30698| -83.69031|TRUE|TRUE|FALSE|TRUE
5657098|Residence Inn by Marriott Ann Arbor North|Ypsilanti, MI| 454|42.30241| -83.68997|FALSE|TRUE|TRUE|TRUE
5657098|Wyndham Garden Ann Arbor|Ypsilanti, MI| 116|42.28383| -83.78820|TRUE|FALSE|TRUE|TRUE
5657098|The Kensington Hotel|Ypsilanti, MI| 210|42.23887| -83.74120|FALSE|FALSE|TRUE|TRUE
5657098|Sheraton Ann Arbor Hotel|Ypsilanti, MI| 159|42.24075| -83.73570|FALSE|TRUE|TRUE|TRUE
5657098|Hyatt Place Ann Arbor|Ypsilanti, MI| 199|42.24084| -83.73780|FALSE|TRUE|TRUE|TRUE
5657098|Extended Stay America Suites Detroit Ann Arbor Briarwood Mal|Ypsilanti, MI| 116|42.23905| -83.75295|TRUE|FALSE|TRUE|TRUE
5657098|Red Oak Inn Detroit Metro Airport - Belleville|Ypsilanti, MI|  97|42.22122| -83.48623|TRUE|FALSE|FALSE|TRUE
5657098|Baymont by Wyndham Belleville Airport Area|Ypsilanti, MI| 114|42.21786| -83.49044|TRUE|FALSE|FALSE|TRUE
5657098|A Victory Inn & Suites - Ann Arbor|Ypsilanti, MI|  91|42.25429| -83.68708|TRUE|TRUE|FALSE|TRUE
5657098|Ann Arbor Regent Hotel & Suites|Ypsilanti, MI| 165|42.25159| -83.68010|FALSE|TRUE|TRUE|TRUE
5657098|Extended Stay America Suites Detroit Ann Arbor University S|Ypsilanti, MI| 111|42.24124| -83.73200|TRUE|TRUE|FALSE|TRUE
5657098|Hampton Inn Hotel Detroit/Belleville-Airport Area|Ypsilanti, MI| 131|42.22131| -83.49181|FALSE|FALSE|TRUE|TRUE
5657098|Sonesta Simply Suites Detroit Ann Arbor|Ypsilanti, MI| 114|42.24376| -83.75781|TRUE|FALSE|FALSE|TRUE
5657219|Super 8 by Wyndham DeKalb IL|Dekalb, IL|  87|41.90652| -88.77217|TRUE|TRUE|TRUE|TRUE
5657219|Hampton Inn DeKalb, IL|Dekalb, IL| 192|41.92343| -88.77376|TRUE|TRUE|TRUE|TRUE
5657219|Quality Inn Sycamore - DeKalb|Dekalb, IL| 110|41.97909| -88.70965|TRUE|TRUE|TRUE|TRUE
5657219|Home2 Suites by Hilton Dekalb|Dekalb, IL| 211|41.92476| -88.77449|TRUE|TRUE|TRUE|TRUE
5657219|Comfort Inn DeKalb - Adjacent the University|Dekalb, IL| 169|41.93030| -88.77865|TRUE|TRUE|TRUE|TRUE
5657219|Best Western Sycamore Inn|Dekalb, IL| 141|41.96760| -88.71968|TRUE|TRUE|TRUE|TRUE
5657219|Motel 6 Sycamore, IL|Dekalb, IL|  68|42.01662| -88.70929|TRUE|TRUE|TRUE|TRUE
5657243|Best Western Plus Kalamazoo Suites|Kalamazoo, MI| 132|42.26591| -85.65679|FALSE|TRUE|TRUE|TRUE
5657243|Quality Inn I-94 near Wings Stadium|Kalamazoo, MI| 113|42.25268| -85.53169|TRUE|FALSE|FALSE|TRUE
5657243|Delta Hotels by Marriott Kalamazoo Conference Center|Kalamazoo, MI| 150|42.26420| -85.65392|FALSE|TRUE|TRUE|TRUE
5657243|Hampton Inn Kalamazoo|Kalamazoo, MI| 131|42.24447| -85.67647|FALSE|FALSE|TRUE|TRUE
5657243|Clarion Inn I-94 near Expo Center|Kalamazoo, MI|  88|42.26077| -85.53301|TRUE|FALSE|FALSE|TRUE
5657243|Homewood Suites by Hilton Kalamazoo-Portage|Kalamazoo, MI| 164|42.23856| -85.59503|FALSE|FALSE|TRUE|TRUE
5657243|Holiday Inn Kalamazoo West, an IHG Hotel|Kalamazoo, MI| 147|42.30019| -85.66213|FALSE|TRUE|TRUE|TRUE
5657243|Red Roof Inn Kalamazoo East - Expo Center|Kalamazoo, MI|  92|42.26284| -85.53379|TRUE|FALSE|FALSE|TRUE
5657243|Comfort Inn Downtown - University Area|Kalamazoo, MI| 117|42.29078| -85.59348|TRUE|TRUE|FALSE|TRUE
5657243|Econo Lodge|Kalamazoo, MI|  75|42.29171| -85.58723|TRUE|TRUE|FALSE|TRUE
5657243|Radisson Plaza Hotel at Kalamazoo Center|Kalamazoo, MI| 387|42.29217| -85.58396|FALSE|TRUE|TRUE|TRUE
5657243|Baymont by Wyndham Kalamazoo|Kalamazoo, MI|  66|42.26892| -85.65731|TRUE|TRUE|FALSE|TRUE
5657243|Country Inn & Suites by Radisson, Kalamazoo, MI|Kalamazoo, MI| 139|42.24425| -85.55650|FALSE|FALSE|TRUE|TRUE
5657243|Comfort Inn Wings Stadium|Kalamazoo, MI| 115|42.24582| -85.56161|TRUE|FALSE|FALSE|TRUE
5657243|Red Roof Inn Kalamazoo West - Western Michigan U|Kalamazoo, MI|  88|42.27000| -85.65667|TRUE|TRUE|FALSE|TRUE
5657243|Courtyard Kalamazoo Portage|Kalamazoo, MI| 141|42.23886| -85.59367|FALSE|FALSE|TRUE|TRUE
5657243|Fairfield by Marriott Kalamazoo West|Kalamazoo, MI| 108|42.23669| -85.67597|TRUE|FALSE|FALSE|TRUE
5657243|Holiday Inn Express and Suites Kalamazoo West, an IHG Hotel|Kalamazoo, MI| 139|42.30123| -85.66173|FALSE|FALSE|TRUE|TRUE
5657243|Super 8 by Wyndham Kalamazoo|Kalamazoo, MI|  68|42.29440| -85.65922|TRUE|TRUE|FALSE|TRUE
5657243|Hilton Garden Inn Kalamazoo|Kalamazoo, MI| 225|42.29375| -85.58520|FALSE|TRUE|TRUE|TRUE
5658662|Hyatt Place Harrisonburg|Harrisonburg, VA| 161|38.43187| -78.84858|FALSE|TRUE|TRUE|TRUE
5658662|Tru By Hilton Harrisonburg, VA|Harrisonburg, VA| 126|38.40539| -78.90646|FALSE|FALSE|TRUE|TRUE
5658662|Hotel Madison & Shenandoah Conference Ctr|Harrisonburg, VA| 156|38.44197| -78.87288|FALSE|TRUE|TRUE|TRUE
5658662|Ramada by Wyndham Harrisonburg|Harrisonburg, VA|  72|38.40533| -78.90748|TRUE|FALSE|FALSE|TRUE
5658662|Candlewood Suites Harrisonburg, an IHG Hotel|Harrisonburg, VA|  95|38.43780| -78.84386|TRUE|FALSE|FALSE|TRUE
5658662|Residence Inn by Marriott Harrisonburg|Harrisonburg, VA| 190|38.42770| -78.85216|FALSE|TRUE|TRUE|TRUE
5658662|Friendly City Inn Bed & Breakfast|Harrisonburg, VA| 209|38.44824| -78.85961|FALSE|TRUE|TRUE|TRUE
5658662|Clarion Pointe Harrisonburg|Harrisonburg, VA| 101|38.43576| -78.84712|TRUE|FALSE|FALSE|TRUE
5658662|Country Inn & Suites by Radisson, Harrisonburg, VA|Harrisonburg, VA| 135|38.40578| -78.91024|FALSE|FALSE|TRUE|TRUE
5658662|Quality Inn Harrisonburg I-81|Harrisonburg, VA|  86|38.43096| -78.85044|TRUE|TRUE|FALSE|TRUE
5658662|Courtyard by Marriott Harrisonburg|Harrisonburg, VA| 116|38.43115| -78.84800|FALSE|TRUE|FALSE|TRUE
5658662|Sleep Inn & Suites Harrisonburg near University|Harrisonburg, VA|  95|38.43097| -78.84946|TRUE|TRUE|FALSE|TRUE
5658662|Cave Hill Farm Bed & Breakfast|Harrisonburg, VA| 153|38.35951| -78.72174|FALSE|FALSE|TRUE|TRUE
5658662|Microtel Inn & Suites by Wyndham Harrisonburg|Harrisonburg, VA| 100|38.40561| -78.90715|TRUE|FALSE|FALSE|TRUE
5658662|Hampton Inn Harrisonburg - University|Harrisonburg, VA| 104|38.43160| -78.84705|TRUE|FALSE|FALSE|TRUE
5658662|Doubletree by Hilton Harrisonburg|Harrisonburg, VA| 138|38.43698| -78.84791|FALSE|TRUE|TRUE|TRUE
5658662|Comfort Inn & Suites Harrisonburg|Harrisonburg, VA| 114|38.42615| -78.84897|TRUE|FALSE|FALSE|TRUE
5658662|The Village Inn Harrisonburg|Harrisonburg, VA| 113|38.38306| -78.92333|TRUE|FALSE|FALSE|TRUE
5658662|Fairfield Inn & Suites by Marriott Harrisonburg|Harrisonburg, VA| 133|38.42716| -78.85314|FALSE|TRUE|TRUE|TRUE
5658662|Best Western Plus Harrisonburg|Harrisonburg, VA| 122|38.40489| -78.91008|FALSE|FALSE|TRUE|TRUE
5658662|Red Roof Inn Harrisonburg - University Area|Harrisonburg, VA|  93|38.42923| -78.87387|TRUE|TRUE|FALSE|TRUE
5659388|Hampton Inn Statesboro|Statesboro, GA| 133|32.41231| -81.76966|TRUE|TRUE|TRUE|TRUE
5659388|Eagles Nest Inn|Statesboro, GA|  96|32.40812| -81.78250|TRUE|TRUE|TRUE|TRUE
5659388|Holiday Inn Express Statesboro, an IHG Hotel|Statesboro, GA| 230|32.43683| -81.78514|TRUE|TRUE|TRUE|TRUE
5659388|Red Fern Plantation Lodge|Statesboro, GA| 190|32.49524| -81.75257|TRUE|TRUE|TRUE|TRUE
5659388|Holiday Inn Statesboro-University Area, an IHG Hotel|Statesboro, GA| 181|32.42831| -81.75616|TRUE|TRUE|TRUE|TRUE
5659388|Super 8 by Wyndham Statesboro|Statesboro, GA|  65|32.42715| -81.78889|TRUE|TRUE|TRUE|TRUE
5659388|Home2 Suites by Hilton Statesboro|Statesboro, GA| 142|32.40643| -81.77129|TRUE|TRUE|TRUE|TRUE
5659388|Springhill Suites Statesboro University Area|Statesboro, GA| 154|32.40590| -81.76345|TRUE|TRUE|TRUE|TRUE
5659420|Days Inn by Wyndham Huntington|Huntington, WV|  92|38.41360| -82.34256|TRUE|TRUE|TRUE|TRUE
5659420|BEST WESTERN Huntington Mall Inn|Huntington, WV|  76|38.41678| -82.25845|TRUE|FALSE|TRUE|TRUE
5659420|Hampton Inn Huntington University Area|Huntington, WV| 311|38.39466| -82.41703|FALSE|TRUE|TRUE|TRUE
