id|name|city|price|lat|long|p|t|l|fresh
5655669|Extended Stay America Suites Fort Lauderdale Davie|Sunrise, FL| 204|26.20169| -80.15288|TRUE|FALSE|FALSE|TRUE
5655669|HomeTowne Studios by Red Roof Fort Lauderdale|Sunrise, FL| 113|26.18739| -80.18639|TRUE|FALSE|FALSE|TRUE
5655669|DoubleTree by Hilton Hotel Sunrise - Sawgrass Mills|Sunrise, FL| 324|26.14457| -80.32544|FALSE|TRUE|TRUE|TRUE
5655669|WoodSpring Suites Tamarac|Sunrise, FL| 198|26.19447| -80.29301|TRUE|TRUE|FALSE|TRUE
5655669|Plaza Hotel Fort Lauderdale|Sunrise, FL| 159|26.18931| -80.20270|TRUE|FALSE|FALSE|TRUE
5655669|Extended Stay America Suites Fort Lauderdale Plantation|Sunrise, FL| 220|26.20169| -80.15288|TRUE|FALSE|FALSE|TRUE
5655669|Courtyard by Marriott Fort Lauderdale Weston|Sunrise, FL| 293|26.09226| -80.36518|FALSE|TRUE|TRUE|TRUE
5655669|Hampton Inn Ft. Lauderdale-West/Pembroke Pines|Sunrise, FL| 191|26.02546| -80.34768|TRUE|FALSE|FALSE|TRUE
5655669|Renaissance Fort Lauderdale West Hotel|Sunrise, FL| 273|26.10388| -80.26272|FALSE|TRUE|TRUE|TRUE
5655669|Sheraton Suites Fort Lauderdale Plantation|Sunrise, FL| 274|26.12410| -80.25664|FALSE|TRUE|TRUE|TRUE
5655669|La Quinta Inn & Suites by Wyndham Sunrise|Sunrise, FL| 236|26.12339| -80.33189|FALSE|TRUE|TRUE|TRUE
5655669|La Quinta Inn by Wyndham Ft. Lauderdale Tamarac East|Sunrise, FL| 187|26.18564| -80.19984|TRUE|FALSE|FALSE|TRUE
5655669|AC Hotel Fort Lauderdale Sawgrass Mills / Sunrise|Sunrise, FL| 307|26.15016| -80.31874|FALSE|TRUE|TRUE|TRUE
5655669|Holiday Inn Express Pembroke Pines-Sheridan Street, an IHG Hotel|Sunrise, FL| 182|26.02784| -80.34487|TRUE|FALSE|FALSE|TRUE
5655669|La Quinta Inn & Suites by Wyndham Sunrise Sawgrass Mills|Sunrise, FL| 225|26.12446| -80.33143|TRUE|TRUE|TRUE|TRUE
5655669|Hyatt Place Ft. Lauderdale/Plantation|Sunrise, FL| 271|26.11894| -80.26284|FALSE|TRUE|TRUE|TRUE
5655669|Staybridge Suites Fort Lauderdale Airport - West, an IHG Hotel|Sunrise, FL| 353|26.06453| -80.21240|FALSE|FALSE|TRUE|TRUE
5655669|Extended Stay America Suites Fort Lauderdale Tamarac|Sunrise, FL| 204|26.20169| -80.15288|TRUE|FALSE|FALSE|TRUE
5655669|Residence Inn By Marriott Fort Lauderdale Plantation|Sunrise, FL| 536|26.12256| -80.25156|FALSE|TRUE|TRUE|TRUE
5655671|Courtyard by Marriott Fort Lauderdale Weston|Sunrise, FL| 293|26.09226| -80.36518|FALSE|TRUE|TRUE|TRUE
5655671|Renaissance Fort Lauderdale West Hotel|Sunrise, FL| 273|26.10388| -80.26272|FALSE|TRUE|TRUE|TRUE
5655671|Extended Stay America Suites Fort Lauderdale Plantation|Sunrise, FL| 220|26.20169| -80.15288|TRUE|FALSE|TRUE|TRUE
5655671|WoodSpring Suites Tamarac|Sunrise, FL| 198|26.19447| -80.29301|TRUE|TRUE|FALSE|TRUE
5655671|HomeTowne Studios by Red Roof Fort Lauderdale|Sunrise, FL| 113|26.18739| -80.18639|TRUE|FALSE|FALSE|TRUE
5655671|DoubleTree by Hilton Hotel Sunrise - Sawgrass Mills|Sunrise, FL| 324|26.14457| -80.32544|FALSE|TRUE|TRUE|TRUE
5655671|La Quinta Inn by Wyndham Ft. Lauderdale Tamarac East|Sunrise, FL| 187|26.18564| -80.19984|TRUE|FALSE|FALSE|TRUE
5655671|La Quinta Inn & Suites by Wyndham Sunrise|Sunrise, FL| 236|26.12339| -80.33189|FALSE|TRUE|TRUE|TRUE
5655671|La Quinta Inn & Suites by Wyndham Sunrise Sawgrass Mills|Sunrise, FL| 225|26.12446| -80.33143|TRUE|TRUE|TRUE|TRUE
5655671|Extended Stay America Suites Fort Lauderdale Davie|Sunrise, FL| 204|26.20169| -80.15288|TRUE|FALSE|FALSE|TRUE
5655671|Holiday Inn Express Pembroke Pines-Sheridan Street, an IHG Hotel|Sunrise, FL| 182|26.02784| -80.34487|TRUE|FALSE|FALSE|TRUE
5655671|Hampton Inn Ft. Lauderdale-West/Pembroke Pines|Sunrise, FL| 191|26.02546| -80.34768|TRUE|FALSE|FALSE|TRUE
5655671|Plaza Hotel Fort Lauderdale|Sunrise, FL| 159|26.18931| -80.20270|TRUE|TRUE|FALSE|TRUE
5655671|Hyatt Place Ft. Lauderdale/Plantation|Sunrise, FL| 271|26.11894| -80.26284|FALSE|TRUE|TRUE|TRUE
5655671|Extended Stay America Suites Fort Lauderdale Tamarac|Sunrise, FL| 204|26.20169| -80.15288|TRUE|FALSE|FALSE|TRUE
5655671|AC Hotel Fort Lauderdale Sawgrass Mills / Sunrise|Sunrise, FL| 307|26.15016| -80.31874|FALSE|TRUE|TRUE|TRUE
5655671|Sheraton Suites Fort Lauderdale Plantation|Sunrise, FL| 274|26.12410| -80.25664|FALSE|TRUE|TRUE|TRUE
5655671|Staybridge Suites Fort Lauderdale Airport - West, an IHG Hotel|Sunrise, FL| 353|26.06453| -80.21240|FALSE|FALSE|TRUE|TRUE
5655684|Hilton Garden Inn Cleveland Downtown|Cleveland, OH| 239|41.49617| -81.68131|FALSE|TRUE|FALSE|TRUE
5655684|Holiday Inn Express Cleveland Downtown, an IHG Hotel|Cleveland, OH| 281|41.50039| -81.68879|FALSE|TRUE|TRUE|TRUE
5655684|Hampton Inn Cleveland-Downtown|Cleveland, OH| 244|41.50249| -81.68908|FALSE|TRUE|FALSE|TRUE
5655684|Travelodge by Wyndham Cleveland Lakewood|Cleveland, OH|  77|41.49014| -81.77088|TRUE|FALSE|FALSE|TRUE
5655684|Crowne Plaza Cleveland at Playhouse Square, an IHG Hotel|Cleveland, OH| 242|41.50049| -81.68329|FALSE|TRUE|FALSE|TRUE
5655684|La Quinta Inn by Wyndham Cleveland Independence|Cleveland, OH| 105|41.39373| -81.64880|TRUE|FALSE|FALSE|TRUE
5655684|Economy Inn North Randall|Cleveland, OH|  90|41.42920| -81.52489|TRUE|FALSE|FALSE|TRUE
5655684|Travelodge by Wyndham Cleveland Airport|Cleveland, OH|  76|41.41807| -81.79263|TRUE|FALSE|FALSE|TRUE
5655684|Extended Stay America Suites Cleveland Brooklyn|Cleveland, OH| 116|41.42483| -81.75763|TRUE|FALSE|FALSE|TRUE
5655684|Hilton Cleveland Downtown|Cleveland, OH| 306|41.50279| -81.69562|FALSE|FALSE|TRUE|TRUE
5655684|The Ritz-Carlton, Cleveland|Cleveland, OH| 535|41.49726| -81.69469|FALSE|TRUE|TRUE|TRUE
5655684|Hyatt Regency Cleveland At The Arcade|Cleveland, OH| 306|41.50076| -81.69075|FALSE|TRUE|TRUE|TRUE
5655684|Residence Inn By Marriott Cleveland Downtown|Cleveland, OH| 274|41.49871| -81.68902|FALSE|TRUE|TRUE|TRUE
5655684|Extended Stay America Premier Suites - Cleveland - Independence|Cleveland, OH| 110|41.40293| -81.65252|TRUE|FALSE|FALSE|TRUE
5655684|The Westin Cleveland Downtown|Cleveland, OH| 253|41.50373| -81.69141|FALSE|FALSE|TRUE|TRUE
5655684|Drury Plaza Hotel Cleveland Downtown|Cleveland, OH| 254|41.50221| -81.69202|FALSE|FALSE|TRUE|TRUE
5655684|Hotel Indigo Cleveland Downtown, an IHG Hotel|Cleveland, OH| 246|41.49820| -81.68767|FALSE|TRUE|TRUE|TRUE
5655684|Extended Stay America Select Suites - Cleveland - Airport|Cleveland, OH|  95|41.42529| -81.84888|TRUE|FALSE|FALSE|TRUE
5655684|Renaissance Cleveland Hotel|Cleveland, OH| 316|41.49856| -81.69471|FALSE|TRUE|TRUE|TRUE
5655684|Kimpton Schofield Hotel, an IHG Hotel|Cleveland, OH| 210|41.49961| -81.68674|FALSE|TRUE|FALSE|TRUE
5655684|Days Inn by Wyndham Cleveland Lakewood|Cleveland, OH|  77|41.48959| -81.77313|TRUE|FALSE|FALSE|TRUE
5655684|Red Roof Inn Cleveland - Independence|Cleveland, OH|  79|41.39458| -81.64999|TRUE|FALSE|FALSE|TRUE
5655684|Cleveland Marriott Downtown at Key Tower|Cleveland, OH| 269|41.50133| -81.69440|FALSE|FALSE|TRUE|TRUE
5655684|Comfort Inn|Cleveland, OH| 100|41.50092| -81.67835|TRUE|FALSE|FALSE|TRUE
5685266|Sonesta ES Suites New Orleans|New Orleans, LA| 236|29.95409| -90.07462|FALSE|TRUE|FALSE|TRUE
5685266|The Saint Hotel, New Orleans, French Quarter|New Orleans, LA| 375|29.95506| -90.07139|FALSE|TRUE|FALSE|TRUE
5685266|Ace Hotel New Orleans|New Orleans, LA| 307|29.94840| -90.07217|FALSE|TRUE|FALSE|TRUE
5685266|Harrahs New Orleans Casino & Hotel|New Orleans, LA| 618|29.94793| -90.06553|FALSE|FALSE|TRUE|TRUE
5685266|The Royal Sonesta New Orleans|New Orleans, LA| 462|29.95562| -90.06812|FALSE|FALSE|TRUE|TRUE
5685266|Virgin Hotels New Orleans|New Orleans, LA| 371|29.94894| -90.07313|FALSE|TRUE|FALSE|TRUE
5685266|Lucky Inn|New Orleans, LA| 154|29.96603| -90.08545|TRUE|FALSE|FALSE|TRUE
5685266|Comfort Inn Marrero - New Orleans West|New Orleans, LA| 142|29.89219| -90.12282|TRUE|FALSE|FALSE|TRUE
5685266|The Pontchartrain Hotel|New Orleans, LA| 450|29.93499| -90.07966|FALSE|FALSE|TRUE|TRUE
5685266|Hyatt Regency New Orleans|New Orleans, LA| 456|29.94955| -90.07727|FALSE|TRUE|TRUE|TRUE
5685266|The Ritz-Carlton, New Orleans|New Orleans, LA| 640|29.95496| -90.07097|FALSE|FALSE|TRUE|TRUE
5685266|Bourbon Orleans Hotel|New Orleans, LA| 553|29.95873| -90.06472|FALSE|FALSE|TRUE|TRUE
5685266|Quality Inn New Orleans I-10 East|New Orleans, LA|  92|30.03715| -89.97409|TRUE|FALSE|FALSE|TRUE
5685266|Ramada by Wyndham Metairie New Orleans Airport|New Orleans, LA| 170|29.99609| -90.15893|TRUE|FALSE|FALSE|TRUE
5685266|Suburban Studios|New Orleans, LA| 124|29.90910| -90.20646|TRUE|FALSE|FALSE|TRUE
5685266|Federal City Inn & Suites|New Orleans, LA| 143|29.94753| -90.03280|TRUE|FALSE|FALSE|TRUE
5685266|Holiday Inn Express Harvey-Marrero, an IHG Hotel|New Orleans, LA| 176|29.87813| -90.04906|TRUE|FALSE|FALSE|TRUE
5685266|Hyatt Centric French Quarter|New Orleans, LA| 430|29.95422| -90.07019|FALSE|FALSE|TRUE|TRUE
5685266|NOPSI Hotel, New Orleans|New Orleans, LA| 385|29.95205| -90.07265|FALSE|TRUE|FALSE|TRUE
5685266|The Windsor Court|New Orleans, LA| 579|29.94984| -90.06644|FALSE|FALSE|TRUE|TRUE
5685266|Four Seasons Hotel New Orleans|New Orleans, LA| 676|29.94888| -90.06389|FALSE|FALSE|TRUE|TRUE
5685266|Extended Stay America Suites New Orleans Metairie|New Orleans, LA| 167|29.98409| -90.15285|TRUE|FALSE|FALSE|TRUE
5685266|La Quinta Inn by Wyndham New Orleans Veterans / Metairie|New Orleans, LA| 122|30.00483| -90.20567|TRUE|FALSE|FALSE|TRUE
5685266|Holiday Inn New Orleans - Downtown Superdome, an IHG Hotel|New Orleans, LA| 274|29.95299| -90.07497|FALSE|TRUE|FALSE|TRUE
5685266|Le Pavillon New Orleans|New Orleans, LA| 373|29.95052| -90.07280|FALSE|TRUE|FALSE|TRUE
5685266|Aloft New Orleans Downtown, a Marriott Hotel|New Orleans, LA| 267|29.95266| -90.07246|FALSE|TRUE|FALSE|TRUE
5685266|Riverside Hotel|New Orleans, LA| 122|29.85646| -89.98640|TRUE|FALSE|FALSE|TRUE
5685266|The Roosevelt New Orleans, A Waldorf Astoria Hotel|New Orleans, LA| 439|29.95434| -90.07230|FALSE|TRUE|TRUE|TRUE
5691889|Antonio Hotel|Inglewood, CA|  86|33.96168|-118.35313|TRUE|TRUE|FALSE|TRUE
5691889|Four Seasons Los Angeles at Beverly Hills|Inglewood, CA|1063|34.07305|-118.38934|FALSE|FALSE|TRUE|TRUE
5691889|Starlight Inn La Brea|Inglewood, CA|  88|34.04133|-118.34668|TRUE|FALSE|FALSE|TRUE
5691889|Satellite Motel|Inglewood, CA|  91|33.92324|-118.28229|TRUE|FALSE|FALSE|TRUE
5691889|L'Ermitage Beverly Hills|Inglewood, CA| 804|34.07254|-118.39540|FALSE|FALSE|TRUE|TRUE
5691889|Wingate by Wyndham Los Angeles International Airport LAX|Inglewood, CA| 118|33.94273|-118.36961|FALSE|TRUE|FALSE|TRUE
5691889|The Ritz-Carlton, Los Angeles|Inglewood, CA| 854|34.04526|-118.26662|FALSE|FALSE|TRUE|TRUE
5691889|4 Star Motel|Inglewood, CA|  91|33.97261|-118.28232|TRUE|FALSE|FALSE|TRUE
5691889|H3 Inn & Suites - LAX Airport - Los Angeles|Inglewood, CA| 110|33.94569|-118.36044|FALSE|TRUE|FALSE|TRUE
5691889|The Maybourne Beverly Hills|Inglewood, CA|1213|34.06797|-118.39875|FALSE|FALSE|TRUE|TRUE
5691889|Pendry West Hollywood|Inglewood, CA| 626|34.09440|-118.37379|FALSE|FALSE|TRUE|TRUE
5691889|Royal Century Hotel|Inglewood, CA|  92|33.94491|-118.35159|FALSE|TRUE|FALSE|TRUE
5691889|The Peninsula Beverly Hills|Inglewood, CA|1099|34.06576|-118.41072|FALSE|FALSE|TRUE|TRUE
5691889|The West Hollywood EDITION|Inglewood, CA| 722|34.09036|-118.38912|FALSE|FALSE|TRUE|TRUE
5691889|LAX Stadium Inn - El Segundo/Inglewood|Inglewood, CA|  86|33.93112|-118.35535|TRUE|TRUE|FALSE|TRUE
5691889|Beverly Wilshire - Beverly Hills, A Four Seasons Hotel|Inglewood, CA|1122|34.06674|-118.40077|FALSE|FALSE|TRUE|TRUE
5691889|La Quinta Inn & Suites by Wyndham Inglewood|Inglewood, CA| 117|33.93125|-118.34332|FALSE|TRUE|FALSE|TRUE
5691889|Quality Inn & Suites Los Angeles Airport - LAX|Inglewood, CA| 107|33.94493|-118.36455|FALSE|TRUE|FALSE|TRUE
5691889|Crenshaw Inn Motel|Inglewood, CA|  93|33.98272|-118.33132|FALSE|TRUE|FALSE|TRUE
5691889|Redondo Beach Inn|Inglewood, CA|  83|33.88725|-118.31193|TRUE|FALSE|FALSE|TRUE
5691889|Waldorf Astoria Beverly Hills|Inglewood, CA|1154|34.06668|-118.41158|FALSE|FALSE|TRUE|TRUE
5691889|Central Inn Motel on 41 Street|Inglewood, CA|  86|34.00935|-118.25629|TRUE|FALSE|FALSE|TRUE
5691889|Holiday Inn Los Angeles - LAX Airport, an IHG Hotel|Inglewood, CA| 146|33.94620|-118.37092|FALSE|TRUE|FALSE|TRUE
5691889|Hollywood Inn Suites Hotel|Inglewood, CA|  87|33.91615|-118.29309|TRUE|FALSE|FALSE|TRUE
5691889|Comet Motel|Inglewood, CA|  91|33.93788|-118.26499|TRUE|FALSE|FALSE|TRUE
5691889|Central Inn Motel|Inglewood, CA|  87|34.00935|-118.25629|TRUE|FALSE|FALSE|TRUE
5691889|The Beverly Hills Hotel|Inglewood, CA|1571|33.96168|-118.35313|FALSE|TRUE|TRUE|TRUE
5695225|Holiday Inn Miami West - Airport Area, an IHG Hotel|Miami Gardens, FL| 154|25.86764| -80.32409|TRUE|FALSE|FALSE|TRUE
5695225|The Oasis Tower at Seminole Hard Rock|Miami Gardens, FL| 645|26.05187| -80.21052|FALSE|FALSE|TRUE|TRUE
5695225|Stadium Hotel|Miami Gardens, FL| 178|25.95790| -80.23885|TRUE|TRUE|FALSE|TRUE
5695225|Hilton Garden Inn Ft. Lauderdale SW/Miramar|Miami Gardens, FL| 162|25.98293| -80.34113|TRUE|TRUE|FALSE|TRUE
5695225|Red Carpet Inn Airport/Cruiseport|Miami Gardens, FL| 175|26.08635| -80.17466|TRUE|FALSE|FALSE|TRUE
5695225|Grand Beach Hotel Surfside|Miami Gardens, FL| 709|25.88445| -80.12222|FALSE|FALSE|TRUE|TRUE
5695225|Trump International Beach Resort|Miami Gardens, FL| 833|25.94320| -80.12061|FALSE|FALSE|TRUE|TRUE
5695225|The Clevelander|Miami Gardens, FL| 180|25.78078| -80.13098|TRUE|FALSE|FALSE|TRUE
5695225|The St. Regis Bal Harbour Resort|Miami Gardens, FL|1576|25.88909| -80.12241|FALSE|FALSE|TRUE|TRUE
5695225|Courtyard by Marriott Aventura Mall|Miami Gardens, FL| 270|25.95319| -80.14411|FALSE|TRUE|FALSE|TRUE
5695225|Diplomat Beach Resort Hollywood, Curio Collection by Hilton|Miami Gardens, FL| 591|25.99191| -80.11828|FALSE|FALSE|TRUE|TRUE
5695225|Villa Europa Hotel|Miami Gardens, FL| 139|26.02341| -80.11549|TRUE|FALSE|FALSE|TRUE
5695225|Hollywood Beach Hotels|Miami Gardens, FL| 187|25.94204| -80.24560|FALSE|TRUE|FALSE|TRUE
5695225|Baltic Boutique|Miami Gardens, FL| 156|25.94204| -80.24560|TRUE|TRUE|FALSE|TRUE
5695225|Miami Lakes Hotel|Miami Gardens, FL| 198|25.91206| -80.31126|FALSE|TRUE|FALSE|TRUE
5695225|Greniers|Miami Gardens, FL| 148|26.02505| -80.11578|TRUE|FALSE|FALSE|TRUE
5695225|Four Seasons Hotel at The Surf Club|Miami Gardens, FL|2653|25.87772| -80.12142|FALSE|FALSE|TRUE|TRUE
5695225|Grand Palms Spa & Golf Resort|Miami Gardens, FL| 134|26.00016| -80.35079|TRUE|FALSE|FALSE|TRUE
5695225|The Harrison Hotel Downtown Hollywood|Miami Gardens, FL| 154|26.01073| -80.14622|TRUE|FALSE|FALSE|TRUE
5695225|Margaritaville Hollywood Beach Resort|Miami Gardens, FL| 603|26.01878| -80.11674|FALSE|FALSE|TRUE|TRUE
5695225|Miami Gardens Inn & Suites|Miami Gardens, FL| 256|25.94204| -80.24560|FALSE|TRUE|FALSE|TRUE
5695225|SpringHill Suites by Marriott Fort Lauderdale Miramar|Miami Gardens, FL| 214|25.97424| -80.29263|FALSE|TRUE|FALSE|TRUE
5695225|The Ritz-Carlton Bal Harbour, Miami|Miami Gardens, FL|1589|25.89900| -80.12330|FALSE|FALSE|TRUE|TRUE
5695225|Seminole Hard Rock Hotel and Casino|Miami Gardens, FL| 610|26.05082| -80.21155|FALSE|TRUE|TRUE|TRUE
5695225|Private Ocean Condos at Marenas Beach|Miami Gardens, FL|1712|25.94916| -80.11988|FALSE|FALSE|TRUE|TRUE
5695225|Travelodge by Wyndham Miami Biscayne Bay|Miami Gardens, FL| 180|25.82499| -80.18661|TRUE|FALSE|FALSE|TRUE
5695225|Holiday Inn Express and Suites Miramar, an IHG Hotel|Miami Gardens, FL| 187|25.98420| -80.34104|FALSE|TRUE|FALSE|TRUE
5695243|Extended Stay America Suites Chicago Midway|Chicago, IL| 106|41.77435| -87.74286|TRUE|FALSE|FALSE|TRUE
5695243|Hilton Garden Inn Chicago Downtown Riverwalk|Chicago, IL| 125|41.88701| -87.62549|FALSE|TRUE|FALSE|TRUE
5695243|Hotel BnB-2|Chicago, IL|  92|41.89585| -87.63797|TRUE|FALSE|FALSE|TRUE
5695243|Hilton Chicago|Chicago, IL| 198|41.87246| -87.62478|FALSE|TRUE|TRUE|TRUE
5695243|Hotel Chicago Downtown, Autograph Collection by Marriott|Chicago, IL| 104|41.88862| -87.62887|TRUE|FALSE|FALSE|TRUE
5695243|Congress Plaza Hotel|Chicago, IL| 115|41.87491| -87.62482|FALSE|TRUE|FALSE|TRUE
5695243|Travelodge by Wyndham Downtown Chicago|Chicago, IL| 116|41.87429| -87.62539|FALSE|TRUE|FALSE|TRUE
5695243|Freehand Chicago|Chicago, IL| 109|41.89238| -87.62732|TRUE|FALSE|FALSE|TRUE
5695243|Millennium Knickerbocker Chicago|Chicago, IL| 104|41.89977| -87.62270|TRUE|FALSE|FALSE|TRUE
5695243|The Ritz-Carlton, Chicago|Chicago, IL| 515|41.89782| -87.62228|FALSE|FALSE|TRUE|TRUE
5695243|Best Western Grant Park Hotel|Chicago, IL|  99|41.86909| -87.62468|TRUE|TRUE|FALSE|TRUE
5695243|CitizenM Chicago Downtown|Chicago, IL| 114|41.88696| -87.62505|TRUE|TRUE|FALSE|TRUE
5695243|Four Seasons Hotel Chicago|Chicago, IL| 452|41.89961| -87.62488|FALSE|FALSE|TRUE|TRUE
5695243|The Hotel at Midtown|Chicago, IL| 478|41.92558| -87.67940|FALSE|FALSE|TRUE|TRUE
5695243|The Langham, Chicago|Chicago, IL| 502|41.88842| -87.62751|FALSE|TRUE|TRUE|TRUE
5695243|Found Hotel Chicago River North|Chicago, IL| 100|41.89287| -87.63377|TRUE|FALSE|FALSE|TRUE
5695243|Warwick Allerton - Chicago|Chicago, IL| 109|41.89509| -87.62375|TRUE|FALSE|FALSE|TRUE
5695243|Park Hyatt Chicago|Chicago, IL| 481|41.89724| -87.62527|FALSE|FALSE|TRUE|TRUE
5695243|Hilton Garden Inn Chicago Downtown South Loop|Chicago, IL| 129|41.86909| -87.62566|FALSE|TRUE|FALSE|TRUE
5695243|The Whitehall Hotel|Chicago, IL|  95|41.89891| -87.62571|TRUE|FALSE|FALSE|TRUE
5695243|Club Quarters Hotel, Central Loop, Chicago|Chicago, IL| 128|41.87927| -87.63119|FALSE|TRUE|FALSE|TRUE
5695243|Nobu Hotel Chicago|Chicago, IL| 452|41.88473| -87.64949|FALSE|FALSE|TRUE|TRUE
5695243|Waldorf Astoria Chicago|Chicago, IL| 480|41.89974| -87.62748|FALSE|FALSE|TRUE|TRUE
5695243|Hotel Versey Days Inn by Wyndham Chicago|Chicago, IL| 114|41.93294| -87.64557|TRUE|FALSE|FALSE|TRUE
5695243|Trump International Hotel & Tower Chicago|Chicago, IL| 464|41.88890| -87.62643|FALSE|TRUE|TRUE|TRUE
5695243|The Peninsula Chicago|Chicago, IL| 558|41.89620| -87.62515|FALSE|FALSE|TRUE|TRUE
5695261|Best Western Plus The Inn at Sharon/Foxboro|Foxborough, MA| 109|42.12324| -71.23031|TRUE|TRUE|FALSE|TRUE
5695261|Home2 Suites by Hilton Walpole Foxboro|Foxborough, MA| 160|42.10473| -71.25585|FALSE|TRUE|TRUE|TRUE
5695261|Red Roof Inn PLUS+ Boston - Mansfield/ Foxboro|Foxborough, MA| 113|42.03411| -71.23668|TRUE|FALSE|FALSE|TRUE
5695261|Residence Inn by Marriott Boston-Franklin|Foxborough, MA| 155|42.06538| -71.24783|FALSE|TRUE|TRUE|TRUE
5695261|Sonesta Select Boston Foxborough Mansfield|Foxborough, MA| 122|42.03978| -71.23689|TRUE|TRUE|FALSE|TRUE
5695261|Residence Inn by Marriott Foxborough|Foxborough, MA| 145|42.04473| -71.23833|TRUE|TRUE|TRUE|TRUE
5695261|Americas Best Value Inn Foxboro|Foxborough, MA| 110|42.08196| -71.28072|TRUE|TRUE|FALSE|TRUE
5695261|Four Points By Sheraton Norwood|Foxborough, MA| 356|42.17541| -71.19446|FALSE|FALSE|TRUE|TRUE
5695261|Comfort Inn Foxboro – Mansfield|Foxborough, MA| 122|42.03943| -71.23985|TRUE|TRUE|FALSE|TRUE
5695261|Residence Inn by Marriott Boston Norwood|Foxborough, MA| 130|42.16943| -71.20033|TRUE|FALSE|TRUE|TRUE
5695261|Hampton Inn Boston - Norwood|Foxborough, MA| 122|42.19696| -71.18431|TRUE|FALSE|FALSE|TRUE
5695261|Econo Lodge Sharon|Foxborough, MA|  85|42.12519| -71.23042|TRUE|TRUE|FALSE|TRUE
5695261|Best Western North Attleboro / Providence Beltway|Foxborough, MA| 168|41.95922| -71.34274|FALSE|FALSE|TRUE|TRUE
5695261|SpringHill Suites by Marriott Wrentham Plainville|Foxborough, MA| 172|42.03871| -71.31233|FALSE|FALSE|TRUE|TRUE
5695261|Best Western Plus Executive Residency Franklin|Foxborough, MA| 130|42.06149| -71.39714|TRUE|FALSE|TRUE|TRUE
5695261|Hampton Inn Franklin/Milford|Foxborough, MA| 161|42.06515| -71.39754|FALSE|FALSE|TRUE|TRUE
5695261|Hilton Garden Inn Foxborough Patriot Place|Foxborough, MA| 173|42.09150| -71.26865|FALSE|TRUE|TRUE|TRUE
5695261|Renaissance by Marriott Boston Patriot Place Hotel|Foxborough, MA| 189|42.09045| -71.26853|FALSE|TRUE|TRUE|TRUE
5695279|The Hay-Adams|Landover, MD| 459|38.90040| -77.03693|FALSE|FALSE|TRUE|TRUE
5695279|Red Roof Inn Washington DC - Lanham|Landover, MD|  94|38.96478| -76.85962|TRUE|FALSE|FALSE|TRUE
5695279|Comfort Inn Largo-Washington DC East|Landover, MD| 105|38.89449| -76.84227|FALSE|TRUE|FALSE|TRUE
5695279|Residence Inn Largo Medical Center Drive|Landover, MD| 168|38.90744| -76.84777|FALSE|TRUE|TRUE|TRUE
5695279|DoubleTree by Hilton Largo/Washington DC|Landover, MD| 141|38.91566| -76.84879|FALSE|TRUE|FALSE|TRUE
5695279|Homewood Suites by Hilton Largo/Washington, D.C.|Landover, MD| 179|38.91444| -76.84935|FALSE|TRUE|TRUE|TRUE
5695279|Quality Inn Near Joint Base Andrews - Washington Area|Landover, MD| 101|38.82076| -76.88784|TRUE|FALSE|FALSE|TRUE
5695279|Days Inn by Wyndham College Park|Landover, MD| 101|39.00442| -76.93000|TRUE|FALSE|FALSE|TRUE
5695279|Conrad Washington, DC|Landover, MD| 453|38.90137| -77.02528|FALSE|FALSE|TRUE|TRUE
5695279|Extended Stay America Suites Washington DC Landover|Landover, MD| 107|38.93400| -76.89664|FALSE|TRUE|FALSE|TRUE
5695279|College Park Marriott Hotel & Conference Center|Landover, MD| 507|38.98637| -76.95444|FALSE|FALSE|TRUE|TRUE
5695279|Waldorf Astoria Washington DC|Landover, MD| 506|38.89411| -77.02758|FALSE|FALSE|TRUE|TRUE
5695279|WoodSpring Suites Washington DC East Arena Drive|Landover, MD| 101|38.90793| -76.85133|TRUE|TRUE|FALSE|TRUE
5695279|Best Western Capital Beltway|Landover, MD| 101|38.96184| -76.86511|TRUE|FALSE|FALSE|TRUE
5695279|Generator Hotel Washington DC|Landover, MD| 106|38.92562| -76.88939|FALSE|TRUE|FALSE|TRUE
5695279|Super 8 by Wyndham Camp Springs/Andrews AFB DC Area|Landover, MD|  91|38.81399| -76.89603|TRUE|FALSE|FALSE|TRUE
5695279|Days Inn by Wyndham Camp Springs/Andrews AFB DC Area|Landover, MD|  77|38.81392| -76.89562|TRUE|FALSE|FALSE|TRUE
5695279|Courtyard Largo Medical Center Drive|Landover, MD| 129|38.90692| -76.84692|FALSE|TRUE|FALSE|TRUE
5695279|Econo Lodge Andrews Air Force Base|Landover, MD|  76|38.78201| -76.89081|TRUE|FALSE|FALSE|TRUE
5695279|Holiday Inn Express I-95 Capitol Beltway-Largo, an IHG Hotel|Landover, MD| 122|38.91377| -76.84897|FALSE|TRUE|FALSE|TRUE
5695279|Days Inn by Wyndham Lanham Washington D.C|Landover, MD|  86|38.96226| -76.86088|TRUE|FALSE|FALSE|TRUE
5695279|Howard Johnson by Wyndham College Park|Landover, MD| 101|39.00397| -76.92999|TRUE|FALSE|FALSE|TRUE
5695279|Hampton Inn Bowie|Landover, MD| 100|38.95076| -76.73825|TRUE|FALSE|FALSE|TRUE
5695279|Metro Points Hotel|Landover, MD|  97|38.95892| -76.86889|TRUE|FALSE|FALSE|TRUE
5695279|Renaissance Washington DC Downtown Hotel, a Marriott hotel|Landover, MD| 351|38.90168| -77.02383|FALSE|FALSE|TRUE|TRUE
5695279|Salamander Washington DC|Landover, MD| 405|38.88366| -77.03032|FALSE|FALSE|TRUE|TRUE
5695279|Staybridge Suites Washington DC East - Largo, an IHG Hotel|Landover, MD| 155|38.90699| -76.84066|FALSE|TRUE|TRUE|TRUE
5695279|Pendry Washington DC - The Wharf|Landover, MD| 489|38.87756| -77.02241|FALSE|FALSE|TRUE|TRUE
5695281|The Hay-Adams|Landover, MD| 459|38.90040| -77.03693|FALSE|FALSE|TRUE|TRUE
5695281|Red Roof Inn Washington DC - Lanham|Landover, MD|  94|38.96478| -76.85962|TRUE|FALSE|FALSE|TRUE
5695281|Courtyard Largo Medical Center Drive|Landover, MD| 129|38.90692| -76.84692|FALSE|TRUE|FALSE|TRUE
5695281|Quality Inn Near Joint Base Andrews - Washington Area|Landover, MD| 101|38.82076| -76.88784|TRUE|FALSE|FALSE|TRUE
5695281|Days Inn by Wyndham College Park|Landover, MD| 101|39.00442| -76.93000|TRUE|FALSE|FALSE|TRUE
5695281|Super 8 by Wyndham Camp Springs/Andrews AFB DC Area|Landover, MD|  91|38.81399| -76.89603|TRUE|FALSE|FALSE|TRUE
5695281|Staybridge Suites Washington DC East - Largo, an IHG Hotel|Landover, MD| 155|38.90699| -76.84066|FALSE|TRUE|TRUE|TRUE
5695281|Best Western Capital Beltway|Landover, MD| 101|38.96184| -76.86511|TRUE|FALSE|FALSE|TRUE
5695281|Days Inn by Wyndham Lanham Washington D.C|Landover, MD|  86|38.96226| -76.86088|TRUE|FALSE|FALSE|TRUE
5695281|College Park Marriott Hotel & Conference Center|Landover, MD| 507|38.98637| -76.95444|FALSE|FALSE|TRUE|TRUE
5695281|Days Inn by Wyndham Camp Springs/Andrews AFB DC Area|Landover, MD|  77|38.81392| -76.89562|TRUE|FALSE|FALSE|TRUE
5695281|DoubleTree by Hilton Largo/Washington DC|Landover, MD| 141|38.91566| -76.84879|FALSE|TRUE|FALSE|TRUE
5695281|Econo Lodge Andrews Air Force Base|Landover, MD|  76|38.78201| -76.89081|TRUE|FALSE|FALSE|TRUE
5695281|Residence Inn Largo Medical Center Drive|Landover, MD| 168|38.90744| -76.84777|FALSE|TRUE|TRUE|TRUE
5695281|Hampton Inn Bowie|Landover, MD| 100|38.95076| -76.73825|TRUE|FALSE|FALSE|TRUE
5695281|Waldorf Astoria Washington DC|Landover, MD| 506|38.89411| -77.02758|FALSE|FALSE|TRUE|TRUE
5695281|Howard Johnson by Wyndham College Park|Landover, MD| 101|39.00397| -76.92999|TRUE|FALSE|FALSE|TRUE
5695281|Extended Stay America Suites Washington DC Landover|Landover, MD| 107|38.93400| -76.89664|FALSE|TRUE|FALSE|TRUE
5695281|Homewood Suites by Hilton Largo/Washington, D.C.|Landover, MD| 179|38.91444| -76.84935|FALSE|TRUE|TRUE|TRUE
5695281|Holiday Inn Express I-95 Capitol Beltway-Largo, an IHG Hotel|Landover, MD| 122|38.91377| -76.84897|FALSE|TRUE|FALSE|TRUE
5695281|Conrad Washington, DC|Landover, MD| 453|38.90137| -77.02528|FALSE|FALSE|TRUE|TRUE
5695281|WoodSpring Suites Washington DC East Arena Drive|Landover, MD| 101|38.90793| -76.85133|TRUE|TRUE|FALSE|TRUE
5695281|Salamander Washington DC|Landover, MD| 405|38.88366| -77.03032|FALSE|FALSE|TRUE|TRUE
5695281|Pendry Washington DC - The Wharf|Landover, MD| 489|38.87756| -77.02241|FALSE|FALSE|TRUE|TRUE
5695281|Metro Points Hotel|Landover, MD|  97|38.95892| -76.86889|TRUE|FALSE|FALSE|TRUE
5695281|Renaissance Washington DC Downtown Hotel, a Marriott hotel|Landover, MD| 351|38.90168| -77.02383|FALSE|FALSE|TRUE|TRUE
5695281|Generator Hotel Washington DC|Landover, MD| 106|38.92562| -76.88939|FALSE|TRUE|FALSE|TRUE
5695281|Comfort Inn Largo-Washington DC East|Landover, MD| 105|38.89449| -76.84227|FALSE|TRUE|FALSE|TRUE
5695297|Hotel Tampa Riverwalk|Tampa, FL| 768|27.94467| -82.45879|FALSE|FALSE|TRUE|TRUE
5695297|La Quinta Inn by Wyndham Tampa Near Busch Gardens|Tampa, FL| 151|28.03364| -82.42705|TRUE|FALSE|FALSE|TRUE
5695297|Tampa Airport Marriott|Tampa, FL| 419|27.98187| -82.53461|FALSE|TRUE|FALSE|TRUE
5695297|Hilton Tampa Downtown|Tampa, FL| 628|27.94640| -82.45807|FALSE|FALSE|TRUE|TRUE
5695297|Old West Studio Lofts|Tampa, FL| 255|27.95955| -82.48310|FALSE|TRUE|FALSE|TRUE
5695297|Econo Lodge Airport at RJ Stadium|Tampa, FL| 128|27.97587| -82.50333|TRUE|TRUE|FALSE|TRUE
5695297|Extended Stay America Suites Tampa Airport Memorial Hwy|Tampa, FL| 173|28.00674| -82.59229|TRUE|FALSE|FALSE|TRUE
5695297|Econo Lodge Busch Gardens|Tampa, FL| 120|28.03202| -82.44045|TRUE|FALSE|FALSE|TRUE
5695297|Hilton Tampa Airport Westshore|Tampa, FL| 270|27.96260| -82.51278|FALSE|TRUE|FALSE|TRUE
5695297|Grand Hyatt Tampa Bay|Tampa, FL| 561|27.96532| -82.55006|FALSE|FALSE|TRUE|TRUE
5695297|Renaissance Tampa International Plaza Hotel|Tampa, FL| 447|27.96584| -82.51992|FALSE|TRUE|TRUE|TRUE
5695297|La Quinta Inn by Wyndham Tampa Bay Airport|Tampa, FL| 193|27.95908| -82.52582|FALSE|TRUE|FALSE|TRUE
5695297|Marriott Tampa Westshore|Tampa, FL| 328|27.95304| -82.52309|FALSE|TRUE|FALSE|TRUE
5695297|Extended Stay America Suites Tampa Airport N Westshore Blvd|Tampa, FL| 173|27.95563| -82.52407|TRUE|TRUE|FALSE|TRUE
5695297|Value Lodge Busch Gardens Tampa|Tampa, FL| 136|28.03707| -82.41946|TRUE|FALSE|FALSE|TRUE
5695297|The Westin Tampa Waterside|Tampa, FL| 612|27.93847| -82.45489|FALSE|FALSE|TRUE|TRUE
5695297|Epicurean Hotel, Autograph Collection|Tampa, FL| 966|27.93072| -82.48342|FALSE|FALSE|TRUE|TRUE
5695297|Home2 Suites by Hilton Tampa Downtown Channel District|Tampa, FL| 513|27.95034| -82.44854|FALSE|FALSE|TRUE|TRUE
5695297|Extended Stay America Suites Tampa North Airport|Tampa, FL| 173|27.99748| -82.54671|TRUE|FALSE|FALSE|TRUE
5695297|The Tampa EDITION|Tampa, FL| 850|27.94369| -82.45085|FALSE|FALSE|TRUE|TRUE
5695297|AC Hotel by Marriott Tampa Airport|Tampa, FL| 385|27.96522| -82.51125|FALSE|TRUE|FALSE|TRUE
5695297|Le Méridien Tampa, The Courthouse|Tampa, FL| 648|27.95007| -82.45746|FALSE|FALSE|TRUE|TRUE
5695297|Seminole Hard Rock Hotel & Casino Tampa|Tampa, FL| 510|27.99338| -82.37198|FALSE|FALSE|TRUE|TRUE
5695297|La Quinta Inn & Suites by Wyndham Tampa Fairgrounds - Casino|Tampa, FL| 146|27.98951| -82.35775|TRUE|FALSE|FALSE|TRUE
5695297|Extended Stay America Suites Tampa Airport Spruce Street|Tampa, FL| 173|27.95890| -82.51729|TRUE|TRUE|FALSE|TRUE
5695297|Rodeway Inn Near Ybor City - Casino|Tampa, FL| 104|27.96992| -82.40352|TRUE|FALSE|FALSE|TRUE
5695313|Romana Hotel|Houston, TX|  82|29.71082| -95.50405|TRUE|FALSE|FALSE|TRUE
5695313|Extended Stay America Suites Houston Westchase Richmond|Houston, TX|  68|29.72879| -95.55845|TRUE|FALSE|FALSE|TRUE
5695313|Hilton Garden Inn Houston Medical Center, TX|Houston, TX| 158|29.70455| -95.38559|FALSE|FALSE|TRUE|TRUE
5695313|Travelodge by Wyndham Houston Hobby Airport|Houston, TX|  57|29.65237| -95.26050|TRUE|FALSE|FALSE|TRUE
5695313|The Westin Houston Medical Center|Houston, TX| 214|29.70970| -95.40158|FALSE|TRUE|TRUE|TRUE
5695313|America's Inn Sugarland Stafford|Houston, TX|  73|29.66489| -95.55532|TRUE|FALSE|FALSE|TRUE
5695313|Howard Johnson by Wyndham Houston|Houston, TX|  61|29.77823| -95.40776|TRUE|FALSE|FALSE|TRUE
5695313|Maxim III Motel|Houston, TX|  84|29.61356| -95.44917|TRUE|FALSE|FALSE|TRUE
5695313|Sonesta Simply Suites Houston W Beltway|Houston, TX|  81|29.72084| -95.55599|TRUE|FALSE|FALSE|TRUE
5695313|Houston Marriott Medical Center/Museum District|Houston, TX| 180|29.71005| -95.40087|FALSE|TRUE|TRUE|TRUE
5695313|SureStay Plus Hotel by Best Western Houston Medical Center|Houston, TX| 137|29.70827| -95.40412|FALSE|TRUE|TRUE|TRUE
5695313|InterContinental Houston Medical Center, an IHG Hotel|Houston, TX| 192|29.70753| -95.40466|FALSE|TRUE|TRUE|TRUE
5695313|The Post Oak Hotel at Uptown Houston|Houston, TX| 684|29.75218| -95.45701|FALSE|FALSE|TRUE|TRUE
5695313|Candlewood Suites Houston Medical Center, an IHG Hotel|Houston, TX| 110|29.67581| -95.42636|FALSE|TRUE|FALSE|TRUE
5695313|Blossom Hotel Houston|Houston, TX| 225|29.69952| -95.39943|FALSE|TRUE|TRUE|TRUE
5695313|Extended Stay America Suites Houston Galleria Westheimer|Houston, TX|  83|29.74064| -95.45628|TRUE|FALSE|FALSE|TRUE
5695313|Wingate Houston near NRG Park/Medical Center|Houston, TX| 113|29.68090| -95.41281|FALSE|TRUE|FALSE|TRUE
5695313|Courtyard by Marriott Houston Medical Center/NRG Park|Houston, TX| 136|29.69663| -95.41361|FALSE|TRUE|TRUE|TRUE
5695313|Super 8 by Wyndham Stafford Sugarland Area|Houston, TX|  78|29.63687| -95.56439|TRUE|FALSE|FALSE|TRUE
5695313|Comfort Suites near Texas Medical Center - NRG Stadium|Houston, TX| 114|29.68975| -95.41665|FALSE|TRUE|TRUE|TRUE
5695313|Extended Stay America Suites Houston Galleria Uptown|Houston, TX|  78|29.73920| -95.46447|TRUE|FALSE|FALSE|TRUE
5695313|La Colombe d'Or Hotel|Houston, TX| 672|29.74164| -95.39162|FALSE|FALSE|TRUE|TRUE
5695313|Extended Stay America Suites Houston Med Ctr Braeswood Bl|Houston, TX| 106|29.70196| -95.40047|FALSE|TRUE|FALSE|TRUE
5695331|Holiday Inn Express Philadelphia-Midtown, an IHG Hotel|Philadelphia, PA| 208|39.94936| -75.16238|FALSE|TRUE|FALSE|TRUE
5695331|Parkway Inn|Philadelphia, PA|  62|39.91875| -75.32845|TRUE|FALSE|FALSE|TRUE
5695331|Guild House Hotel|Philadelphia, PA| 530|39.94819| -75.16268|FALSE|TRUE|TRUE|TRUE
5695331|BnB Philadelphia - Boutique Hotel|Philadelphia, PA| 621|39.97993| -75.12262|FALSE|FALSE|TRUE|TRUE
5695331|Philadelphia Marriott Old City|Philadelphia, PA| 258|39.94621| -75.14342|FALSE|TRUE|FALSE|TRUE
5695331|Radisson Hotel Philadelphia, PA|Philadelphia, PA| 133|39.94917| -75.16954|FALSE|TRUE|FALSE|TRUE
5695331|Courtyard Philadelphia South at The Navy Yard|Philadelphia, PA| 265|39.89545| -75.17173|FALSE|TRUE|FALSE|TRUE
5695331|The Rittenhouse Philadelphia|Philadelphia, PA| 691|39.94966| -75.16482|FALSE|TRUE|TRUE|TRUE
5695331|Red Roof Inn PLUS+ Philadelphia Airport|Philadelphia, PA| 123|39.86820| -75.30609|TRUE|FALSE|FALSE|TRUE
5695331|Le Meridien Philadelphia|Philadelphia, PA| 371|39.95487| -75.16414|FALSE|FALSE|TRUE|TRUE
5695331|Fitler Club|Philadelphia, PA| 373|39.95349| -75.17914|FALSE|FALSE|TRUE|TRUE
5695331|Red Carpet Inn Philadelphia Airport|Philadelphia, PA|  93|39.87242| -75.28119|TRUE|FALSE|FALSE|TRUE
5695331|Howard Johnson by Wyndham Blackwood Near Philadelphia|Philadelphia, PA| 122|39.81340| -75.06928|TRUE|FALSE|FALSE|TRUE
5695331|Philly Inn & Suites|Philadelphia, PA| 129|39.95258| -75.16522|TRUE|FALSE|FALSE|TRUE
5695331|Four Seasons Hotel Philadelphia at Comcast Center|Philadelphia, PA|1140|39.95509| -75.17090|FALSE|FALSE|TRUE|TRUE
5695331|Wyndham Garden Philadelphia Airport|Philadelphia, PA| 110|39.86764| -75.30377|TRUE|FALSE|FALSE|TRUE
5695331|DoubleTree by Hilton Philadelphia Center City|Philadelphia, PA| 246|39.94792| -75.16413|FALSE|TRUE|FALSE|TRUE
5695331|W Philadelphia|Philadelphia, PA| 313|39.95124| -75.16490|FALSE|TRUE|FALSE|TRUE
5695331|Travelodge by Wyndham Bellmawr|Philadelphia, PA|  87|39.86208| -75.07705|TRUE|FALSE|FALSE|TRUE
5695331|Holiday Inn Philadelphia-Cherry Hill, an IHG Hotel|Philadelphia, PA| 131|39.92171| -75.04126|TRUE|FALSE|FALSE|TRUE
5695331|Wm. Mulherin's Sons Hotel|Philadelphia, PA| 549|39.97171| -75.13506|FALSE|FALSE|TRUE|TRUE
5695331|Sheraton Suites Philadelphia Airport|Philadelphia, PA| 174|39.89052| -75.23154|FALSE|TRUE|FALSE|TRUE
5695331|Days Inn by Wyndham Springfield/Phil.Intl Airport|Philadelphia, PA| 106|39.91948| -75.32802|TRUE|FALSE|FALSE|TRUE
5695331|Days Inn by Wyndham Runnemede Philadelphia Area|Philadelphia, PA| 113|39.85779| -75.07254|TRUE|FALSE|FALSE|TRUE
5695331|Loews Philadelphia Hotel|Philadelphia, PA| 425|39.95143| -75.16032|FALSE|FALSE|TRUE|TRUE
5695331|Warwick Hotel Rittenhouse Square|Philadelphia, PA| 211|39.94917| -75.16954|FALSE|TRUE|FALSE|TRUE
5695331|The Ritz-Carlton, Philadelphia|Philadelphia, PA| 492|39.95128| -75.16427|FALSE|FALSE|TRUE|TRUE
5695331|Sheraton Philadelphia Downtown|Philadelphia, PA|1065|39.95723| -75.16695|FALSE|FALSE|TRUE|TRUE
5695333|Courtyard Philadelphia South at The Navy Yard|Philadelphia, PA| 265|39.89545| -75.17173|FALSE|TRUE|FALSE|TRUE
5695333|Guild House Hotel|Philadelphia, PA| 530|39.94819| -75.16268|FALSE|TRUE|TRUE|TRUE
5695333|Fitler Club|Philadelphia, PA| 373|39.95349| -75.17914|FALSE|FALSE|TRUE|TRUE
5695333|Howard Johnson by Wyndham Blackwood Near Philadelphia|Philadelphia, PA| 122|39.81340| -75.06928|TRUE|FALSE|FALSE|TRUE
5695333|Four Seasons Hotel Philadelphia at Comcast Center|Philadelphia, PA|1140|39.95509| -75.17090|FALSE|FALSE|TRUE|TRUE
5695333|Le Meridien Philadelphia|Philadelphia, PA| 371|39.95487| -75.16414|FALSE|FALSE|TRUE|TRUE
5695333|Loews Philadelphia Hotel|Philadelphia, PA| 425|39.95143| -75.16032|FALSE|FALSE|TRUE|TRUE
5695333|Red Carpet Inn Philadelphia Airport|Philadelphia, PA|  93|39.87242| -75.28119|TRUE|FALSE|FALSE|TRUE
5695333|Red Roof Inn PLUS+ Philadelphia Airport|Philadelphia, PA| 123|39.86820| -75.30609|TRUE|FALSE|FALSE|TRUE
5695333|Wm. Mulherin's Sons Hotel|Philadelphia, PA| 549|39.97171| -75.13506|FALSE|FALSE|TRUE|TRUE
5695333|W Philadelphia|Philadelphia, PA| 313|39.95124| -75.16490|FALSE|TRUE|FALSE|TRUE
5695333|Travelodge by Wyndham Bellmawr|Philadelphia, PA|  87|39.86208| -75.07705|TRUE|FALSE|FALSE|TRUE
5695333|Radisson Hotel Philadelphia, PA|Philadelphia, PA| 133|39.94917| -75.16954|FALSE|TRUE|FALSE|TRUE
5695333|The Rittenhouse Philadelphia|Philadelphia, PA| 691|39.94966| -75.16482|FALSE|TRUE|TRUE|TRUE
5695333|Sheraton Philadelphia Downtown|Philadelphia, PA|1065|39.95723| -75.16695|FALSE|FALSE|TRUE|TRUE
5695333|BnB Philadelphia - Boutique Hotel|Philadelphia, PA| 621|39.97993| -75.12262|FALSE|FALSE|TRUE|TRUE
5695333|Holiday Inn Express Philadelphia-Midtown, an IHG Hotel|Philadelphia, PA| 208|39.94936| -75.16238|FALSE|TRUE|FALSE|TRUE
5695333|Warwick Hotel Rittenhouse Square|Philadelphia, PA| 211|39.94917| -75.16954|FALSE|TRUE|FALSE|TRUE
5695333|Holiday Inn Philadelphia-Cherry Hill, an IHG Hotel|Philadelphia, PA| 131|39.92171| -75.04126|TRUE|FALSE|FALSE|TRUE
5695333|Sheraton Suites Philadelphia Airport|Philadelphia, PA| 174|39.89052| -75.23154|FALSE|TRUE|FALSE|TRUE
5695333|Philly Inn & Suites|Philadelphia, PA| 129|39.95258| -75.16522|TRUE|FALSE|FALSE|TRUE
5695333|DoubleTree by Hilton Philadelphia Center City|Philadelphia, PA| 246|39.94792| -75.16413|FALSE|TRUE|FALSE|TRUE
5695333|Days Inn by Wyndham Springfield/Phil.Intl Airport|Philadelphia, PA| 106|39.91948| -75.32802|TRUE|FALSE|FALSE|TRUE
5695333|Philadelphia Marriott Old City|Philadelphia, PA| 258|39.94621| -75.14342|FALSE|TRUE|FALSE|TRUE
5695333|The Ritz-Carlton, Philadelphia|Philadelphia, PA| 492|39.95128| -75.16427|FALSE|FALSE|TRUE|TRUE
5695333|Parkway Inn|Philadelphia, PA|  62|39.91875| -75.32845|TRUE|FALSE|FALSE|TRUE
5695333|Days Inn by Wyndham Runnemede Philadelphia Area|Philadelphia, PA| 113|39.85779| -75.07254|TRUE|FALSE|FALSE|TRUE
5695333|Wyndham Garden Philadelphia Airport|Philadelphia, PA| 110|39.86764| -75.30377|TRUE|FALSE|FALSE|TRUE
5695349|Palihotel Seattle|Seattle, WA| 351|47.60978|-122.34069|FALSE|TRUE|TRUE|TRUE
5695349|W Bellevue|Seattle, WA| 377|47.61628|-122.32679|FALSE|FALSE|TRUE|TRUE
5695349|Quality Inn Bellevue|Seattle, WA|  92|47.58134|-122.13688|TRUE|FALSE|FALSE|TRUE
5695349|Bellevue Club Hotel|Seattle, WA| 393|47.60535|-122.18956|FALSE|FALSE|TRUE|TRUE
5695349|Executive Hotel Pacific|Seattle, WA| 130|47.60702|-122.33344|FALSE|TRUE|FALSE|TRUE
5695349|Best Western Plus Pioneer Square Hotel Downtown|Seattle, WA| 132|47.60156|-122.33530|FALSE|TRUE|FALSE|TRUE
5695349|Fairmont Olympic Hotel|Seattle, WA| 364|47.60806|-122.33393|FALSE|TRUE|TRUE|TRUE
5695349|Extended Stay America Suites Seattle Bellevue Factoria|Seattle, WA| 103|47.63458|-122.13137|TRUE|FALSE|FALSE|TRUE
5695349|Hotel 116, A Coast Hotel Bellevue|Seattle, WA| 108|47.61605|-122.18687|TRUE|FALSE|FALSE|TRUE
5695349|Extended Stay America Suites Seattle Tukwila|Seattle, WA| 104|47.47484|-122.27262|TRUE|FALSE|FALSE|TRUE
5695349|Travelodge by Wyndham Seattle By The Space Needle|Seattle, WA|  97|47.62041|-122.34467|TRUE|FALSE|FALSE|TRUE
5695349|citizenM Seattle Pioneer Square|Seattle, WA| 136|47.60196|-122.33582|FALSE|TRUE|FALSE|TRUE
5695349|Four Seasons Hotel Seattle|Seattle, WA| 854|47.60738|-122.33916|FALSE|TRUE|TRUE|TRUE
5695349|Ramada by Wyndham SeaTac Airport North|Seattle, WA|  80|47.47926|-122.28351|TRUE|FALSE|FALSE|TRUE
5695349|Hotel Hotel Hostel|Seattle, WA| 107|47.65120|-122.35013|TRUE|FALSE|FALSE|TRUE
5695349|Sheraton Grand Seattle|Seattle, WA| 356|47.61083|-122.33400|FALSE|TRUE|TRUE|TRUE
5695349|Crowne Plaza Seattle - Downtown, an IHG Hotel|Seattle, WA| 207|47.60821|-122.33211|FALSE|TRUE|FALSE|TRUE
5695349|Thompson Seattle|Seattle, WA| 411|47.61058|-122.34120|FALSE|FALSE|TRUE|TRUE
5695349|Ramada by Wyndham Seatac Airport North|Seattle, WA|  78|47.47926|-122.28351|TRUE|FALSE|FALSE|TRUE
5695349|Seattle Marriott Waterfront|Seattle, WA| 253|47.61070|-122.34649|FALSE|FALSE|TRUE|TRUE
5695349|Ramada by Wyndham SeaTac Airport|Seattle, WA|  92|47.45269|-122.29469|TRUE|FALSE|FALSE|TRUE
5695349|Hotel 1000, LXR Hotels & Resorts|Seattle, WA| 410|47.60505|-122.33612|FALSE|TRUE|TRUE|TRUE
5695349|Extended Stay America Suites Seattle Redmond|Seattle, WA| 109|47.63458|-122.13137|TRUE|FALSE|FALSE|TRUE
5695349|Embassy Suites by Hilton Seattle Downtown Pioneer Square|Seattle, WA| 243|47.59808|-122.33093|FALSE|TRUE|FALSE|TRUE
5695349|Hotel Ballard|Seattle, WA| 419|47.66623|-122.38256|FALSE|FALSE|TRUE|TRUE
5695351|Hotel 1000, LXR Hotels & Resorts|Seattle, WA| 410|47.60505|-122.33612|FALSE|TRUE|TRUE|TRUE
5695351|Hotel Ballard|Seattle, WA| 419|47.66623|-122.38256|FALSE|FALSE|TRUE|TRUE
5695351|W Bellevue|Seattle, WA| 377|47.61628|-122.32679|FALSE|FALSE|TRUE|TRUE
5695351|Hotel Hotel Hostel|Seattle, WA| 107|47.65120|-122.35013|TRUE|FALSE|FALSE|TRUE
5695351|citizenM Seattle Pioneer Square|Seattle, WA| 136|47.60196|-122.33582|FALSE|TRUE|FALSE|TRUE
5695351|Best Western Plus Pioneer Square Hotel Downtown|Seattle, WA| 132|47.60156|-122.33530|FALSE|TRUE|FALSE|TRUE
5695351|Extended Stay America Suites Seattle Redmond|Seattle, WA| 109|47.63458|-122.13137|TRUE|FALSE|FALSE|TRUE
5695351|Hotel 116, A Coast Hotel Bellevue|Seattle, WA| 108|47.61605|-122.18687|TRUE|FALSE|FALSE|TRUE
5695351|Crowne Plaza Seattle - Downtown, an IHG Hotel|Seattle, WA| 207|47.60821|-122.33211|FALSE|TRUE|FALSE|TRUE
5695351|Sheraton Grand Seattle|Seattle, WA| 356|47.61083|-122.33400|FALSE|TRUE|TRUE|TRUE
5695351|Ramada by Wyndham SeaTac Airport North|Seattle, WA|  80|47.47926|-122.28351|TRUE|FALSE|FALSE|TRUE
5695351|Quality Inn Bellevue|Seattle, WA|  92|47.58134|-122.13688|TRUE|FALSE|FALSE|TRUE
5695351|Executive Hotel Pacific|Seattle, WA| 130|47.60702|-122.33344|FALSE|TRUE|FALSE|TRUE
5695351|Extended Stay America Suites Seattle Bellevue Factoria|Seattle, WA| 103|47.63458|-122.13137|TRUE|FALSE|FALSE|TRUE
5695351|Fairmont Olympic Hotel|Seattle, WA| 364|47.60806|-122.33393|FALSE|TRUE|TRUE|TRUE
5695351|Embassy Suites by Hilton Seattle Downtown Pioneer Square|Seattle, WA| 243|47.59808|-122.33093|FALSE|TRUE|FALSE|TRUE
5695351|Thompson Seattle|Seattle, WA| 411|47.61058|-122.34120|FALSE|FALSE|TRUE|TRUE
5695351|Extended Stay America Suites Seattle Tukwila|Seattle, WA| 104|47.47484|-122.27262|TRUE|FALSE|FALSE|TRUE
5695351|Bellevue Club Hotel|Seattle, WA| 393|47.60535|-122.18956|FALSE|FALSE|TRUE|TRUE
5695351|Ramada by Wyndham Seatac Airport North|Seattle, WA|  78|47.47926|-122.28351|TRUE|FALSE|FALSE|TRUE
5695351|Four Seasons Hotel Seattle|Seattle, WA| 854|47.60738|-122.33916|FALSE|TRUE|TRUE|TRUE
5695351|Travelodge by Wyndham Seattle By The Space Needle|Seattle, WA|  97|47.62041|-122.34467|TRUE|FALSE|FALSE|TRUE
5695351|Palihotel Seattle|Seattle, WA| 351|47.60978|-122.34069|FALSE|TRUE|TRUE|TRUE
5695351|Seattle Marriott Waterfront|Seattle, WA| 253|47.61070|-122.34649|FALSE|FALSE|TRUE|TRUE
5695351|Ramada by Wyndham SeaTac Airport|Seattle, WA|  92|47.45269|-122.29469|TRUE|FALSE|FALSE|TRUE
5695382|Conrad Las Vegas at Resorts World|Las Vegas, NV| 152|36.13448|-115.16566|FALSE|FALSE|TRUE|TRUE
5695382|Golden Gate Hotel and Casino|Las Vegas, NV|  61|36.17124|-115.14621|TRUE|FALSE|FALSE|TRUE
5695382|Bellagio|Las Vegas, NV| 696|36.11311|-115.17701|FALSE|TRUE|TRUE|TRUE
5695382|OYO Hotel and Casino Las Vegas|Las Vegas, NV|  71|36.10039|-115.16772|TRUE|TRUE|FALSE|TRUE
5695382|Silver Sevens Hotel & Casino|Las Vegas, NV|  66|36.11376|-115.15265|TRUE|FALSE|FALSE|TRUE
5695382|Tru by Hilton Las Vegas Airport, NV|Las Vegas, NV| 142|36.06485|-115.16270|FALSE|FALSE|TRUE|TRUE
5695382|The Carriage House|Las Vegas, NV| 112|36.10735|-115.16804|FALSE|TRUE|FALSE|TRUE
5695382|Palms Casino Resort|Las Vegas, NV| 137|36.11444|-115.19482|FALSE|TRUE|TRUE|TRUE
5695382|El Cortez Hotel and Casino - 21 and Over|Las Vegas, NV|  68|36.16943|-115.13873|TRUE|FALSE|FALSE|TRUE
5695382|The Signature at MGM Grand (All Suites)|Las Vegas, NV| 145|36.10607|-115.16678|FALSE|TRUE|TRUE|TRUE
5695382|Oasis at Gold Spike - Adults Only|Las Vegas, NV|  60|36.17095|-115.13982|TRUE|FALSE|FALSE|TRUE
5695382|The Palazzo at The Venetian|Las Vegas, NV| 195|36.12400|-115.16796|FALSE|FALSE|TRUE|TRUE
5695382|Hotel Apache|Las Vegas, NV|  55|36.17113|-115.14408|TRUE|FALSE|FALSE|TRUE
5695382|Super 8 by Wyndham Las Vegas North Strip/Fremont St. Area|Las Vegas, NV|  49|36.15606|-115.14829|TRUE|FALSE|FALSE|TRUE
5695382|ARIA Sky Suites|Las Vegas, NV|1185|36.10765|-115.17577|FALSE|TRUE|TRUE|TRUE
5695382|Tropicana Las Vegas - a DoubleTree by Hilton Hotel|Las Vegas, NV|  81|36.09963|-115.17136|FALSE|TRUE|FALSE|TRUE
5695382|Hilton Grand Vacations Club Elara Center Strip Las Vegas|Las Vegas, NV| 170|36.10881|-115.16832|FALSE|TRUE|TRUE|TRUE
5695382|Howard Johnson by Wyndham Las Vegas near the Strip|Las Vegas, NV|  57|36.09948|-115.16580|TRUE|TRUE|FALSE|TRUE
5695382|NoMad Las Vegas|Las Vegas, NV| 236|36.10474|-115.17651|FALSE|TRUE|TRUE|TRUE
5695382|Virgin Hotels Las Vegas, Curio Collection by Hilton|Las Vegas, NV| 147|36.10877|-115.15373|FALSE|FALSE|TRUE|TRUE
5695382|Four Queens Hotel and Casino|Las Vegas, NV|  67|36.16987|-115.14371|TRUE|FALSE|FALSE|TRUE
5695382|Mardi Gras Hotel & Casino|Las Vegas, NV|  67|36.12549|-115.15446|TRUE|FALSE|FALSE|TRUE
5695383|Conrad Las Vegas at Resorts World|Las Vegas, NV| 152|36.13448|-115.16566|FALSE|FALSE|TRUE|TRUE
5695383|Hotel Apache|Las Vegas, NV|  55|36.17113|-115.14408|TRUE|FALSE|FALSE|TRUE
5695383|Howard Johnson by Wyndham Las Vegas near the Strip|Las Vegas, NV|  57|36.09948|-115.16580|TRUE|TRUE|FALSE|TRUE
5695383|Tru by Hilton Las Vegas Airport, NV|Las Vegas, NV| 142|36.06485|-115.16270|FALSE|FALSE|TRUE|TRUE
5695383|OYO Hotel and Casino Las Vegas|Las Vegas, NV|  71|36.10039|-115.16772|TRUE|TRUE|FALSE|TRUE
5695383|El Cortez Hotel and Casino - 21 and Over|Las Vegas, NV|  68|36.16943|-115.13873|TRUE|FALSE|FALSE|TRUE
5695383|The Palazzo at The Venetian|Las Vegas, NV| 195|36.12400|-115.16796|FALSE|FALSE|TRUE|TRUE
5695383|Golden Gate Hotel and Casino|Las Vegas, NV|  61|36.17124|-115.14621|TRUE|FALSE|FALSE|TRUE
5695383|Palms Casino Resort|Las Vegas, NV| 137|36.11444|-115.19482|FALSE|TRUE|TRUE|TRUE
5695383|Mardi Gras Hotel & Casino|Las Vegas, NV|  67|36.12549|-115.15446|TRUE|FALSE|FALSE|TRUE
5695383|Oasis at Gold Spike - Adults Only|Las Vegas, NV|  60|36.17095|-115.13982|TRUE|FALSE|FALSE|TRUE
5695383|NoMad Las Vegas|Las Vegas, NV| 236|36.10474|-115.17651|FALSE|TRUE|TRUE|TRUE
5695383|Bellagio|Las Vegas, NV| 696|36.11311|-115.17701|FALSE|TRUE|TRUE|TRUE
5695383|The Signature at MGM Grand (All Suites)|Las Vegas, NV| 145|36.10607|-115.16678|FALSE|TRUE|TRUE|TRUE
5695383|The Carriage House|Las Vegas, NV| 112|36.10735|-115.16804|FALSE|TRUE|FALSE|TRUE
5695383|Four Queens Hotel and Casino|Las Vegas, NV|  67|36.16987|-115.14371|TRUE|FALSE|FALSE|TRUE
5695383|Hilton Grand Vacations Club Elara Center Strip Las Vegas|Las Vegas, NV| 170|36.10881|-115.16832|FALSE|TRUE|TRUE|TRUE
5695383|Super 8 by Wyndham Las Vegas North Strip/Fremont St. Area|Las Vegas, NV|  49|36.15606|-115.14829|TRUE|FALSE|FALSE|TRUE
5695383|Virgin Hotels Las Vegas, Curio Collection by Hilton|Las Vegas, NV| 147|36.10877|-115.15373|FALSE|FALSE|TRUE|TRUE
5695383|Silver Sevens Hotel & Casino|Las Vegas, NV|  66|36.11376|-115.15265|TRUE|FALSE|FALSE|TRUE
5695383|ARIA Sky Suites|Las Vegas, NV|1185|36.10765|-115.17577|FALSE|TRUE|TRUE|TRUE
5695383|Tropicana Las Vegas - a DoubleTree by Hilton Hotel|Las Vegas, NV|  81|36.09963|-115.17136|FALSE|TRUE|FALSE|TRUE
5695418|Antonio Hotel|Inglewood, CA|  86|33.96168|-118.35313|TRUE|TRUE|FALSE|TRUE
5695418|Starlight Inn La Brea|Inglewood, CA|  88|34.04133|-118.34668|TRUE|FALSE|FALSE|TRUE
5695418|Wingate by Wyndham Los Angeles International Airport LAX|Inglewood, CA| 118|33.94273|-118.36961|FALSE|TRUE|FALSE|TRUE
5695418|Hollywood Inn Suites Hotel|Inglewood, CA|  87|33.91615|-118.29309|TRUE|FALSE|FALSE|TRUE
5695418|Royal Century Hotel|Inglewood, CA|  92|33.94491|-118.35159|FALSE|TRUE|FALSE|TRUE
5695418|Satellite Motel|Inglewood, CA|  91|33.92324|-118.28229|TRUE|FALSE|FALSE|TRUE
5695418|The Maybourne Beverly Hills|Inglewood, CA|1213|34.06797|-118.39875|FALSE|FALSE|TRUE|TRUE
5695418|The Beverly Hills Hotel|Inglewood, CA|1571|33.96168|-118.35313|FALSE|TRUE|TRUE|TRUE
5695418|Four Seasons Los Angeles at Beverly Hills|Inglewood, CA|1063|34.07305|-118.38934|FALSE|FALSE|TRUE|TRUE
5695418|Central Inn Motel on 41 Street|Inglewood, CA|  86|34.00935|-118.25629|TRUE|FALSE|FALSE|TRUE
5695418|Beverly Wilshire - Beverly Hills, A Four Seasons Hotel|Inglewood, CA|1122|34.06674|-118.40077|FALSE|FALSE|TRUE|TRUE
5695418|The Peninsula Beverly Hills|Inglewood, CA|1099|34.06576|-118.41072|FALSE|FALSE|TRUE|TRUE
5695418|Comet Motel|Inglewood, CA|  91|33.93788|-118.26499|TRUE|FALSE|FALSE|TRUE
5695418|LAX Stadium Inn - El Segundo/Inglewood|Inglewood, CA|  86|33.93112|-118.35535|TRUE|TRUE|FALSE|TRUE
5695418|The West Hollywood EDITION|Inglewood, CA| 722|34.09036|-118.38912|FALSE|FALSE|TRUE|TRUE
5695418|4 Star Motel|Inglewood, CA|  91|33.97261|-118.28232|TRUE|FALSE|FALSE|TRUE
5695418|L'Ermitage Beverly Hills|Inglewood, CA| 804|34.07254|-118.39540|FALSE|FALSE|TRUE|TRUE
5695418|Holiday Inn Los Angeles - LAX Airport, an IHG Hotel|Inglewood, CA| 146|33.94620|-118.37092|FALSE|TRUE|FALSE|TRUE
5695418|Redondo Beach Inn|Inglewood, CA|  83|33.88725|-118.31193|TRUE|FALSE|FALSE|TRUE
5695418|Pendry West Hollywood|Inglewood, CA| 626|34.09440|-118.37379|FALSE|FALSE|TRUE|TRUE
5695418|Crenshaw Inn Motel|Inglewood, CA|  93|33.98272|-118.33132|FALSE|TRUE|FALSE|TRUE
5695418|The Ritz-Carlton, Los Angeles|Inglewood, CA| 854|34.04526|-118.26662|FALSE|FALSE|TRUE|TRUE
5695418|Central Inn Motel|Inglewood, CA|  87|34.00935|-118.25629|TRUE|FALSE|FALSE|TRUE
5695418|H3 Inn & Suites - LAX Airport - Los Angeles|Inglewood, CA| 110|33.94569|-118.36044|FALSE|TRUE|FALSE|TRUE
5695418|Quality Inn & Suites Los Angeles Airport - LAX|Inglewood, CA| 107|33.94493|-118.36455|FALSE|TRUE|FALSE|TRUE
5695418|Waldorf Astoria Beverly Hills|Inglewood, CA|1154|34.06668|-118.41158|FALSE|FALSE|TRUE|TRUE
5695418|La Quinta Inn & Suites by Wyndham Inglewood|Inglewood, CA| 117|33.93125|-118.34332|FALSE|TRUE|FALSE|TRUE
5695426|Stonecroft Inn|Detroit, MI| 108|42.27279| -83.01288|TRUE|FALSE|FALSE|TRUE
5695426|Caesars Windsor|Detroit, MI| 166|42.32013| -83.03351|FALSE|FALSE|TRUE|TRUE
5695426|MotorCity Casino Hotel|Detroit, MI| 332|42.33889| -83.06778|FALSE|TRUE|TRUE|TRUE
5695426|Comfort Inn Windsor|Detroit, MI| 116|42.27391| -83.01523|TRUE|FALSE|FALSE|TRUE
5695426|Baymont by Wyndham Downtown Detroit|Detroit, MI| 114|42.34123| -83.01435|TRUE|FALSE|FALSE|TRUE
5695426|Howard Johnson Plaza Hotel by Wyndham Windsor|Detroit, MI|  66|42.28575| -83.01772|TRUE|FALSE|FALSE|TRUE
5695426|Holiday Inn Express Windsor Waterfront, an IHG Hotel|Detroit, MI| 125|42.31947| -83.03937|TRUE|FALSE|FALSE|TRUE
5695426|Hollywood Casino at Greektown|Detroit, MI| 258|42.33476| -83.04111|FALSE|TRUE|TRUE|TRUE
5695426|Extended Stay America Suites Detroit Dearborn|Detroit, MI| 100|42.32078| -83.22193|TRUE|FALSE|FALSE|TRUE
5695426|Hotel Indigo Detroit Downtown, an IHG Hotel|Detroit, MI| 217|42.33140| -83.05056|FALSE|TRUE|TRUE|TRUE
5695426|Detroit Marriott at the Renaissance Center|Detroit, MI| 299|42.32854| -83.04073|FALSE|TRUE|TRUE|TRUE
5695426|Hotel Chataura|Detroit, MI|  93|42.32265| -83.17231|TRUE|FALSE|FALSE|TRUE
5695426|Shinola Hotel|Detroit, MI| 263|42.33439| -83.04858|FALSE|TRUE|TRUE|TRUE
5695426|Atheneum Suite Hotel|Detroit, MI| 259|42.33409| -83.04267|FALSE|TRUE|TRUE|TRUE
5695426|Comfort Inn Downtown|Detroit, MI| 137|42.33701| -83.02673|FALSE|TRUE|FALSE|TRUE
5695426|Travelodge by Wyndham Windsor|Detroit, MI|  87|42.26241| -82.97094|TRUE|FALSE|FALSE|TRUE
5695426|Comfort Inn Near Greenfield Village|Detroit, MI| 123|42.30758| -83.23197|TRUE|FALSE|FALSE|TRUE
5695426|The Siren Hotel|Detroit, MI| 212|42.33574| -83.04859|FALSE|TRUE|TRUE|TRUE
5695426|Best Western Plus Waterfront Hotel|Detroit, MI| 129|42.31881| -83.04286|TRUE|FALSE|FALSE|TRUE
5695426|MGM Grand Detroit|Detroit, MI| 340|42.33326| -83.06006|FALSE|TRUE|TRUE|TRUE
5695426|Detroit Foundation Hotel|Detroit, MI| 346|42.32833| -83.04836|FALSE|TRUE|TRUE|TRUE
5695436|Microtel Inn by Wyndham Atlanta Airport|Atlanta, GA|  97|33.62339| -84.45537|TRUE|FALSE|FALSE|TRUE
5695436|Ellis Hotel, Atlanta, A Tribute Portfolio Hotel by Marriott|Atlanta, GA| 431|33.74875| -84.38768|FALSE|TRUE|TRUE|TRUE
5695436|Econo Lodge Conley|Atlanta, GA|  84|33.66714| -84.33847|TRUE|FALSE|FALSE|TRUE
5695436|Nobu Hotel Atlanta|Atlanta, GA| 467|33.85439| -84.36349|FALSE|FALSE|TRUE|TRUE
5695436|Howard Johnson by Wyndham Atlanta Airport/College Park|Atlanta, GA|  94|33.61529| -84.43967|TRUE|FALSE|FALSE|TRUE
5695436|Rodeway Inn At Six Flags|Atlanta, GA| 100|33.77213| -84.55608|TRUE|FALSE|FALSE|TRUE
5695436|Rodeway Inn|Atlanta, GA|  91|33.74900| -84.38798|TRUE|TRUE|FALSE|TRUE
5695436|OYO Hotel Decatur I-285 The Perimeter|Atlanta, GA| 102|33.73786| -84.23582|TRUE|FALSE|FALSE|TRUE
5695436|Omni Atlanta Hotel at CNN Center|Atlanta, GA| 416|33.75915| -84.39494|FALSE|TRUE|FALSE|TRUE
5695436|The Candler Hotel Atlanta, Curio Collection by Hilton|Atlanta, GA| 401|33.75693| -84.38768|FALSE|TRUE|FALSE|TRUE
5695436|Atlanta Airport Marriott Gateway|Atlanta, GA| 448|33.64423| -84.45531|FALSE|FALSE|TRUE|TRUE
5695436|Econo Lodge At Six Flags|Atlanta, GA|  91|33.77361| -84.55028|TRUE|FALSE|FALSE|TRUE
5695436|Reverb by Hard Rock Atlanta Downtown|Atlanta, GA| 366|33.75348| -84.39925|FALSE|TRUE|FALSE|TRUE
5695436|Savannah Suites Atlanta Airport|Atlanta, GA| 103|33.65765| -84.51996|TRUE|FALSE|FALSE|TRUE
5695436|Fairfield Inn & Suites Atlanta Downtown|Atlanta, GA| 401|33.75287| -84.39119|FALSE|TRUE|FALSE|TRUE
5695436|Courtyard by Marriott Atlanta Downtown|Atlanta, GA| 530|33.75820| -84.38809|FALSE|TRUE|TRUE|TRUE
5695436|AC Hotel by Marriott Atlanta Downtown|Atlanta, GA| 483|33.75994| -84.39102|FALSE|TRUE|TRUE|TRUE
5695436|Days Inn by Wyndham Hartsfield Jackson Atlanta Airport West|Atlanta, GA|  90|33.63341| -84.49180|TRUE|FALSE|FALSE|TRUE
5695436|Omni Hotel At The Battery Atlanta|Atlanta, GA| 428|33.88944| -84.46768|FALSE|FALSE|TRUE|TRUE
5695436|Residence Inn by Marriott Atlanta Midtown/Georgia Tech|Atlanta, GA| 460|33.78310| -84.38746|FALSE|FALSE|TRUE|TRUE
5695436|Wingate by Wyndham - Atlanta at Six Flags|Atlanta, GA|  91|33.84257| -84.31486|TRUE|FALSE|FALSE|TRUE
5695436|Home2 Suites by Hilton Atlanta Downtown|Atlanta, GA| 419|33.75698| -84.39114|FALSE|TRUE|TRUE|TRUE
5695436|Hilton Atlanta|Atlanta, GA| 460|33.76151| -84.38330|FALSE|FALSE|TRUE|TRUE
5695436|W Atlanta Downtown|Atlanta, GA| 425|33.76491| -84.38954|FALSE|TRUE|TRUE|TRUE
5695437|Econo Lodge At Six Flags|Atlanta, GA|  91|33.77361| -84.55028|TRUE|FALSE|FALSE|TRUE
5695437|Omni Atlanta Hotel at CNN Center|Atlanta, GA| 416|33.75915| -84.39494|FALSE|TRUE|FALSE|TRUE
5695437|Atlanta Airport Marriott Gateway|Atlanta, GA| 448|33.64423| -84.45531|FALSE|FALSE|TRUE|TRUE
5695437|Omni Hotel At The Battery Atlanta|Atlanta, GA| 428|33.88944| -84.46768|FALSE|FALSE|TRUE|TRUE
5695437|Microtel Inn by Wyndham Atlanta Airport|Atlanta, GA|  97|33.62339| -84.45537|TRUE|FALSE|FALSE|TRUE
5695437|Home2 Suites by Hilton Atlanta Downtown|Atlanta, GA| 419|33.75698| -84.39114|FALSE|TRUE|TRUE|TRUE
5695437|W Atlanta Downtown|Atlanta, GA| 425|33.76491| -84.38954|FALSE|TRUE|TRUE|TRUE
5695437|Days Inn by Wyndham Hartsfield Jackson Atlanta Airport West|Atlanta, GA|  90|33.63341| -84.49180|TRUE|FALSE|FALSE|TRUE
5695437|Reverb by Hard Rock Atlanta Downtown|Atlanta, GA| 366|33.75348| -84.39925|FALSE|TRUE|FALSE|TRUE
5695437|Howard Johnson by Wyndham Atlanta Airport/College Park|Atlanta, GA|  94|33.61529| -84.43967|TRUE|FALSE|FALSE|TRUE
5695437|Econo Lodge Conley|Atlanta, GA|  84|33.66714| -84.33847|TRUE|FALSE|FALSE|TRUE
5695437|AC Hotel by Marriott Atlanta Downtown|Atlanta, GA| 483|33.75994| -84.39102|FALSE|TRUE|TRUE|TRUE
5695437|Savannah Suites Atlanta Airport|Atlanta, GA| 103|33.65765| -84.51996|TRUE|FALSE|FALSE|TRUE
5695437|The Candler Hotel Atlanta, Curio Collection by Hilton|Atlanta, GA| 401|33.75693| -84.38768|FALSE|TRUE|FALSE|TRUE
5695437|Fairfield Inn & Suites Atlanta Downtown|Atlanta, GA| 401|33.75287| -84.39119|FALSE|TRUE|FALSE|TRUE
5695437|Rodeway Inn At Six Flags|Atlanta, GA| 100|33.77213| -84.55608|TRUE|FALSE|FALSE|TRUE
5695437|Wingate by Wyndham - Atlanta at Six Flags|Atlanta, GA|  91|33.84257| -84.31486|TRUE|FALSE|FALSE|TRUE
5695437|Hilton Atlanta|Atlanta, GA| 460|33.76151| -84.38330|FALSE|FALSE|TRUE|TRUE
5695437|OYO Hotel Decatur I-285 The Perimeter|Atlanta, GA| 102|33.73786| -84.23582|TRUE|FALSE|FALSE|TRUE
5695437|Residence Inn by Marriott Atlanta Midtown/Georgia Tech|Atlanta, GA| 460|33.78310| -84.38746|FALSE|FALSE|TRUE|TRUE
5695437|Ellis Hotel, Atlanta, A Tribute Portfolio Hotel by Marriott|Atlanta, GA| 431|33.74875| -84.38768|FALSE|TRUE|TRUE|TRUE
5695437|Rodeway Inn|Atlanta, GA|  91|33.74900| -84.38798|TRUE|TRUE|FALSE|TRUE
5695437|Nobu Hotel Atlanta|Atlanta, GA| 467|33.85439| -84.36349|FALSE|FALSE|TRUE|TRUE
5695437|Courtyard by Marriott Atlanta Downtown|Atlanta, GA| 530|33.75820| -84.38809|FALSE|TRUE|TRUE|TRUE
5695474|Enchanté Boutique Hotel|Santa Clara, CA| 512|37.38078|-122.11443|FALSE|FALSE|TRUE|TRUE
5695474|Signature Inn Santa Clara|Santa Clara, CA| 100|37.34493|-121.93227|TRUE|FALSE|FALSE|TRUE
5695474|Extended Studio Suites|Santa Clara, CA|  98|37.37558|-121.91870|TRUE|FALSE|FALSE|TRUE
5695474|Super 8 by Wyndham Mountain View|Santa Clara, CA| 114|37.38965|-122.09332|TRUE|FALSE|FALSE|TRUE
5695474|Residence Inn by Marriott San Jose Cupertino|Santa Clara, CA| 436|37.32433|-122.00993|FALSE|FALSE|TRUE|TRUE
5695474|Hotel Valencia Santana Row|Santa Clara, CA| 582|37.32084|-121.94809|FALSE|FALSE|TRUE|TRUE
5695474|Hotel Strata|Santa Clara, CA| 407|37.38121|-122.07586|FALSE|FALSE|TRUE|TRUE
5695474|Hilton San Jose|Santa Clara, CA| 365|37.32930|-121.89058|FALSE|FALSE|TRUE|TRUE
5695474|AC Hotel by Marriott San Jose Santa Clara|Santa Clara, CA| 218|37.38548|-121.98044|FALSE|TRUE|FALSE|TRUE
5695474|Quality Inn Santa Clara Convention Center|Santa Clara, CA| 114|37.40705|-121.99828|TRUE|TRUE|FALSE|TRUE
5695474|Santa Clara Marriott|Santa Clara, CA| 382|37.39068|-121.97426|FALSE|TRUE|TRUE|TRUE
5695474|Aloft Santa Clara, a Marriott Hotel|Santa Clara, CA| 236|37.41785|-121.97645|FALSE|TRUE|FALSE|TRUE
5695474|The Nest Hotel Palo Alto|Santa Clara, CA| 446|37.41735|-122.12899|FALSE|FALSE|TRUE|TRUE
5695474|Comfort Suites San Jose Airport|Santa Clara, CA| 104|37.36352|-121.91064|TRUE|FALSE|FALSE|TRUE
5695474|Hilton Santa Clara|Santa Clara, CA| 238|37.40263|-121.97688|FALSE|TRUE|FALSE|TRUE
5695474|Bayshore Inn|Santa Clara, CA| 489|37.36507|-121.89221|FALSE|FALSE|TRUE|TRUE
5695474|Quality Inn San Jose Airport/Silicon Valley|Santa Clara, CA| 120|37.40412|-121.90435|TRUE|FALSE|FALSE|TRUE
5695474|Element Santa Clara, a Marriott Hotel|Santa Clara, CA| 243|37.38815|-121.95900|FALSE|TRUE|FALSE|TRUE
5695474|Days Inn by Wyndham Fremont|Santa Clara, CA| 108|37.49370|-121.93218|TRUE|FALSE|FALSE|TRUE
5695474|Radisson Hotel Sunnyvale – Silicon Valley|Santa Clara, CA| 210|37.40954|-122.00224|FALSE|TRUE|FALSE|TRUE
5695474|Hotel De Anza, a Destination by Hyatt Hotel|Santa Clara, CA| 384|37.33442|-121.89505|FALSE|FALSE|TRUE|TRUE
5695474|Extended Stay America Suites Fremont Newark|Santa Clara, CA| 120|37.53234|-122.00339|TRUE|FALSE|FALSE|TRUE
5695474|Delta Hotels by Marriott Santa Clara|Santa Clara, CA| 301|37.38366|-121.96216|FALSE|TRUE|FALSE|TRUE
5695474|Extended Stay America Suites Fremont Warm Springs|Santa Clara, CA| 120|37.35411|-121.95524|TRUE|FALSE|FALSE|TRUE
5695474|Hyatt Regency Santa Clara|Santa Clara, CA| 226|37.40513|-121.97692|FALSE|TRUE|FALSE|TRUE
5695474|Shashi Hotel Mountain View, an Urban Resort|Santa Clara, CA| 458|37.41695|-122.07772|FALSE|FALSE|TRUE|TRUE
5695474|Courtyard by Marriott San Jose North/Silicon Valley|Santa Clara, CA| 353|37.41889|-121.95422|FALSE|TRUE|FALSE|TRUE
5695474|Quality Inn & Suites Silicon Valley|Santa Clara, CA|  91|37.35174|-121.97989|TRUE|FALSE|FALSE|TRUE
5695491|Baymont by Wyndham Jacksonville/Butler Blvd|Jacksonville, FL|  95|30.24634| -81.59905|TRUE|FALSE|FALSE|TRUE
5695491|Embassy Suites by Hilton Jacksonville Baymeadows|Jacksonville, FL| 223|30.22007| -81.56508|FALSE|FALSE|TRUE|TRUE
5695491|Marriott Jacksonville|Jacksonville, FL| 260|30.24762| -81.58968|FALSE|FALSE|TRUE|TRUE
5695491|Hyatt Regency Jacksonville|Jacksonville, FL| 252|30.32438| -81.65595|FALSE|TRUE|TRUE|TRUE
5695491|Extended Stay America Suites Jacksonville Lenoir Avenue East|Jacksonville, FL|  92|30.25048| -81.59692|TRUE|FALSE|FALSE|TRUE
5695491|Hilton Garden Inn Jacksonville Downtown Southbank|Jacksonville, FL| 182|30.31250| -81.65355|FALSE|TRUE|FALSE|TRUE
5695491|SureStay Hotel by Best Western Jacksonville South|Jacksonville, FL| 103|30.26602| -81.61604|FALSE|TRUE|FALSE|TRUE
5695491|Hyatt Place Jacksonville / St. Johns Town Center|Jacksonville, FL| 287|30.25682| -81.53036|FALSE|FALSE|TRUE|TRUE
5695491|Quality Inn & Suites|Jacksonville, FL|  90|30.21781| -81.57070|TRUE|FALSE|FALSE|TRUE
5695491|Aloft Jacksonville Tapestry Park, a Marriott Hotel|Jacksonville, FL| 183|30.25969| -81.55493|FALSE|FALSE|TRUE|TRUE
5695491|Hampton Inn Jacksonville-Downtown-I-95|Jacksonville, FL| 173|30.31661| -81.65675|FALSE|TRUE|FALSE|TRUE
5695491|WoodSpring Suites Jacksonville I-295 East|Jacksonville, FL|  76|30.35487| -81.55643|TRUE|FALSE|FALSE|TRUE
5695491|Stayable Suites Jacksonville West|Jacksonville, FL|  77|30.33473| -81.75988|TRUE|FALSE|FALSE|TRUE
5695491|SpringHill Suites by Marriott Jacksonville|Jacksonville, FL| 186|30.26692| -81.55672|FALSE|FALSE|TRUE|TRUE
5695491|Stayable Suites Jacksonville North|Jacksonville, FL|  80|30.42883| -81.65767|TRUE|FALSE|FALSE|TRUE
5695491|Residence Inn by Marriott Jacksonville Downtown|Jacksonville, FL| 208|30.32225| -81.67529|FALSE|TRUE|TRUE|TRUE
5695491|Red Roof Inn Jacksonville - Cruise Port|Jacksonville, FL|  96|30.43278| -81.65759|TRUE|FALSE|FALSE|TRUE
5695491|Southbank Hotel by Marriott Jacksonville Riverwalk|Jacksonville, FL| 202|30.24760| -81.58965|FALSE|FALSE|TRUE|TRUE
5695491|Econo Lodge|Jacksonville, FL|  87|30.48362| -81.64882|TRUE|FALSE|FALSE|TRUE
5695491|Sheraton Jacksonville Hotel|Jacksonville, FL| 327|30.24826| -81.53799|FALSE|FALSE|TRUE|TRUE
5695491|Homewood Suites by Hilton Jacksonville Downtown-Southbank|Jacksonville, FL| 183|30.31232| -81.65358|FALSE|TRUE|TRUE|TRUE
5695491|Extended Stay America Suites Jacksonville Riverwalk Conv Ctr|Jacksonville, FL| 151|30.31668| -81.65557|FALSE|TRUE|FALSE|TRUE
5695491|Metro Inn & Suites|Jacksonville, FL|  81|30.36553| -81.67090|TRUE|TRUE|FALSE|TRUE
5695491|DoubleTree by Hilton Hotel Jacksonville Riverfront|Jacksonville, FL| 193|30.32011| -81.65795|FALSE|TRUE|TRUE|TRUE
5695491|Extended Stay America Suites Jacksonville Salisbury Rd|Jacksonville, FL|  97|30.25048| -81.59692|TRUE|FALSE|FALSE|TRUE
5695491|Extended Stay America Suites Jacksonville St Johns Towne Ctr|Jacksonville, FL| 102|30.33218| -81.65565|FALSE|TRUE|FALSE|TRUE
5695530|Super 8 by Wyndham Meadowlands|East Rutherford, NJ| 135|40.81955| -74.06378|FALSE|TRUE|FALSE|TRUE
5695530|InterContinental New York Times Square, an IHG Hotel|East Rutherford, NJ| 590|40.75866| -73.98938|FALSE|FALSE|TRUE|TRUE
5695530|Feather Factory|East Rutherford, NJ| 101|40.83399| -74.09709|TRUE|TRUE|FALSE|TRUE
5695530|Hilton Meadowlands|East Rutherford, NJ| 169|40.80516| -74.07849|FALSE|TRUE|FALSE|TRUE
5695530|Howard Johnson by Wyndham North Bergen|East Rutherford, NJ| 105|40.76433| -74.04720|TRUE|FALSE|FALSE|TRUE
5695530|WestHouse New York|East Rutherford, NJ| 537|40.76455| -73.98137|FALSE|FALSE|TRUE|TRUE
5695530|Loews Regency New York Hotel|East Rutherford, NJ| 532|40.76457| -73.96901|FALSE|FALSE|TRUE|TRUE
5695530|The Dominick|East Rutherford, NJ| 560|40.72547| -74.00533|FALSE|FALSE|TRUE|TRUE
5695530|Hotel Barriere Fouquets New York|East Rutherford, NJ| 896|40.72362| -74.00975|FALSE|FALSE|TRUE|TRUE
5695530|Days Inn by Wyndham Jersey City / NYC Area|East Rutherford, NJ| 109|40.75580| -74.05475|TRUE|FALSE|FALSE|TRUE
5695530|Steinway Hotel|East Rutherford, NJ| 121|40.83399| -74.09709|FALSE|TRUE|FALSE|TRUE
5695530|Voyage Hotel|East Rutherford, NJ|  98|40.75973| -73.94108|TRUE|FALSE|FALSE|TRUE
5695530|Rodeway Inn Meadowlands|East Rutherford, NJ|  94|40.79292| -74.05712|TRUE|TRUE|FALSE|TRUE
5695530|Astoria Delancy Inn & Suites|East Rutherford, NJ| 106|40.75719| -73.93643|TRUE|FALSE|FALSE|TRUE
5695530|InterContinental New York Barclay, an IHG Hotel|East Rutherford, NJ| 533|40.75566| -73.97353|FALSE|FALSE|TRUE|TRUE
5695530|Equinox Hotel New York|East Rutherford, NJ| 825|40.75465| -74.00221|FALSE|FALSE|TRUE|TRUE
5695530|Rodeway Inn Capri|East Rutherford, NJ| 100|40.85428| -74.03318|TRUE|FALSE|FALSE|TRUE
5695530|Extended Stay America Suites Meadowlands Rutherford|East Rutherford, NJ| 162|40.80552| -74.07585|FALSE|TRUE|FALSE|TRUE
5695530|Days Inn by Wyndham Ridgefield NJ|East Rutherford, NJ| 109|40.84481| -74.00768|TRUE|FALSE|FALSE|TRUE
5695530|Renaissance Meadowlands Hotel|East Rutherford, NJ| 211|40.81150| -74.10409|FALSE|TRUE|FALSE|TRUE
5695530|The Knickerbocker Hotel|East Rutherford, NJ| 572|40.75558| -73.98627|FALSE|FALSE|TRUE|TRUE
5695530|Hampton Inn Carlstadt-At The Meadowlands|East Rutherford, NJ| 164|40.82162| -74.06893|FALSE|TRUE|FALSE|TRUE
5695530|Americana Inn|East Rutherford, NJ| 113|40.75229| -73.98555|TRUE|FALSE|FALSE|TRUE
5695530|SpringHill Suites by Marriott East Rutherford Meadowlands/Carlstadt|East Rutherford, NJ| 238|40.84038| -74.09070|FALSE|TRUE|FALSE|TRUE
5695530|Meadowlands Plaza Hotel|East Rutherford, NJ| 163|40.79729| -74.06352|FALSE|TRUE|FALSE|TRUE
5695530|Hotel 21 Nyc|East Rutherford, NJ|  86|40.75367| -73.94228|TRUE|FALSE|FALSE|TRUE
5695530|1 Hotel Central Park|East Rutherford, NJ| 518|40.76481| -73.97646|FALSE|FALSE|TRUE|TRUE
5695530|The Towers at Lotte New York Palace|East Rutherford, NJ| 887|40.75797| -73.97487|FALSE|FALSE|TRUE|TRUE
5695547|Hampton Inn Buffalo South/I-90|Orchard Park, NY| 209|42.82988| -78.78885|FALSE|TRUE|FALSE|TRUE
5695547|Hampton Inn Buffalo-Hamburg|Orchard Park, NY| 166|42.73895| -78.84579|TRUE|TRUE|FALSE|TRUE
5695547|Courtyard Buffalo Downtown / Canalside|Orchard Park, NY| 490|42.87817| -78.87631|FALSE|TRUE|TRUE|TRUE
5695547|Residence Inn by Marriott Buffalo Galleria Mall|Orchard Park, NY| 158|42.90729| -78.77037|TRUE|FALSE|FALSE|TRUE
5695547|Best Western Plus Galleria Inn & Suites|Orchard Park, NY| 231|42.87699| -78.79392|FALSE|TRUE|TRUE|TRUE
5695547|Home2 Suites by Hilton Buffalo Airport / Galleria Mall|Orchard Park, NY| 183|42.90555| -78.76556|TRUE|FALSE|FALSE|TRUE
5695547|Econo Lodge South|Orchard Park, NY| 142|42.79112| -78.81852|TRUE|TRUE|FALSE|TRUE
5695547|Quality Inn Hamburg|Orchard Park, NY| 106|42.73895| -78.84579|TRUE|TRUE|FALSE|TRUE
5695547|Hampton Inn Buffalo-Airport / Galleria Mall|Orchard Park, NY| 154|42.90747| -78.77238|TRUE|FALSE|FALSE|TRUE
5695547|Curtiss Hotel, Ascend Hotel Collection|Orchard Park, NY| 329|42.88951| -78.87597|FALSE|FALSE|TRUE|TRUE
5695547|M Hotel Buffalo|Orchard Park, NY| 291|42.90977| -78.76056|FALSE|FALSE|TRUE|TRUE
5695547|Hampton Inn East Aurora|Orchard Park, NY| 482|42.76626| -78.60822|FALSE|FALSE|TRUE|TRUE
5695547|Residence Inn by Marriott Buffalo Downtown|Orchard Park, NY| 542|42.90112| -78.87365|FALSE|FALSE|TRUE|TRUE
5695547|Embassy Suites Buffalo|Orchard Park, NY| 277|42.88969| -78.87765|FALSE|FALSE|TRUE|TRUE
5695547|Best Western on the Avenue|Orchard Park, NY| 249|42.89826| -78.87487|FALSE|FALSE|TRUE|TRUE
5695547|Comfort Inn And Suites Hamburg|Orchard Park, NY|  91|42.73984| -78.85089|TRUE|TRUE|FALSE|TRUE
5695547|Staybridge Suites West Seneca, an IHG Hotel|Orchard Park, NY| 209|42.83590| -78.75389|FALSE|TRUE|FALSE|TRUE
5695547|Baymont by Wyndham Buffalo|Orchard Park, NY| 113|42.90827| -78.75244|TRUE|FALSE|FALSE|TRUE
5695547|Super 8 by Wyndham Hamburg|Orchard Park, NY| 186|42.73834| -78.84703|TRUE|TRUE|FALSE|TRUE
5695547|Aloft Buffalo Downtown, a Marriott Hotel|Orchard Park, NY| 715|42.89337| -78.87391|FALSE|FALSE|TRUE|TRUE
5695547|The Westin Buffalo|Orchard Park, NY| 931|42.89122| -78.87687|FALSE|FALSE|TRUE|TRUE
5695547|Roycroft Inn|Orchard Park, NY| 184|42.76695| -78.61754|TRUE|TRUE|FALSE|TRUE
5695568|La Quinta Inn by Wyndham Denver Westminster|Denver, CO|  94|39.85300|-105.05179|TRUE|FALSE|FALSE|TRUE
5695568|Rodeway Inn Denver Downtown|Denver, CO|  97|39.75575|-105.01639|FALSE|TRUE|FALSE|TRUE
5695568|Home2 Suites by Hilton Denver Downtown Convention Center|Denver, CO| 140|39.74523|-104.99427|FALSE|TRUE|FALSE|TRUE
5695568|Super 8 by Wyndham Wheat Ridge/Denver West|Denver, CO|  96|39.78234|-105.10855|TRUE|FALSE|FALSE|TRUE
5695568|The Ritz-Carlton, Denver|Denver, CO| 578|39.75014|-104.99188|FALSE|FALSE|TRUE|TRUE
5695568|Embassy Suites Denver-Downtown/Convention Center|Denver, CO| 175|39.74410|-104.99482|FALSE|TRUE|FALSE|TRUE
5695568|Hyatt Regency Denver at Colorado Convention Center|Denver, CO| 242|39.74340|-104.99365|FALSE|FALSE|TRUE|TRUE
5695568|Quality Inn Denver Westminster|Denver, CO|  83|39.85124|-105.04978|TRUE|FALSE|FALSE|TRUE
5695568|HomeTowne Studios by Red Roof Denver - Thornton|Denver, CO|  84|39.91235|-104.98863|TRUE|FALSE|FALSE|TRUE
5695568|The Slate Denver, Tapestry Collection By Hilton|Denver, CO| 139|39.74091|-104.99477|FALSE|TRUE|FALSE|TRUE
5695568|Days Inn by Wyndham Denver Downtown|Denver, CO|  93|39.73973|-104.97571|TRUE|FALSE|FALSE|TRUE
5695568|Baymont by Wyndham Golden/Red Rocks|Denver, CO|  96|39.72645|-105.13097|TRUE|FALSE|FALSE|TRUE
5695568|Super 8 by Wyndham Henderson North East Denver|Denver, CO|  73|39.86165|-104.91073|TRUE|FALSE|FALSE|TRUE
5695568|Americas Best Value Inn Denver|Denver, CO|  74|39.77242|-104.84902|TRUE|FALSE|FALSE|TRUE
5695568|Warwick Denver|Denver, CO| 180|39.74440|-104.98326|FALSE|FALSE|TRUE|TRUE
5695568|Life House, Lower Highlands|Denver, CO| 658|39.76758|-105.00375|FALSE|FALSE|TRUE|TRUE
5695568|Four Seasons Hotel Denver|Denver, CO| 764|39.74648|-104.99819|FALSE|TRUE|TRUE|TRUE
5695568|Kimpton Hotel Born, an IHG Hotel|Denver, CO| 337|39.75327|-105.00203|FALSE|TRUE|TRUE|TRUE
5695568|HomeTowne Studios by Red Roof Denver - Glendale/Cherry Creek|Denver, CO|  92|39.70810|-104.93090|TRUE|FALSE|FALSE|TRUE
5695568|The Ramble Hotel|Denver, CO| 358|39.75735|-104.98659|FALSE|FALSE|TRUE|TRUE
5695568|The Westin Denver Downtown|Denver, CO| 156|39.74877|-104.99566|FALSE|TRUE|FALSE|TRUE
5695568|Hyatt Place Denver Downtown|Denver, CO| 193|39.74155|-104.99290|FALSE|FALSE|TRUE|TRUE
5695568|The Curtis Denver - a DoubleTree by Hilton Hotel|Denver, CO| 151|39.74573|-104.99707|FALSE|TRUE|FALSE|TRUE
5695568|Tru By Hilton Denver Downtown Convention Center|Denver, CO| 129|39.74523|-104.99427|FALSE|TRUE|FALSE|TRUE
5695568|Hotel Indigo Denver Downtown, an IHG Hotel|Denver, CO| 198|39.75556|-105.00010|FALSE|TRUE|TRUE|TRUE
5695568|Extended Stay America Suites Denver Lakewood South|Denver, CO|  94|39.65060|-105.07935|TRUE|FALSE|FALSE|TRUE
5695568|Super 8 by Wyndham Denver Central|Denver, CO|  78|39.80329|-104.98653|TRUE|FALSE|FALSE|TRUE
5695568|Thompson Denver|Denver, CO| 313|39.74987|-104.99779|FALSE|TRUE|TRUE|TRUE
5695586|Omni Severin Hotel|Indianapolis, IN| 189|39.76381| -86.15980|FALSE|TRUE|TRUE|TRUE
5695586|The Westin Indianapolis|Indianapolis, IN| 177|39.76647| -86.16359|FALSE|TRUE|FALSE|TRUE
5695586|Bottleworks Hotel|Indianapolis, IN| 387|39.77909| -86.14340|FALSE|FALSE|TRUE|TRUE
5695586|Super 8 by Wyndham Indianapolis South|Indianapolis, IN|  81|39.69757| -86.15026|TRUE|FALSE|FALSE|TRUE
5695586|Hampton Inn Indianapolis-South|Indianapolis, IN|  95|39.66398| -86.09375|TRUE|FALSE|FALSE|TRUE
5695586|Homewood Suites by Hilton Indianapolis-Downtown|Indianapolis, IN| 178|39.76381| -86.15772|FALSE|TRUE|TRUE|TRUE
5695586|JW Marriott Indianapolis|Indianapolis, IN| 221|39.76659| -86.16769|FALSE|TRUE|TRUE|TRUE
5695586|Extended Stay America Suites Indianapolis Airport W Southern|Indianapolis, IN|  74|39.72960| -86.25363|TRUE|FALSE|FALSE|TRUE
5695586|Crowne Plaza Indianapolis - Downtown Union Station, an IHG Hotel|Indianapolis, IN| 221|39.76840| -86.15807|FALSE|FALSE|TRUE|TRUE
5695586|Quality Inn & Suites|Indianapolis, IN|  82|39.84322| -86.25248|TRUE|FALSE|FALSE|TRUE
5695586|Extended Stay America Suites Indianapolis Airport|Indianapolis, IN|  77|39.72538| -86.26306|TRUE|FALSE|FALSE|TRUE
5695586|Home2 Suites by Hilton Indianapolis Downtown|Indianapolis, IN| 198|39.76897| -86.15590|FALSE|FALSE|TRUE|TRUE
5695586|Baymont by Wyndham Indianapolis West|Indianapolis, IN|  90|39.82521| -86.27816|TRUE|FALSE|FALSE|TRUE
5695586|Super 8 by Wyndham Indianapolis/Emerson Ave|Indianapolis, IN|  94|39.70099| -86.08389|TRUE|FALSE|FALSE|TRUE
5695586|Hampton Inn Indianapolis Downtown Across from Circle Centre|Indianapolis, IN| 158|39.76541| -86.15764|FALSE|TRUE|FALSE|TRUE
5695586|La Quinta Inn by Wyndham Indianapolis Airport Lynhurst|Indianapolis, IN|  83|39.72898| -86.25133|TRUE|FALSE|FALSE|TRUE
5695586|Marriott Indianapolis Downtown|Indianapolis, IN| 186|39.76663| -86.16481|FALSE|TRUE|TRUE|TRUE
5695586|Holiday Inn Indianapolis Downtown, an IHG Hotel|Indianapolis, IN| 132|39.76010| -86.16702|FALSE|TRUE|FALSE|TRUE
5695586|Sheraton Indianapolis City Centre Hotel|Indianapolis, IN| 188|39.76964| -86.15866|FALSE|FALSE|TRUE|TRUE
5695586|Ramada by Wyndham Indianapolis Speedway|Indianapolis, IN|  94|39.80660| -86.28421|TRUE|FALSE|FALSE|TRUE
5695586|Courtyard by Marriott Indianapolis Downtown|Indianapolis, IN| 198|39.76683| -86.16909|FALSE|TRUE|TRUE|TRUE
5695586|Quality Inn South|Indianapolis, IN|  78|39.69870| -86.18827|TRUE|FALSE|FALSE|TRUE
5695586|Hyatt Place Indianapolis Downtown|Indianapolis, IN| 203|39.76461| -86.15676|FALSE|TRUE|TRUE|TRUE
5695586|La Quinta Inn by Wyndham Indianapolis Airport Executive Dr|Indianapolis, IN|  95|39.72704| -86.25821|TRUE|FALSE|FALSE|TRUE
5695586|Tru By Hilton Indianapolis Downtown, IN|Indianapolis, IN| 138|39.75889| -86.15967|FALSE|TRUE|FALSE|TRUE
5695604|WoodSpring Suites Kansas City Mission|Kansas City, MO|  78|39.04066| -94.66719|TRUE|FALSE|FALSE|TRUE
5695604|The Raphael Hotel, Autograph Collection|Kansas City, MO| 669|39.03952| -94.59124|FALSE|TRUE|TRUE|TRUE
5695604|Hotel Lotus|Kansas City, MO| 419|39.05315| -94.47464|FALSE|TRUE|TRUE|TRUE
5695604|La Quinta Inn by Wyndham Kansas City North|Kansas City, MO|  76|39.14712| -94.55866|TRUE|FALSE|FALSE|TRUE
5695604|The Westin Kansas City at Crown Center|Kansas City, MO| 296|39.08335| -94.58284|FALSE|TRUE|TRUE|TRUE
5695604|Best Western Country Inn - North|Kansas City, MO|  99|39.17105| -94.54752|TRUE|FALSE|FALSE|TRUE
5695604|Extended Stay America Suites Kansas City South|Kansas City, MO|  90|38.95238| -94.50793|TRUE|FALSE|FALSE|TRUE
5695604|Extended Stay America Select Suites - Kansas City - Stadium|Kansas City, MO| 107|39.05517| -94.47950|TRUE|TRUE|FALSE|TRUE
5695604|Clarion Pointe|Kansas City, MO|  82|39.04711| -94.41583|TRUE|TRUE|FALSE|TRUE
5695604|Courtyard by Marriott Kansas City Downtown/Convention Center|Kansas City, MO| 228|39.09506| -94.58421|FALSE|TRUE|TRUE|TRUE
5695604|Super 8 by Wyndham Kansas City|Kansas City, MO| 102|39.17290| -94.49450|TRUE|FALSE|FALSE|TRUE
5695604|Ameristar Casino Hotel Kansas City|Kansas City, MO| 197|39.15052| -94.48480|FALSE|FALSE|TRUE|TRUE
5695604|21c Museum Hotel Kansas City|Kansas City, MO| 224|39.10346| -94.58646|FALSE|FALSE|TRUE|TRUE
5695604|Baymont by Wyndham Kansas City KU Medical Center|Kansas City, MO|  85|39.06629| -94.61417|TRUE|FALSE|FALSE|TRUE
5695604|Stoney Creek Hotel Kansas City - Independence|Kansas City, MO| 137|39.03937| -94.36783|FALSE|TRUE|FALSE|TRUE
5695604|Econo Lodge Kansas City Downtown North|Kansas City, MO|  91|39.14696| -94.55791|TRUE|FALSE|FALSE|TRUE
5695604|Kansas City Marriott Downtown|Kansas City, MO| 261|39.10045| -94.58628|FALSE|FALSE|TRUE|TRUE
5695604|Arrowhead Inn|Kansas City, MO|  63|39.06911| -94.51370|TRUE|TRUE|FALSE|TRUE
5695604|Hotel Phillips Kansas City Curio Collection by Hilton|Kansas City, MO| 202|39.10014| -94.58468|FALSE|FALSE|TRUE|TRUE
5695604|Best Western Premier Kansas City Sports Complex Hotel|Kansas City, MO| 384|39.04947| -94.47401|FALSE|TRUE|TRUE|TRUE
5695604|La Quinta Inn & Suites by Wyndham Kansas City Beacon Hill|Kansas City, MO| 188|39.08404| -94.57033|FALSE|TRUE|TRUE|TRUE
5695636|Nuks Executive Suites|Green Bay, WI| 114|44.45023| -88.06188|TRUE|FALSE|FALSE|TRUE
5695636|Hampton Inn Green Bay|Green Bay, WI| 126|44.47250| -88.07842|TRUE|TRUE|FALSE|TRUE
5695636|My Place Hotel - Green Bay|Green Bay, WI| 113|44.49021| -88.05939|TRUE|TRUE|FALSE|TRUE
5695636|Lodge Kohler|Green Bay, WI| 322|44.50229| -88.06497|FALSE|TRUE|TRUE|TRUE
5695636|Hawthorn Suites by Wyndham Green Bay|Green Bay, WI| 143|44.48523| -88.02414|FALSE|TRUE|TRUE|TRUE
5695636|Radisson Conference Center Green Bay|Green Bay, WI| 166|44.49726| -88.12233|FALSE|FALSE|TRUE|TRUE
5695636|AmericInn by Wyndham Green Bay Near Stadium|Green Bay, WI| 144|44.47346| -88.07673|FALSE|TRUE|TRUE|TRUE
5695636|Extended Stay Airport|Green Bay, WI|  92|44.49157| -88.10388|TRUE|TRUE|FALSE|TRUE
5695636|Hotel Northland, Autograph Collection|Green Bay, WI| 205|44.51578| -88.01287|FALSE|FALSE|TRUE|TRUE
5695636|Comfort Inn Green Bay|Green Bay, WI|  98|44.47263| -88.07697|TRUE|TRUE|FALSE|TRUE
5695636|St. Brendan's Inn|Green Bay, WI| 149|44.51239| -88.01794|FALSE|FALSE|TRUE|TRUE
5695636|Hotel J Green Bay|Green Bay, WI| 103|44.49177| -88.10755|TRUE|FALSE|FALSE|TRUE
5695636|Kress Inn, Ascend Hotel Collection|Green Bay, WI| 129|44.44574| -88.06906|TRUE|FALSE|FALSE|TRUE
5695636|Super 8 by Wyndham Green Bay I-43 Bus. Park|Green Bay, WI|  98|44.48638| -87.93742|TRUE|FALSE|FALSE|TRUE
5695636|Fairfield Inn by Marriott Green Bay|Green Bay, WI| 144|44.47178| -88.07625|FALSE|TRUE|TRUE|TRUE
5695636|AmericInn by Wyndham Green Bay East|Green Bay, WI| 150|44.47000| -87.95382|FALSE|FALSE|TRUE|TRUE
5695636|Wingate by Wyndham Green Bay/Airport|Green Bay, WI| 114|44.49453| -88.12332|TRUE|FALSE|FALSE|TRUE
5695636|AmericInn by Wyndham Green Bay West|Green Bay, WI| 137|44.55953| -88.06557|FALSE|FALSE|TRUE|TRUE
5695636|Residence Inn by Marriott Green Bay Downtown|Green Bay, WI| 137|44.48014| -88.05150|FALSE|TRUE|TRUE|TRUE
5695636|Baymont by Wyndham Green Bay|Green Bay, WI|  78|44.47234| -88.07631|TRUE|TRUE|FALSE|TRUE
5695637|Nuks Executive Suites|Green Bay, WI| 114|44.45023| -88.06188|TRUE|FALSE|FALSE|TRUE
5695637|Radisson Conference Center Green Bay|Green Bay, WI| 166|44.49726| -88.12233|FALSE|FALSE|TRUE|TRUE
5695637|Hawthorn Suites by Wyndham Green Bay|Green Bay, WI| 143|44.48523| -88.02414|FALSE|TRUE|TRUE|TRUE
5695637|St. Brendan's Inn|Green Bay, WI| 149|44.51239| -88.01794|FALSE|FALSE|TRUE|TRUE
5695637|Super 8 by Wyndham Green Bay I-43 Bus. Park|Green Bay, WI|  98|44.48638| -87.93742|TRUE|FALSE|FALSE|TRUE
5695637|Wingate by Wyndham Green Bay/Airport|Green Bay, WI| 114|44.49453| -88.12332|TRUE|FALSE|FALSE|TRUE
5695637|Hotel J Green Bay|Green Bay, WI| 103|44.49177| -88.10755|TRUE|FALSE|FALSE|TRUE
5695637|Extended Stay Airport|Green Bay, WI|  92|44.49157| -88.10388|TRUE|TRUE|FALSE|TRUE
5695637|Lodge Kohler|Green Bay, WI| 322|44.50229| -88.06497|FALSE|TRUE|TRUE|TRUE
5695637|Hampton Inn Green Bay|Green Bay, WI| 126|44.47250| -88.07842|TRUE|TRUE|FALSE|TRUE
5695637|AmericInn by Wyndham Green Bay Near Stadium|Green Bay, WI| 144|44.47346| -88.07673|FALSE|TRUE|TRUE|TRUE
5695637|Fairfield Inn by Marriott Green Bay|Green Bay, WI| 144|44.47178| -88.07625|FALSE|TRUE|TRUE|TRUE
5695637|My Place Hotel - Green Bay|Green Bay, WI| 113|44.49021| -88.05939|TRUE|TRUE|FALSE|TRUE
5695637|AmericInn by Wyndham Green Bay West|Green Bay, WI| 137|44.55953| -88.06557|FALSE|FALSE|TRUE|TRUE
5695637|Hotel Northland, Autograph Collection|Green Bay, WI| 205|44.51578| -88.01287|FALSE|FALSE|TRUE|TRUE
5695637|AmericInn by Wyndham Green Bay East|Green Bay, WI| 150|44.47000| -87.95382|FALSE|FALSE|TRUE|TRUE
5695637|Baymont by Wyndham Green Bay|Green Bay, WI|  78|44.47234| -88.07631|TRUE|TRUE|FALSE|TRUE
5695637|Comfort Inn Green Bay|Green Bay, WI|  98|44.47263| -88.07697|TRUE|TRUE|FALSE|TRUE
5695637|Kress Inn, Ascend Hotel Collection|Green Bay, WI| 129|44.44574| -88.06906|TRUE|FALSE|FALSE|TRUE
5695637|Residence Inn by Marriott Green Bay Downtown|Green Bay, WI| 137|44.48014| -88.05150|FALSE|TRUE|TRUE|TRUE
5695654|Extended Stay America Suites Cincinnati Florence Turfway Rd|Cincinnati, OH| 106|39.01938| -84.63714|TRUE|FALSE|FALSE|TRUE
5695654|Super 8 by Wyndham Fort Mitchell Cincinnati Area|Cincinnati, OH|  77|39.04846| -84.57065|TRUE|FALSE|FALSE|TRUE
5695654|Days Inn by Wyndham Florence Cincinnati Area|Cincinnati, OH|  76|39.00929| -84.63429|TRUE|FALSE|FALSE|TRUE
5695654|Comfort Suites Cincinnati Airport|Cincinnati, OH| 100|39.07720| -84.66093|TRUE|FALSE|FALSE|TRUE
5695654|TownePlace Suites by Marriott Cincinnati Downtown|Cincinnati, OH| 212|39.10361| -84.51569|FALSE|TRUE|TRUE|TRUE
5695654|Residence Inn by Marriott Cincinnati Downtown/The Phelps|Cincinnati, OH| 392|39.10157| -84.50451|FALSE|TRUE|TRUE|TRUE
5695654|Aloft Newport On The Levee, a Marriott Hotel|Cincinnati, OH| 167|39.09563| -84.49398|FALSE|TRUE|TRUE|TRUE
5695654|Quality Inn & Suites|Cincinnati, OH|  94|39.10357| -84.52874|TRUE|TRUE|FALSE|TRUE
5695654|AC Hotel by Marriott Cincinnati at The Banks|Cincinnati, OH| 220|39.09686| -84.50870|FALSE|TRUE|TRUE|TRUE
5695654|The Westin Cincinnati|Cincinnati, OH| 318|39.10075| -84.51230|FALSE|TRUE|TRUE|TRUE
5695654|Radisson Hotel Cincinnati Riverfront|Cincinnati, OH| 142|39.08574| -84.52184|FALSE|TRUE|FALSE|TRUE
5695654|Hampton Inn & Suites Cincinnati-Downtown|Cincinnati, OH| 180|39.10294| -84.51363|FALSE|TRUE|TRUE|TRUE
5695654|Springhill Suites by Marriott Midtown Cincinnati|Cincinnati, OH| 233|39.11798| -84.49864|FALSE|FALSE|TRUE|TRUE
5695654|Comfort Inn Airport Turfway Road|Cincinnati, OH|  97|39.01822| -84.63518|TRUE|FALSE|FALSE|TRUE
5695654|Extended Stay America Select Suites - Cincinnati - Florence - Airport|Cincinnati, OH| 101|39.01055| -84.63280|TRUE|FALSE|FALSE|TRUE
5695654|Graduate Cincinnati|Cincinnati, OH| 170|39.13667| -84.50733|FALSE|FALSE|TRUE|TRUE
5695654|Best Western Inn Florence|Cincinnati, OH|  82|39.00272| -84.64350|TRUE|FALSE|FALSE|TRUE
5695654|Red Roof Inn Cincinnati Airport–Florence/ Erlanger|Cincinnati, OH|  78|39.02683| -84.61616|TRUE|FALSE|FALSE|TRUE
5695654|21c Museum Hotel Cincinnati|Cincinnati, OH| 347|39.10309| -84.51211|FALSE|TRUE|TRUE|TRUE
5695654|Days Inn by Wyndham Fort Wright Cincinnati Area|Cincinnati, OH|  67|39.05662| -84.54476|TRUE|FALSE|FALSE|TRUE
5695654|Hilton Cincinnati Netherland Plaza|Cincinnati, OH| 250|39.10074| -84.51397|FALSE|TRUE|TRUE|TRUE
5695655|Springhill Suites by Marriott Midtown Cincinnati|Cincinnati, OH| 233|39.11798| -84.49864|FALSE|FALSE|TRUE|TRUE
5695655|Best Western Inn Florence|Cincinnati, OH|  82|39.00272| -84.64350|TRUE|FALSE|FALSE|TRUE
5695655|The Westin Cincinnati|Cincinnati, OH| 318|39.10075| -84.51230|FALSE|TRUE|TRUE|TRUE
5695655|Quality Inn & Suites|Cincinnati, OH|  94|39.10357| -84.52874|TRUE|TRUE|FALSE|TRUE
5695655|Super 8 by Wyndham Fort Mitchell Cincinnati Area|Cincinnati, OH|  77|39.04846| -84.57065|TRUE|FALSE|FALSE|TRUE
5695655|Aloft Newport On The Levee, a Marriott Hotel|Cincinnati, OH| 167|39.09563| -84.49398|FALSE|TRUE|TRUE|TRUE
5695655|Residence Inn by Marriott Cincinnati Downtown/The Phelps|Cincinnati, OH| 392|39.10157| -84.50451|FALSE|TRUE|TRUE|TRUE
5695655|Hampton Inn & Suites Cincinnati-Downtown|Cincinnati, OH| 180|39.10294| -84.51363|FALSE|TRUE|TRUE|TRUE
5695655|Graduate Cincinnati|Cincinnati, OH| 170|39.13667| -84.50733|FALSE|FALSE|TRUE|TRUE
5695655|Hilton Cincinnati Netherland Plaza|Cincinnati, OH| 250|39.10074| -84.51397|FALSE|TRUE|TRUE|TRUE
5695655|Comfort Inn Airport Turfway Road|Cincinnati, OH|  97|39.01822| -84.63518|TRUE|FALSE|FALSE|TRUE
5695655|Extended Stay America Select Suites - Cincinnati - Florence - Airport|Cincinnati, OH| 101|39.01055| -84.63280|TRUE|FALSE|FALSE|TRUE
5695655|Radisson Hotel Cincinnati Riverfront|Cincinnati, OH| 142|39.08574| -84.52184|FALSE|TRUE|FALSE|TRUE
5695655|Red Roof Inn Cincinnati Airport–Florence/ Erlanger|Cincinnati, OH|  78|39.02683| -84.61616|TRUE|FALSE|FALSE|TRUE
5695655|Extended Stay America Suites Cincinnati Florence Turfway Rd|Cincinnati, OH| 106|39.01938| -84.63714|TRUE|FALSE|FALSE|TRUE
5695655|Days Inn by Wyndham Florence Cincinnati Area|Cincinnati, OH|  76|39.00929| -84.63429|TRUE|FALSE|FALSE|TRUE
5695655|Days Inn by Wyndham Fort Wright Cincinnati Area|Cincinnati, OH|  67|39.05662| -84.54476|TRUE|FALSE|FALSE|TRUE
5695655|21c Museum Hotel Cincinnati|Cincinnati, OH| 347|39.10309| -84.51211|FALSE|TRUE|TRUE|TRUE
5695655|Comfort Suites Cincinnati Airport|Cincinnati, OH| 100|39.07720| -84.66093|TRUE|FALSE|FALSE|TRUE
5695655|TownePlace Suites by Marriott Cincinnati Downtown|Cincinnati, OH| 212|39.10361| -84.51569|FALSE|TRUE|TRUE|TRUE
5695655|AC Hotel by Marriott Cincinnati at The Banks|Cincinnati, OH| 220|39.09686| -84.50870|FALSE|TRUE|TRUE|TRUE
5695712|The Royal Sonesta Harbor Court Baltimore|Baltimore, MD| 287|39.28269| -76.61411|FALSE|TRUE|TRUE|TRUE
5695712|Red Roof Inn PLUS+ Baltimore - Washington DC/BWI South|Baltimore, MD|  90|39.17123| -76.73662|TRUE|FALSE|FALSE|TRUE
5695712|SpringHill Suites by Marriott Baltimore Downtown Convention Center Area|Baltimore, MD| 175|39.29054| -76.62133|FALSE|TRUE|TRUE|TRUE
5695712|Baltimore Marriott Inner Harbor at Camden Yards|Baltimore, MD| 179|39.28701| -76.62109|FALSE|TRUE|TRUE|TRUE
5695712|Sheraton Inner Harbor Hotel|Baltimore, MD| 140|39.28459| -76.61541|FALSE|TRUE|FALSE|TRUE
5695712|Lord Baltimore Hotel|Baltimore, MD| 187|39.28970| -76.61612|FALSE|TRUE|TRUE|TRUE
5695712|Extended Stay America Suites Baltimore BWI International Dr|Baltimore, MD|  91|39.17740| -76.66839|TRUE|FALSE|FALSE|TRUE
5695712|Hampton Inn Baltimore-Downtown-Convention Center|Baltimore, MD| 172|39.28547| -76.62324|FALSE|TRUE|FALSE|TRUE
5695712|Extended Stay America Suites Baltimore BWI Airport Aero Dr|Baltimore, MD|  91|39.21115| -76.67681|TRUE|FALSE|FALSE|TRUE
5695712|Ramada by Wyndham Baltimore West|Baltimore, MD|  78|39.28539| -76.75795|TRUE|FALSE|FALSE|TRUE
5695712|Red Roof Inn PLUS+ Baltimore - Washington DC/BWI Airport|Baltimore, MD|  88|39.19699| -76.68607|TRUE|FALSE|FALSE|TRUE
5695712|Hilton Baltimore Inner Harbor|Baltimore, MD| 346|39.28377| -76.60160|FALSE|FALSE|TRUE|TRUE
5695712|Sagamore Pendry Baltimore|Baltimore, MD| 546|39.28111| -76.59191|FALSE|FALSE|TRUE|TRUE
5695712|Hyatt Regency Baltimore Inner Harbor|Baltimore, MD| 278|39.28490| -76.61411|FALSE|TRUE|TRUE|TRUE
5695712|Howard Johnson by Wyndham Pikesville|Baltimore, MD|  79|39.36775| -76.71582|TRUE|FALSE|FALSE|TRUE
5695712|Red Roof Inn Baltimore|Baltimore, MD|  83|39.43815| -76.63200|TRUE|FALSE|FALSE|TRUE
5695712|Econo Lodge|Baltimore, MD|  74|39.29039| -76.61219|TRUE|FALSE|FALSE|TRUE
5695712|Ramada by Wyndham Pikesville/Baltimore North|Baltimore, MD|  91|39.38356| -76.73126|TRUE|FALSE|FALSE|TRUE
5695712|Kimpton Hotel Monaco Baltimore Inner Harbor, an IHG Hotel|Baltimore, MD| 189|39.28984| -76.61541|FALSE|TRUE|TRUE|TRUE
5695712|Delta Hotels by Marriott Baltimore Inner Harbor|Baltimore, MD| 126|39.28866| -76.61461|FALSE|TRUE|FALSE|TRUE
5695712|Four Seasons Hotel Baltimore|Baltimore, MD| 699|39.28274| -76.60247|FALSE|FALSE|TRUE|TRUE
5695712|Clarion Hotel BWI Airport Arundel Mills|Baltimore, MD|  90|39.17290| -76.73298|TRUE|FALSE|FALSE|TRUE
5695712|Days Inn by Wyndham Baltimore Inner Harbor|Baltimore, MD| 139|39.28731| -76.61807|FALSE|TRUE|FALSE|TRUE
5695712|Hotel Indigo Baltimore Downtown, an IHG Hotel|Baltimore, MD| 201|39.29519| -76.61676|FALSE|FALSE|TRUE|TRUE
5695730|Red Roof Inn Pittsburgh - McKnight Rd|Pittsburgh, PA| 101|40.50569| -80.00892|TRUE|FALSE|FALSE|TRUE
5695730|Fairmont Pittsburgh|Pittsburgh, PA| 260|40.44159| -80.00170|FALSE|TRUE|TRUE|TRUE
5695730|Extended Stay America Suites Pittsburgh West Mifflin|Pittsburgh, PA|  87|40.36340| -79.86644|TRUE|FALSE|FALSE|TRUE
5695730|Wyndham Grand Pittsburgh Downtown|Pittsburgh, PA| 167|40.44167| -80.00642|FALSE|TRUE|FALSE|TRUE
5695730|Pittsburgh Plaza Hotel|Pittsburgh, PA|  91|40.44300| -79.99506|TRUE|TRUE|FALSE|TRUE
5695730|Red Roof Inn PLUS+ Pittsburgh South - Airport|Pittsburgh, PA|  91|40.44969| -80.15721|TRUE|FALSE|FALSE|TRUE
5695730|Doubletree by Hilton Pittsburgh Greentree|Pittsburgh, PA| 512|40.41871| -80.05956|FALSE|FALSE|TRUE|TRUE
5695730|Extended Stay America Suites Pittsburgh Carnegie|Pittsburgh, PA| 114|40.44062| -79.99589|FALSE|TRUE|FALSE|TRUE
5695730|Homewood Suites by Hilton Pittsburgh Downtown|Pittsburgh, PA| 178|40.44797| -79.98988|FALSE|FALSE|TRUE|TRUE
5695730|Hampton Inn Pittsburgh University/Medical Center|Pittsburgh, PA| 178|40.43599| -79.96304|FALSE|FALSE|TRUE|TRUE
5695730|Drury Plaza Hotel Pittsburgh Downtown|Pittsburgh, PA| 185|40.44300| -79.99506|FALSE|TRUE|TRUE|TRUE
5695730|Days Inn by Wyndham Pittsburgh|Pittsburgh, PA|  96|40.41923| -80.03035|TRUE|FALSE|FALSE|TRUE
5695730|Residence Inn by Marriott Pittsburgh North Shore|Pittsburgh, PA| 154|40.44791| -80.00721|FALSE|TRUE|FALSE|TRUE
5695730|Extended Stay America Suites Pittsburgh Airport|Pittsburgh, PA|  87|40.44345| -80.15972|TRUE|FALSE|FALSE|TRUE
5695730|Baywood Conference Center|Pittsburgh, PA| 402|40.50701| -80.18725|FALSE|FALSE|TRUE|TRUE
5695730|Wyndham Garden Pittsburgh Airport|Pittsburgh, PA| 101|40.46570| -80.19865|TRUE|FALSE|FALSE|TRUE
5695730|Kimpton Hotel Monaco Pittsburgh, an IHG Hotel|Pittsburgh, PA| 227|40.44141| -79.99632|FALSE|TRUE|TRUE|TRUE
5695730|Springhill Suites by Marriott Pittsburgh North Shore|Pittsburgh, PA| 154|40.44859| -80.00462|FALSE|TRUE|FALSE|TRUE
5695730|DoubleTree by Hilton Hotel & Suites Pittsburgh Downtown|Pittsburgh, PA| 183|40.44047| -79.99398|FALSE|FALSE|TRUE|TRUE
5695730|Omni William Penn Hotel|Pittsburgh, PA| 218|40.44060| -79.99659|FALSE|TRUE|TRUE|TRUE
5695730|Comfort Suites|Pittsburgh, PA| 102|40.41991| -80.03026|TRUE|FALSE|FALSE|TRUE
5695730|Quality Inn Pittsburgh Airport|Pittsburgh, PA| 101|40.44527| -80.17221|TRUE|FALSE|FALSE|TRUE
5695730|Comfort Inn Conference Center|Pittsburgh, PA| 102|40.44304| -79.82635|TRUE|FALSE|FALSE|TRUE
5695730|Sheraton Pittsburgh Hotel at Station Square|Pittsburgh, PA| 276|40.43473| -80.00598|FALSE|TRUE|TRUE|TRUE
5697650|Copley Square Hotel|Boston, MA| 165|42.34835| -71.07873|FALSE|TRUE|FALSE|TRUE
5697650|Fifteen Beacon|Boston, MA| 576|42.35832| -71.06193|FALSE|FALSE|TRUE|TRUE
5697650|The Eliot Hotel|Boston, MA| 402|42.34869| -71.08875|FALSE|TRUE|TRUE|TRUE
5697650|The Langham, Boston|Boston, MA| 519|42.35648| -71.05450|FALSE|FALSE|TRUE|TRUE
5697650|The Newbury Boston|Boston, MA| 597|42.35293| -71.07149|FALSE|FALSE|TRUE|TRUE
5697650|Four Points by Sheraton Boston Newton|Boston, MA| 111|42.35677| -71.18701|TRUE|FALSE|FALSE|TRUE
5697650|Sheraton Boston, a Marriott Hotel|Boston, MA| 187|42.34651| -71.08392|FALSE|TRUE|FALSE|TRUE
5697650|Holiday Inn Express Boston - Waltham, an IHG Hotel|Boston, MA| 105|42.39861| -71.25818|TRUE|FALSE|FALSE|TRUE
5697650|Best Western Plus New Englander|Boston, MA| 110|42.48082| -71.11883|TRUE|FALSE|FALSE|TRUE
5697650|Hilton Boston Back Bay|Boston, MA| 177|42.34630| -71.08494|FALSE|TRUE|FALSE|TRUE
5697650|Hyatt Regency Boston/Cambridge|Boston, MA| 196|42.35391| -71.10550|FALSE|TRUE|FALSE|TRUE
5697650|Boston Harbor Hotel|Boston, MA| 644|42.35666| -71.05032|FALSE|FALSE|TRUE|TRUE
5697650|The Farrington Inn|Boston, MA|  80|42.35426| -71.13089|TRUE|FALSE|FALSE|TRUE
5697650|Extended Stay America Suites - Boston - Saugus|Boston, MA| 111|42.46514| -71.01105|TRUE|FALSE|FALSE|TRUE
5697650|Hilton Garden Inn Boston/Waltham|Boston, MA| 108|42.39638| -71.25588|TRUE|FALSE|FALSE|TRUE
5697650|Mandarin Oriental Boston|Boston, MA| 751|42.34869| -71.08160|FALSE|TRUE|TRUE|TRUE
5697650|The Whitney Hotel|Boston, MA| 439|42.36064| -71.07107|FALSE|FALSE|TRUE|TRUE
5697650|Residence Inn by Marriott Boston Back Bay/Fenway|Boston, MA| 208|42.34582| -71.10051|FALSE|TRUE|FALSE|TRUE
5697650|Extended Stay America Suites Boston Waltham 52 4th Ave|Boston, MA| 106|42.39450| -71.25845|TRUE|FALSE|FALSE|TRUE
5697650|The Ritz-Carlton, Boston|Boston, MA| 809|42.35317| -71.06369|FALSE|FALSE|TRUE|TRUE
5697650|Four Seasons Hotel One Dalton Street, Boston|Boston, MA| 786|42.34571| -71.08394|FALSE|TRUE|TRUE|TRUE
5697650|Comfort Inn Woburn - Boston|Boston, MA|  94|42.47895| -71.11530|TRUE|FALSE|FALSE|TRUE
5697650|Arcadian Hotel Brookline |Boston, MA| 172|42.34381| -71.11672|FALSE|TRUE|FALSE|TRUE
5697650|Extended Stay America Suites Boston Waltham 32 4th Ave|Boston, MA| 106|42.39379| -71.25915|TRUE|FALSE|FALSE|TRUE
5697650|Boston Marriott Copley Place|Boston, MA| 233|42.34675| -71.07895|FALSE|TRUE|FALSE|TRUE
5697650|Boston Marriott Cambridge|Boston, MA| 405|42.36327| -71.08593|FALSE|FALSE|TRUE|TRUE
5697650|Courtyard by Marriott Woburn/Boston North|Boston, MA| 103|42.48808| -71.11657|TRUE|FALSE|FALSE|TRUE
5697650|avid hotel Boston Logan Airport - Revere, an IHG Hotel|Boston, MA| 111|42.42011| -71.00184|TRUE|FALSE|FALSE|TRUE
5714915|Quality Inn Rosemead - Los Angeles|Pasadena, CA|  96|34.08094|-118.06275|TRUE|FALSE|FALSE|TRUE
5714915|Starlight Inn Valley Blvd|Pasadena, CA|  97|34.06889|-118.17723|TRUE|FALSE|FALSE|TRUE
5714915|Antonio Hotel|Pasadena, CA|  86|34.04595|-118.20875|TRUE|FALSE|FALSE|TRUE
5714915|Days Inn by Wyndham Near City Of Hope|Pasadena, CA|  98|34.14019|-117.97193|TRUE|FALSE|FALSE|TRUE
5714915|Sheraton Pasadena Hotel|Pasadena, CA| 165|34.14295|-118.14422|FALSE|TRUE|FALSE|TRUE
5714915|JW Marriott Los Angeles L.A. LIVE|Pasadena, CA| 517|34.04524|-118.26647|FALSE|FALSE|TRUE|TRUE
5714915|Starlight Inn South El Monte|Pasadena, CA|  97|34.03591|-118.03890|TRUE|FALSE|FALSE|TRUE
5714915|Holiday Lodge|Pasadena, CA| 110|34.14778|-118.14452|FALSE|TRUE|FALSE|TRUE
5714915|Langham Huntington, Pasadena, Los Angeles|Pasadena, CA| 512|34.12075|-118.13342|FALSE|FALSE|TRUE|TRUE
5714915|The Westin Pasadena|Pasadena, CA| 206|34.14913|-118.14200|FALSE|TRUE|TRUE|TRUE
5714915|Residence Inn Los Angeles Pasadena/Old Town|Pasadena, CA| 251|34.15027|-118.15085|FALSE|TRUE|TRUE|TRUE
5714915|Welcome Inn on Colorado Blvd|Pasadena, CA|  97|34.13893|-118.20781|TRUE|FALSE|FALSE|TRUE
5714915|Hollywood Roxy Hotel|Pasadena, CA|  95|34.10069|-118.30964|TRUE|FALSE|FALSE|TRUE
5714915|Conrad Los Angeles|Pasadena, CA| 559|34.14980|-118.13269|FALSE|TRUE|TRUE|TRUE
5714915|Hyatt Place Pasadena|Pasadena, CA| 217|34.14493|-118.14189|FALSE|TRUE|TRUE|TRUE
5714915|Pasadena Hotel & Pool|Pasadena, CA| 185|34.14778|-118.14452|FALSE|TRUE|FALSE|TRUE
5714915|Downtown Los Angeles Proper Hotel, a Member of Design Hotels|Pasadena, CA| 418|34.03937|-118.25892|FALSE|FALSE|TRUE|TRUE
5714915|Stuart Hotel - Near Good Samaritan Hospital|Pasadena, CA|  99|34.05326|-118.27140|TRUE|FALSE|FALSE|TRUE
5714915|Courtyard by Marriott Old Pasadena|Pasadena, CA| 192|34.14873|-118.15028|FALSE|TRUE|TRUE|TRUE
5714915|Hotel Heritage|Pasadena, CA| 100|34.14778|-118.14452|FALSE|TRUE|FALSE|TRUE
5714915|City Center Hotel|Pasadena, CA| 100|34.14778|-118.14452|FALSE|TRUE|FALSE|TRUE
5714915|Sheraton Grand Los Angeles|Pasadena, CA| 396|34.04786|-118.25838|FALSE|FALSE|TRUE|TRUE
5714915|Bokai Garden Hotel|Pasadena, CA|  98|34.07467|-118.07403|TRUE|FALSE|FALSE|TRUE
5714915|The Ritz-Carlton, Los Angeles|Pasadena, CA| 854|34.04526|-118.26662|FALSE|FALSE|TRUE|TRUE
5714915|Garden Inn|Pasadena, CA|  88|34.09633|-118.07290|TRUE|FALSE|FALSE|TRUE
5718567|La Quinta Inn & Suites by Wyndham Nashville Downtown / Stadium|Nashville, TN| 239|36.16775| -86.76624|FALSE|TRUE|FALSE|TRUE
5718567|Quality Inn Opryland Area|Nashville, TN| 109|36.22526| -86.69636|TRUE|FALSE|FALSE|TRUE
5718567|Econo Lodge North|Nashville, TN| 109|36.23261| -86.75763|TRUE|FALSE|FALSE|TRUE
5718567|Renaissance Nashville Hotel|Nashville, TN| 301|36.16080| -86.78113|FALSE|TRUE|FALSE|TRUE
5718567|Hyatt Centric Downtown Nashville|Nashville, TN| 401|36.15893| -86.77380|FALSE|TRUE|FALSE|TRUE
5718567|Dream Nashville|Nashville, TN| 474|36.16411| -86.77909|FALSE|TRUE|TRUE|TRUE
5718567|Four Seasons Nashville|Nashville, TN| 804|36.16007| -86.77366|FALSE|TRUE|TRUE|TRUE
5718567|The Joseph, a Luxury Collection Hotel, Nashville|Nashville, TN| 505|36.15658| -86.77473|FALSE|FALSE|TRUE|TRUE
5718567|Sheraton Grand Nashville Downtown|Nashville, TN| 410|36.16337| -86.78309|FALSE|FALSE|TRUE|TRUE
5718567|Sleep Inn|Nashville, TN|  99|36.16266| -86.78160|TRUE|TRUE|FALSE|TRUE
5718567|Extended Stay America Suites Nashville Airport|Nashville, TN|  90|36.15370| -86.69047|TRUE|FALSE|FALSE|TRUE
5718567|Suburban Studios|Nashville, TN|  83|36.17332| -86.60324|TRUE|FALSE|FALSE|TRUE
5718567|1 Hotel Nashville|Nashville, TN| 445|36.15711| -86.78073|FALSE|FALSE|TRUE|TRUE
5718567|Thompson Nashville|Nashville, TN| 523|36.15232| -86.78403|FALSE|FALSE|TRUE|TRUE
5718567|Best Western Brentwood|Nashville, TN| 106|36.04109| -86.78095|TRUE|FALSE|FALSE|TRUE
5718567|Extended Stay America Suites Nashville Brentwood South|Nashville, TN| 101|36.03414| -86.78058|TRUE|FALSE|FALSE|TRUE
5718567|The Hermitage Hotel|Nashville, TN| 584|36.16376| -86.78236|FALSE|TRUE|TRUE|TRUE
5718567|Ramada by Wyndham Nashville/Music Valley|Nashville, TN| 110|36.21901| -86.69493|TRUE|FALSE|FALSE|TRUE
5718567|Hilton Nashville Downtown|Nashville, TN| 406|36.16002| -86.77724|FALSE|TRUE|TRUE|TRUE
5718567|Super 8 by Wyndham Nashville Near Downtown / I-40|Nashville, TN| 106|36.13443| -86.72443|TRUE|FALSE|FALSE|TRUE
5718567|JW Marriott Nashville|Nashville, TN| 416|36.15634| -86.78107|FALSE|FALSE|TRUE|TRUE
5718567|Days Inn by Wyndham Nashville Airport|Nashville, TN|  91|36.13446| -86.72459|TRUE|FALSE|FALSE|TRUE
5718567|Bobby Hotel|Nashville, TN| 399|36.16456| -86.77928|FALSE|TRUE|FALSE|TRUE
5718567|Margaritaville Hotel Nashville|Nashville, TN| 439|36.15564| -86.77548|FALSE|FALSE|TRUE|TRUE
5718567|Omni Nashville Hotel|Nashville, TN| 384|36.15748| -86.77565|FALSE|TRUE|FALSE|TRUE
5735777|GuestHouse Lexington|Lexington, KY|  80|38.04296| -84.42383|TRUE|FALSE|FALSE|TRUE
5735777|Extended Stay America Suites Lexington Nicholasville Road|Lexington, KY|  91|37.99367| -84.52255|TRUE|FALSE|FALSE|TRUE
5735777|DoubleTree Suites by Hilton Hotel Lexington|Lexington, KY| 146|38.01193| -84.45478|FALSE|FALSE|TRUE|TRUE
5735777|Hyatt Regency Lexington|Lexington, KY| 224|38.04845| -84.50154|FALSE|TRUE|TRUE|TRUE
5735777|Hilton Lexington/Downtown|Lexington, KY| 194|38.04842| -84.50009|FALSE|TRUE|TRUE|TRUE
5735777|Quality Inn Lexington East/Hamburg Area|Lexington, KY|  73|38.04410| -84.42134|TRUE|FALSE|FALSE|TRUE
5735777|Origin Lexington a Wyndham Hotel|Lexington, KY| 179|37.97629| -84.52592|FALSE|FALSE|TRUE|TRUE
5735777|Tru by Hilton University Medical Center|Lexington, KY| 102|38.03334| -84.52237|FALSE|TRUE|FALSE|TRUE
5735777|Staybridge Suites Lexington S Medical Ctr Area, an IHG Hotel|Lexington, KY| 126|38.06673| -84.52880|FALSE|TRUE|FALSE|TRUE
5735777|Extended Stay America Suites Lexington Tates Creek|Lexington, KY|  78|37.98404| -84.49517|TRUE|FALSE|FALSE|TRUE
5735777|La Quinta Inn by Wyndham Lexington|Lexington, KY|  87|38.10028| -84.48204|TRUE|FALSE|FALSE|TRUE
5735777|Sleep Inn Lexington|Lexington, KY|  84|38.01913| -84.41471|TRUE|FALSE|FALSE|TRUE
5735777|Embassy Suites by Hilton Lexington Green|Lexington, KY| 195|37.99566| -84.52500|FALSE|FALSE|TRUE|TRUE
5735777|Microtel Inn by Wyndham Lexington|Lexington, KY|  69|38.04227| -84.42691|TRUE|FALSE|FALSE|TRUE
5735777|Lexington Griffin Gate Marriott Golf Resort & Spa|Lexington, KY| 171|38.09317| -84.48504|FALSE|FALSE|TRUE|TRUE
5735777|Embassy Suites by Hilton Lexington/UK Coldstream|Lexington, KY| 195|38.09506| -84.48893|FALSE|FALSE|TRUE|TRUE
5735777|Elwood Hotel & Suites|Lexington, KY| 137|38.03500| -84.52312|FALSE|TRUE|FALSE|TRUE
5735777|Super 8 by Wyndham Lexington/Hamburg Area|Lexington, KY|  92|38.04218| -84.42149|TRUE|FALSE|FALSE|TRUE
5735777|Candlewood Suites Lexington Medical District, an IHG Hotel|Lexington, KY| 111|38.03306| -84.52169|FALSE|TRUE|FALSE|TRUE
5735777|Comfort Inn Lexington Southeast|Lexington, KY|  77|37.96313| -84.38569|TRUE|FALSE|FALSE|TRUE
5735777|The Campbell House Lexington, Curio Collection by Hilton|Lexington, KY| 156|38.03482| -84.52506|FALSE|TRUE|TRUE|TRUE
5735777|Best Western Lexington Inn|Lexington, KY|  92|38.04536| -84.42351|TRUE|FALSE|FALSE|TRUE
5735777|The Sire Hotel Lexington, Tapestry Collection by Hilton|Lexington, KY| 178|38.04858| -84.49508|FALSE|TRUE|TRUE|TRUE
5735777|Courtyard by Marriott Lexington North|Lexington, KY| 121|38.07578| -84.49074|FALSE|TRUE|FALSE|TRUE
5735777|21c Museum Hotel Lexington|Lexington, KY| 218|38.04715| -84.49761|FALSE|TRUE|TRUE|TRUE
5735777|Red Roof Inn Lexington - Hamburg|Lexington, KY|  72|38.04416| -84.42344|TRUE|FALSE|FALSE|TRUE
5735811|Ramada by Wyndham South Waco|Waco, TX|  97|31.45888| -97.17508|TRUE|FALSE|FALSE|TRUE
5735811|Days Inn by Wyndham Waco|Waco, TX|  95|31.59837| -97.11001|TRUE|FALSE|FALSE|TRUE
5735811|Staybridge Suites Waco South Woodway, an IHG hotel|Waco, TX| 175|31.50353| -97.19909|FALSE|FALSE|TRUE|TRUE
5735811|Aloft Waco Baylor, a Marriott Hotel|Waco, TX| 290|31.54554| -97.12912|FALSE|TRUE|TRUE|TRUE
5735811|Residence Inn Waco|Waco, TX| 278|31.50136| -97.15763|FALSE|FALSE|TRUE|TRUE
5735811|Studio 6 Waco, TX - Downtown - Baylor|Waco, TX|  75|31.53810| -97.12757|TRUE|TRUE|FALSE|TRUE
5735811|Comfort Suites Waco North - Near University Area|Waco, TX| 132|31.58508| -97.11078|FALSE|TRUE|FALSE|TRUE
5735811|Knights Inn Franklin Ave Waco|Waco, TX|  86|31.52858| -97.16264|TRUE|FALSE|FALSE|TRUE
