id|name|city|price|lat|long|p|t|l|fresh
5612248|The Ritz-Carlton, Philadelphia|Philadelphia, PA| 453|39.95128| -75.16427|FALSE|FALSE|TRUE|TRUE
5612248|Extended Stay America Suites Philadelphia Cherry Hill|Philadelphia, PA| 109|39.88385| -75.24823|TRUE|FALSE|FALSE|TRUE
5612248|Philadelphia Marriott Old City|Philadelphia, PA| 197|39.94621| -75.14342|FALSE|TRUE|FALSE|TRUE
5612248|The Rittenhouse Philadelphia|Philadelphia, PA| 837|39.94966| -75.16482|FALSE|TRUE|TRUE|TRUE
5612248|Parkway Inn|Philadelphia, PA|  95|39.91875| -75.32845|TRUE|FALSE|FALSE|TRUE
5612248|Wm. Mulherin's Sons Hotel|Philadelphia, PA| 410|39.97171| -75.13506|FALSE|FALSE|TRUE|TRUE
5612248|Fitler Club|Philadelphia, PA| 456|39.95349| -75.17914|FALSE|FALSE|TRUE|TRUE
5612248|W Philadelphia|Philadelphia, PA| 355|39.95124| -75.16490|FALSE|FALSE|TRUE|TRUE
5612248|DoubleTree by Hilton Philadelphia Center City|Philadelphia, PA| 187|39.94792| -75.16413|FALSE|TRUE|FALSE|TRUE
5612248|Guild House Hotel|Philadelphia, PA| 424|39.94819| -75.16268|FALSE|TRUE|TRUE|TRUE
5612248|Days Inn by Wyndham Springfield/Phil.Intl Airport|Philadelphia, PA|  99|39.91948| -75.32802|TRUE|FALSE|FALSE|TRUE
5612248|Wyndham Philadelphia Historic District|Philadelphia, PA| 419|39.95196| -75.14741|FALSE|FALSE|TRUE|TRUE
5612248|Days Inn by Wyndham Philadelphia - Roosevelt Boulevard|Philadelphia, PA| 109|40.02974| -75.10607|TRUE|FALSE|FALSE|TRUE
5612248|Club Quarters Hotel Rittenhouse Square, Philadelphia|Philadelphia, PA| 158|39.95122| -75.16840|FALSE|TRUE|FALSE|TRUE
5612248|Lokal Hotel - Old City|Philadelphia, PA| 372|39.95328| -75.14486|FALSE|FALSE|TRUE|TRUE
5612248|Courtyard Philadelphia South at The Navy Yard|Philadelphia, PA| 257|39.89545| -75.17173|FALSE|TRUE|FALSE|TRUE
5612248|Wyndham Garden Philadelphia Airport|Philadelphia, PA| 101|39.86764| -75.30377|TRUE|FALSE|FALSE|TRUE
5612248|Travelodge by Wyndham Bellmawr|Philadelphia, PA|  86|39.86208| -75.07705|TRUE|FALSE|FALSE|TRUE
5612248|Red Roof Inn PLUS+ Philadelphia Airport|Philadelphia, PA|  92|39.86820| -75.30609|TRUE|FALSE|FALSE|TRUE
5612248|BnB Philadelphia - Boutique Hotel|Philadelphia, PA| 621|39.97993| -75.12262|FALSE|FALSE|TRUE|TRUE
5612248|The Windsor Suites|Philadelphia, PA| 101|39.95565| -75.16822|TRUE|FALSE|FALSE|TRUE
5612248|Fairfield Inn by Marriott Philadelphia Airport|Philadelphia, PA| 128|39.94689| -75.16235|FALSE|TRUE|FALSE|TRUE
5612248|Sofitel Philadelphia at Rittenhouse Square|Philadelphia, PA| 213|39.95085| -75.16911|FALSE|TRUE|FALSE|TRUE
5612248|Days Inn by Wyndham Runnemede Philadelphia Area|Philadelphia, PA|  83|39.85779| -75.07254|TRUE|FALSE|FALSE|TRUE
5612248|Warwick Hotel Rittenhouse Square|Philadelphia, PA| 170|39.94917| -75.16954|FALSE|TRUE|FALSE|TRUE
5612248|Four Seasons Hotel Philadelphia at Comcast Center|Philadelphia, PA|1088|39.95509| -75.17090|FALSE|FALSE|TRUE|TRUE
5612248|Radisson Hotel Philadelphia, PA|Philadelphia, PA| 110|39.94917| -75.16954|FALSE|TRUE|FALSE|TRUE
5612248|Red Carpet Inn Philadelphia Airport|Philadelphia, PA|  76|39.87242| -75.28119|TRUE|FALSE|FALSE|TRUE
5612248|Courtyard by Marriott Deptford|Philadelphia, PA| 106|39.82762| -75.08746|TRUE|FALSE|FALSE|TRUE
5613213|Maison Pierre Lafitte|New Orleans, LA| 214|29.95466| -90.07201|FALSE|TRUE|FALSE|TRUE
5613213|Virgin Hotels New Orleans|New Orleans, LA| 686|29.94894| -90.07313|FALSE|TRUE|TRUE|TRUE
5613213|Midtown Hotel - Downtown New Orleans|New Orleans, LA| 117|29.94978| -90.06771|TRUE|FALSE|FALSE|TRUE
5613213|Ramada by Wyndham Metairie New Orleans Airport|New Orleans, LA| 116|29.99609| -90.15893|TRUE|FALSE|FALSE|TRUE
5613213|Wyndham New Orleans - French Quarter|New Orleans, LA| 398|29.95376| -90.06835|FALSE|TRUE|FALSE|TRUE
5613213|Hilton New Orleans Riverside|New Orleans, LA| 641|29.94751| -90.06345|FALSE|FALSE|TRUE|TRUE
5613213|Le Pavillon New Orleans|New Orleans, LA| 419|29.95052| -90.07280|FALSE|TRUE|FALSE|TRUE
5613213|Suburban Studios|New Orleans, LA| 100|29.90910| -90.20646|TRUE|FALSE|FALSE|TRUE
5613213|The Ben Louie|New Orleans, LA| 132|29.96626| -90.10094|TRUE|FALSE|FALSE|TRUE
5613213|Windsor Court Hotel|New Orleans, LA|1515|29.94948| -90.06635|FALSE|FALSE|TRUE|TRUE
5613213|Hotel Vinache|New Orleans, LA| 166|29.95629| -90.07443|FALSE|TRUE|FALSE|TRUE
5613213|Harrahs New Orleans Casino & Hotel|New Orleans, LA|1192|29.94793| -90.06553|FALSE|FALSE|TRUE|TRUE
5613213|La Quinta Inn by Wyndham New Orleans Veterans / Metairie|New Orleans, LA|  81|30.00483| -90.20567|TRUE|FALSE|FALSE|TRUE
5613213|Four Seasons Hotel New Orleans|New Orleans, LA| 693|29.94888| -90.06389|FALSE|FALSE|TRUE|TRUE
5613213|Quality Inn New Orleans I-10 East|New Orleans, LA|  64|30.03715| -89.97409|TRUE|FALSE|FALSE|TRUE
5613213|InterContinental New Orleans, an IHG Hotel|New Orleans, LA| 406|29.95028| -90.06968|FALSE|TRUE|FALSE|TRUE
5613213|Loews New Orleans Hotel|New Orleans, LA| 575|29.94797| -90.06621|FALSE|FALSE|TRUE|TRUE
5613213|Hotel Monteleone, New Orleans|New Orleans, LA| 512|29.95422| -90.06776|FALSE|FALSE|TRUE|TRUE
5613213|Days Inn by Wyndham New Orleans Pontchartrain|New Orleans, LA|  83|30.00213| -90.03978|TRUE|FALSE|FALSE|TRUE
5613213|Best Western Bayou Inn|New Orleans, LA| 105|29.90780| -90.16035|TRUE|FALSE|FALSE|TRUE
5613213|Maison de la Luz|New Orleans, LA|1170|29.94879| -90.07202|FALSE|TRUE|TRUE|TRUE
5613213|Riverside Hotel|New Orleans, LA| 110|29.85646| -89.98640|TRUE|FALSE|FALSE|TRUE
5613213|AC Hotel by Marriott New Orleans French Quarter|New Orleans, LA| 435|29.95242| -90.07131|FALSE|TRUE|FALSE|TRUE
5613213|NOPSI Hotel, New Orleans|New Orleans, LA| 478|29.95205| -90.07265|FALSE|TRUE|TRUE|TRUE
5613213|The Natchez|New Orleans, LA| 675|29.94974| -90.06870|FALSE|TRUE|TRUE|TRUE
5613213|Comfort Inn Marrero - New Orleans West|New Orleans, LA| 101|29.89219| -90.12282|TRUE|FALSE|FALSE|TRUE
5613225|Four Seasons Hotel at The Surf Club|Miami Gardens, FL|2049|25.87772| -80.12142|FALSE|FALSE|TRUE|TRUE
5613225|The St. Regis Bal Harbour Resort|Miami Gardens, FL|1132|25.88909| -80.12241|FALSE|FALSE|TRUE|TRUE
5613225|Best Western Plus Hollywood/Aventura|Miami Gardens, FL| 153|25.98591| -80.16482|FALSE|TRUE|FALSE|TRUE
5613225|May-Dee Suites|Miami Gardens, FL| 122|26.01073| -80.19495|FALSE|TRUE|FALSE|TRUE
5613225|Stadium Hotel|Miami Gardens, FL| 162|25.95790| -80.23885|FALSE|TRUE|FALSE|TRUE
5613225|Trump International Beach Resort|Miami Gardens, FL| 470|25.94320| -80.12061|FALSE|FALSE|TRUE|TRUE
5613225|Hollywood Beach Hotels|Miami Gardens, FL|  93|25.94204| -80.24560|TRUE|TRUE|FALSE|TRUE
5613225|Diplomat Beach Resort Hollywood, Curio Collection by Hilton|Miami Gardens, FL| 415|25.99191| -80.11828|FALSE|FALSE|TRUE|TRUE
5613225|Miami Lakes Hotel|Miami Gardens, FL| 141|25.91206| -80.31126|FALSE|TRUE|FALSE|TRUE
5613225|Grand Palms Spa & Golf Resort|Miami Gardens, FL| 101|26.00016| -80.35079|TRUE|FALSE|FALSE|TRUE
5613225|The Clevelander|Miami Gardens, FL| 111|25.78078| -80.13098|TRUE|FALSE|FALSE|TRUE
5613225|Casa Pellegrino|Miami Gardens, FL|  94|26.02446| -80.11617|TRUE|FALSE|FALSE|TRUE
5613225|Red Carpet Inn Airport/Cruiseport|Miami Gardens, FL|  77|26.08635| -80.17466|TRUE|FALSE|FALSE|TRUE
5613225|Seminole Hard Rock Hotel and Casino|Miami Gardens, FL| 610|26.05082| -80.21155|FALSE|FALSE|TRUE|TRUE
5613225|Greniers|Miami Gardens, FL|  90|26.02505| -80.11578|TRUE|FALSE|FALSE|TRUE
5613225|Travelodge by Wyndham Miami Biscayne Bay|Miami Gardens, FL|  82|25.82499| -80.18661|TRUE|FALSE|FALSE|TRUE
5613225|WoodSpring Suites Miramar|Miami Gardens, FL| 124|25.97539| -80.29685|FALSE|TRUE|FALSE|TRUE
5613225|Margaritaville Hollywood Beach Resort|Miami Gardens, FL| 534|26.01878| -80.11674|FALSE|FALSE|TRUE|TRUE
5613225|Miami Gardens Inn & Suites|Miami Gardens, FL| 116|25.94204| -80.24560|FALSE|TRUE|FALSE|TRUE
5613225|Private Ocean Condos at Marenas Beach|Miami Gardens, FL| 619|25.94916| -80.11988|FALSE|FALSE|TRUE|TRUE
5613225|Acqualina Resort & Residences On The Beach|Miami Gardens, FL|1130|25.94082| -80.12092|FALSE|FALSE|TRUE|TRUE
5613225|Curtis Inn & Suites|Miami Gardens, FL| 102|25.99833| -80.14250|TRUE|FALSE|FALSE|TRUE
5613225|The Oasis Tower at Seminole Hard Rock|Miami Gardens, FL| 705|26.05187| -80.21052|FALSE|FALSE|TRUE|TRUE
5613225|Dream Inn|Miami Gardens, FL| 102|25.94204| -80.24560|TRUE|TRUE|FALSE|TRUE
5613225|Hotolos Hollywood|Miami Gardens, FL| 100|26.04703| -80.15850|TRUE|FALSE|FALSE|TRUE
5613225|SpringHill Suites by Marriott Fort Lauderdale Miramar|Miami Gardens, FL| 168|25.97424| -80.29263|FALSE|TRUE|FALSE|TRUE
5613225|Thunderbird Hotel|Miami Gardens, FL| 121|25.94204| -80.24560|FALSE|TRUE|FALSE|TRUE
5613225|The Ritz-Carlton Bal Harbour, Miami|Miami Gardens, FL| 943|25.89900| -80.12330|FALSE|FALSE|TRUE|TRUE
5617953|Hilton Grand Vacations Club Elara Center Strip Las Vegas|Las Vegas, NV| 498|36.10881|-115.16832|FALSE|TRUE|TRUE|TRUE
5617953|The Signature at MGM Grand (All Suites)|Las Vegas, NV| 571|36.10607|-115.16678|FALSE|TRUE|TRUE|TRUE
5617953|Green Valley Ranch Resort and Spa|Las Vegas, NV| 564|36.02025|-115.08997|FALSE|FALSE|TRUE|TRUE
5617953|Sunrise Inn Hotel|Las Vegas, NV| 128|36.21813|-115.12921|TRUE|FALSE|FALSE|TRUE
5617953|Super 8 by Wyndham Las Vegas North Strip/Fremont St. Area|Las Vegas, NV| 106|36.15606|-115.14829|TRUE|FALSE|FALSE|TRUE
5617953|SAHARA Las Vegas|Las Vegas, NV| 478|36.14435|-115.15678|FALSE|FALSE|TRUE|TRUE
5617953|Hampton Inn Tropicana|Las Vegas, NV| 186|36.09967|-115.18338|FALSE|TRUE|FALSE|TRUE
5617953|Courtyard by Marriott Las Vegas South|Las Vegas, NV| 182|36.08382|-115.18304|FALSE|TRUE|FALSE|TRUE
5617953|Palms Casino Resort|Las Vegas, NV| 489|36.11444|-115.19482|FALSE|FALSE|TRUE|TRUE
5617953|Thunderbird Hotel|Las Vegas, NV| 154|36.15581|-115.14903|TRUE|FALSE|FALSE|TRUE
5617953|Mardi Gras Hotel & Casino|Las Vegas, NV| 133|36.12549|-115.15446|TRUE|FALSE|FALSE|TRUE
5617953|Homewood Suites by Hilton Las Vegas Airport|Las Vegas, NV| 170|36.06447|-115.16197|TRUE|FALSE|FALSE|TRUE
5617953|Bellagio|Las Vegas, NV| 804|36.11311|-115.17701|FALSE|FALSE|TRUE|TRUE
5617953|Howard Johnson by Wyndham Las Vegas near the Strip|Las Vegas, NV| 163|36.09948|-115.16580|TRUE|TRUE|FALSE|TRUE
5617953|Fairfield Inn and Suites by Marriott Las Vegas South|Las Vegas, NV| 173|36.08451|-115.18330|FALSE|TRUE|FALSE|TRUE
5617953|Extended Stay America Suites Las Vegas Midtown|Las Vegas, NV| 145|36.13514|-115.13787|TRUE|FALSE|FALSE|TRUE
5617953|Circa Resort & Casino – Adults Only|Las Vegas, NV| 581|36.17183|-115.14569|FALSE|FALSE|TRUE|TRUE
5617953|Oasis at Gold Spike - Adults Only|Las Vegas, NV| 166|36.17095|-115.13982|TRUE|FALSE|FALSE|TRUE
5617953|Longhorn Casino & Hotel|Las Vegas, NV| 152|36.10704|-115.05916|TRUE|FALSE|FALSE|TRUE
5617953|Extended Stay America Suites Las Vegas Valley View|Las Vegas, NV| 172|36.11248|-115.18932|FALSE|TRUE|FALSE|TRUE
5617953|Holiday Inn Express Las Vegas South, an IHG Hotel|Las Vegas, NV| 214|36.08478|-115.18478|FALSE|TRUE|FALSE|TRUE
5617953|Hampton Inn Las Vegas/Summerlin|Las Vegas, NV| 163|36.21198|-115.24717|TRUE|FALSE|FALSE|TRUE
5617953|Towne and Country Motel|Las Vegas, NV| 445|36.16118|-115.12146|FALSE|FALSE|TRUE|TRUE
5617953|Nobu Hotel at Caesars Palace|Las Vegas, NV|1752|36.11671|-115.17519|FALSE|FALSE|TRUE|TRUE
5617953|NoMad Las Vegas|Las Vegas, NV| 935|36.10474|-115.17651|FALSE|TRUE|TRUE|TRUE
5617953|Tropicana Las Vegas - a DoubleTree by Hilton Hotel|Las Vegas, NV| 335|36.09963|-115.17136|FALSE|TRUE|FALSE|TRUE
5622440|Tru By Hilton Indianapolis Downtown, IN|Indianapolis, IN| 131|39.75889| -86.15967|FALSE|TRUE|FALSE|TRUE
5622440|Hotel Indy, Indianapolis, a Tribute Portfolio Hotel|Indianapolis, IN| 215|39.76633| -86.15474|FALSE|FALSE|TRUE|TRUE
5622440|Baymont by Wyndham Indianapolis West|Indianapolis, IN|  75|39.82521| -86.27816|TRUE|FALSE|FALSE|TRUE
5622440|Embassy Suites by Hilton Indianapolis Downtown|Indianapolis, IN| 220|39.76759| -86.16042|FALSE|FALSE|TRUE|TRUE
5622440|Homewood Suites by Hilton Indianapolis-Downtown|Indianapolis, IN| 138|39.76381| -86.15772|FALSE|TRUE|FALSE|TRUE
5622440|Days Inn by Wyndham Indianapolis East Post Road|Indianapolis, IN|  71|39.79823| -86.01011|TRUE|FALSE|FALSE|TRUE
5622440|Studio 6 Indianapolis, IN|Indianapolis, IN|  69|39.82268| -86.27231|TRUE|FALSE|FALSE|TRUE
5622440|Omni Severin Hotel|Indianapolis, IN| 163|39.76381| -86.15980|FALSE|TRUE|FALSE|TRUE
5622440|Quality Inn & Suites|Indianapolis, IN|  67|39.84322| -86.25248|TRUE|FALSE|FALSE|TRUE
5622440|The Westin Indianapolis|Indianapolis, IN| 188|39.76647| -86.16359|FALSE|TRUE|TRUE|TRUE
5622440|Holiday Inn Indianapolis Downtown, an IHG Hotel|Indianapolis, IN| 121|39.76010| -86.16702|FALSE|TRUE|FALSE|TRUE
5622440|Conrad Indianapolis|Indianapolis, IN| 250|39.76743| -86.15920|FALSE|FALSE|TRUE|TRUE
5622440|Sleep Inn|Indianapolis, IN|  75|39.76840| -86.15807|TRUE|FALSE|FALSE|TRUE
5622440|JW Marriott Indianapolis|Indianapolis, IN| 188|39.76659| -86.16769|FALSE|FALSE|TRUE|TRUE
5622440|Hyatt Place Indianapolis Downtown|Indianapolis, IN| 178|39.76461| -86.15676|FALSE|TRUE|TRUE|TRUE
5622440|Quality Inn South|Indianapolis, IN|  70|39.69870| -86.18827|TRUE|FALSE|FALSE|TRUE
5622440|Extended Stay America Suites Indianapolis Airport W Southern|Indianapolis, IN|  63|39.72960| -86.25363|TRUE|FALSE|FALSE|TRUE
5622440|Royal Inn|Indianapolis, IN|  63|39.76840| -86.15807|TRUE|FALSE|FALSE|TRUE
5622440|Hyatt House Indianapolis Downtown|Indianapolis, IN| 168|39.76469| -86.15685|FALSE|TRUE|FALSE|TRUE
5622440|Marriott Indianapolis Downtown|Indianapolis, IN| 178|39.76663| -86.16481|FALSE|TRUE|TRUE|TRUE
5622440|Rodeway Inn|Indianapolis, IN|  73|39.82140| -86.04500|TRUE|FALSE|FALSE|TRUE
5622440|The Alexander, a Dolce by Wyndham|Indianapolis, IN| 228|39.76179| -86.15447|FALSE|FALSE|TRUE|TRUE
5622440|Comfort Inn Indianapolis South I-65|Indianapolis, IN|  71|39.71476| -86.12201|TRUE|FALSE|FALSE|TRUE
5622440|Super 8 by Wyndham Indianapolis/Emerson Ave|Indianapolis, IN|  74|39.70099| -86.08389|TRUE|FALSE|FALSE|TRUE
5622440|Hyatt Regency Indianapolis|Indianapolis, IN| 188|39.76636| -86.16082|FALSE|TRUE|TRUE|TRUE
5622440|Bottleworks Hotel|Indianapolis, IN| 209|39.77909| -86.14340|FALSE|FALSE|TRUE|TRUE
5622440|Le Méridien Indianapolis|Indianapolis, IN| 208|39.76514| -86.15965|FALSE|TRUE|TRUE|TRUE
5622642|Days Inn by Wyndham Hartsfield Jackson Atlanta Airport West|Atlanta, GA|  71|33.63341| -84.49180|TRUE|FALSE|FALSE|TRUE
5622642|Holiday Inn Express and Suites Atlanta Downtown, an IHG Hotel|Atlanta, GA| 125|33.75789| -84.38989|FALSE|TRUE|FALSE|TRUE
5622642|Fairfield Inn & Suites Atlanta Downtown|Atlanta, GA| 121|33.75287| -84.39119|FALSE|TRUE|FALSE|TRUE
5622642|Quality Inn Atlanta Airport - Central|Atlanta, GA|  76|33.62451| -84.45417|TRUE|FALSE|FALSE|TRUE
5622642|The American Hotel Atlanta Downtown - a DoubleTree by Hilton|Atlanta, GA| 150|33.75931| -84.38992|FALSE|TRUE|TRUE|TRUE
5622642|SpringHill Suites by Marriott Atlanta Downtown|Atlanta, GA| 133|33.76497| -84.39502|FALSE|TRUE|FALSE|TRUE
5622642|Econo Lodge|Atlanta, GA|  82|33.65881| -84.43356|TRUE|FALSE|FALSE|TRUE
5622642|AC Hotel by Marriott Atlanta Downtown|Atlanta, GA| 173|33.75994| -84.39102|FALSE|TRUE|TRUE|TRUE
5622642|OYO Hotel Decatur I-285 The Perimeter|Atlanta, GA|  82|33.73786| -84.23582|TRUE|FALSE|FALSE|TRUE
5622642|Clarion Inn & Suites Atlanta Downtown|Atlanta, GA| 128|33.74900| -84.40337|FALSE|TRUE|FALSE|TRUE
5622642|Econo Lodge Conley|Atlanta, GA|  73|33.66714| -84.33847|TRUE|FALSE|FALSE|TRUE
5622642|Howard Johnson by Wyndham Atlanta Airport/College Park|Atlanta, GA|  75|33.61529| -84.43967|TRUE|FALSE|FALSE|TRUE
5622642|Rodeway Inn|Atlanta, GA|  72|33.74900| -84.38798|TRUE|FALSE|FALSE|TRUE
5622642|Hyatt Place Atlanta Centennial Park|Atlanta, GA| 173|33.76254| -84.39597|FALSE|TRUE|TRUE|TRUE
5622642|Nobu Hotel Atlanta|Atlanta, GA| 467|33.85439| -84.36349|FALSE|FALSE|TRUE|TRUE
5622642|Econo Lodge At Six Flags|Atlanta, GA|  87|33.77361| -84.55028|TRUE|FALSE|FALSE|TRUE
5622642|Thompson Buckhead|Atlanta, GA| 359|33.83833| -84.37435|FALSE|FALSE|TRUE|TRUE
5622642|Quality Suites Atlanta Airport East|Atlanta, GA|  87|33.61301| -84.40140|TRUE|FALSE|FALSE|TRUE
5622642|Microtel Inn by Wyndham Atlanta Airport|Atlanta, GA|  84|33.62339| -84.45537|TRUE|FALSE|FALSE|TRUE
5622642|Reverb by Hard Rock Atlanta Downtown|Atlanta, GA| 179|33.75348| -84.39925|FALSE|TRUE|TRUE|TRUE
5622642|Hilton Atlanta|Atlanta, GA| 184|33.76151| -84.38330|FALSE|FALSE|TRUE|TRUE
5622642|The Westin Peachtree Plaza, Atlanta|Atlanta, GA| 183|33.75941| -84.38836|FALSE|TRUE|TRUE|TRUE
5622642|The Starling Atlanta Midtown, Curio Collection by Hilton|Atlanta, GA| 203|33.78698| -84.38139|FALSE|FALSE|TRUE|TRUE
5622642|Omni Atlanta Hotel at CNN Center|Atlanta, GA| 203|33.75915| -84.39494|FALSE|TRUE|TRUE|TRUE
5622921|Clarion Inn & Suites Atlanta Downtown|Atlanta, GA| 128|33.74900| -84.40337|FALSE|TRUE|FALSE|TRUE
5622921|Fairfield Inn & Suites Atlanta Downtown|Atlanta, GA| 121|33.75287| -84.39119|FALSE|TRUE|FALSE|TRUE
5622921|Hilton Atlanta|Atlanta, GA| 184|33.76151| -84.38330|FALSE|FALSE|TRUE|TRUE
5622921|Thompson Buckhead|Atlanta, GA| 359|33.83833| -84.37435|FALSE|FALSE|TRUE|TRUE
5622921|OYO Hotel Decatur I-285 The Perimeter|Atlanta, GA|  82|33.73786| -84.23582|TRUE|FALSE|FALSE|TRUE
5622921|Reverb by Hard Rock Atlanta Downtown|Atlanta, GA| 179|33.75348| -84.39925|FALSE|TRUE|TRUE|TRUE
5622921|Hyatt Place Atlanta Centennial Park|Atlanta, GA| 173|33.76254| -84.39597|FALSE|TRUE|TRUE|TRUE
5622921|Quality Inn Atlanta Airport - Central|Atlanta, GA|  76|33.62451| -84.45417|TRUE|FALSE|FALSE|TRUE
5622921|Holiday Inn Express and Suites Atlanta Downtown, an IHG Hotel|Atlanta, GA| 125|33.75789| -84.38989|FALSE|TRUE|FALSE|TRUE
5622921|Omni Atlanta Hotel at CNN Center|Atlanta, GA| 203|33.75915| -84.39494|FALSE|TRUE|TRUE|TRUE
5622921|Days Inn by Wyndham Hartsfield Jackson Atlanta Airport West|Atlanta, GA|  71|33.63341| -84.49180|TRUE|FALSE|FALSE|TRUE
5622921|Econo Lodge Conley|Atlanta, GA|  73|33.66714| -84.33847|TRUE|FALSE|FALSE|TRUE
5622921|Econo Lodge At Six Flags|Atlanta, GA|  87|33.77361| -84.55028|TRUE|FALSE|FALSE|TRUE
5622921|Quality Suites Atlanta Airport East|Atlanta, GA|  87|33.61301| -84.40140|TRUE|FALSE|FALSE|TRUE
5622921|Rodeway Inn|Atlanta, GA|  72|33.74900| -84.38798|TRUE|FALSE|FALSE|TRUE
5622921|Nobu Hotel Atlanta|Atlanta, GA| 467|33.85439| -84.36349|FALSE|FALSE|TRUE|TRUE
5622921|Howard Johnson by Wyndham Atlanta Airport/College Park|Atlanta, GA|  75|33.61529| -84.43967|TRUE|FALSE|FALSE|TRUE
5622921|The American Hotel Atlanta Downtown - a DoubleTree by Hilton|Atlanta, GA| 150|33.75931| -84.38992|FALSE|TRUE|TRUE|TRUE
5622921|The Starling Atlanta Midtown, Curio Collection by Hilton|Atlanta, GA| 203|33.78698| -84.38139|FALSE|FALSE|TRUE|TRUE
5622921|The Westin Peachtree Plaza, Atlanta|Atlanta, GA| 183|33.75941| -84.38836|FALSE|TRUE|TRUE|TRUE
5622921|SpringHill Suites by Marriott Atlanta Downtown|Atlanta, GA| 133|33.76497| -84.39502|FALSE|TRUE|FALSE|TRUE
5622921|Microtel Inn by Wyndham Atlanta Airport|Atlanta, GA|  84|33.62339| -84.45537|TRUE|FALSE|FALSE|TRUE
5622921|Econo Lodge|Atlanta, GA|  82|33.65881| -84.43356|TRUE|FALSE|FALSE|TRUE
5622921|AC Hotel by Marriott Atlanta Downtown|Atlanta, GA| 173|33.75994| -84.39102|FALSE|TRUE|TRUE|TRUE
5622925|Ace Hotel Downtown Los Angeles|Pasadena, CA| 408|34.04188|-118.25703|FALSE|FALSE|TRUE|TRUE
5622925|Antonio Hotel|Pasadena, CA|  97|34.04595|-118.20875|TRUE|FALSE|FALSE|TRUE
5622925|Sheraton Pasadena Hotel|Pasadena, CA| 195|34.14295|-118.14422|FALSE|TRUE|FALSE|TRUE
5622925|Residence Inn Los Angeles L.A. LIVE|Pasadena, CA| 359|34.04596|-118.26586|FALSE|FALSE|TRUE|TRUE
5622925|Downtown Los Angeles Proper Hotel, a Member of Design Hotels|Pasadena, CA| 419|34.03937|-118.25892|FALSE|FALSE|TRUE|TRUE
5622925|Hilton Pasadena|Pasadena, CA| 240|34.14269|-118.14091|FALSE|TRUE|FALSE|TRUE
5622925|Value Inn Hollywood|Pasadena, CA| 108|34.09769|-118.30328|TRUE|FALSE|FALSE|TRUE
5622925|Cara|Pasadena, CA| 487|34.10287|-118.30868|FALSE|FALSE|TRUE|TRUE
5622925|Stuart Hotel - Near Good Samaritan Hospital|Pasadena, CA| 113|34.05326|-118.27140|TRUE|FALSE|FALSE|TRUE
5622925|City Center Hotel|Pasadena, CA| 108|34.14778|-118.14452|TRUE|TRUE|FALSE|TRUE
5622925|Bokai Garden Hotel|Pasadena, CA|  93|34.07467|-118.07403|TRUE|FALSE|FALSE|TRUE
5622925|Garden Inn|Pasadena, CA| 108|34.09633|-118.07290|TRUE|FALSE|FALSE|TRUE
5622925|The Westin Pasadena|Pasadena, CA| 224|34.14913|-118.14200|FALSE|TRUE|FALSE|TRUE
5622925|Little Tokyo Hotel|Pasadena, CA| 119|34.05004|-118.23997|TRUE|FALSE|FALSE|TRUE
5622925|Residence Inn Los Angeles Pasadena/Old Town|Pasadena, CA| 251|34.15027|-118.15085|FALSE|TRUE|FALSE|TRUE
5622925|Courtyard by Marriott Old Pasadena|Pasadena, CA| 172|34.14873|-118.15028|FALSE|TRUE|FALSE|TRUE
5622925|The Glenmark, Glendale, a Tribute Portfolio Hotel|Pasadena, CA| 425|34.16176|-118.25461|FALSE|FALSE|TRUE|TRUE
5622925|Conrad Los Angeles|Pasadena, CA| 510|34.14980|-118.13269|FALSE|TRUE|TRUE|TRUE
5622925|Hyatt Place Pasadena|Pasadena, CA| 262|34.14493|-118.14189|FALSE|TRUE|TRUE|TRUE
5622925|The Ritz-Carlton, Los Angeles|Pasadena, CA| 761|34.04526|-118.26662|FALSE|FALSE|TRUE|TRUE
5622925|Langham Huntington, Pasadena, Los Angeles|Pasadena, CA| 445|34.12075|-118.13342|FALSE|FALSE|TRUE|TRUE
5622925|Starlight Inn Valley Blvd|Pasadena, CA| 108|34.06889|-118.17723|TRUE|FALSE|FALSE|TRUE
5622925|Pasadena Rose & Crown Hotel|Pasadena, CA| 192|34.14778|-118.14452|FALSE|TRUE|FALSE|TRUE
5622925|Hotel Le Rêve Pasadena|Pasadena, CA| 112|34.14644|-118.08271|TRUE|FALSE|FALSE|TRUE
5622925|Economy Inn Hollywood|Pasadena, CA| 120|34.09775|-118.30605|TRUE|FALSE|FALSE|TRUE
5622925|Highland Park Motel|Pasadena, CA| 439|34.12216|-118.20927|FALSE|FALSE|TRUE|TRUE
5622925|Pasadena Hotel & Pool|Pasadena, CA| 225|34.14778|-118.14452|FALSE|TRUE|FALSE|TRUE
5648402|Hawthorn Suites by Wyndham Irving DFW South|Arlington, TX| 103|32.83954| -96.98900|TRUE|FALSE|FALSE|TRUE
5648402|Live by Loews, Arlington, TX|Arlington, TX| 771|32.74950| -97.08570|FALSE|TRUE|TRUE|TRUE
5648402|Hyatt Place Dallas/North Arlington/Grand Prairie|Arlington, TX| 195|32.77198| -97.06053|FALSE|FALSE|TRUE|TRUE
5648402|Aloft Dallas Arlington Entertainment District|Arlington, TX| 271|32.76138| -97.07485|FALSE|TRUE|TRUE|TRUE
5648402|Tru by Hilton Grand Prairie|Arlington, TX| 145|32.77218| -97.06160|TRUE|FALSE|FALSE|TRUE
5648402|Sheraton Arlington Hotel|Arlington, TX| 411|32.75686| -97.08185|FALSE|TRUE|TRUE|TRUE
5648402|Super 8 by Wyndham Irving DFW Airport/South|Arlington, TX|  92|32.83844| -97.01175|TRUE|FALSE|FALSE|TRUE
5648402|HomeTowne Studios by Red Roof Dallas - Irving|Arlington, TX|  72|32.86436| -96.99415|TRUE|FALSE|FALSE|TRUE
5648402|Courtyard by Marriott Dallas Arlington/Entertainment Dist|Arlington, TX| 280|32.75760| -97.08895|FALSE|TRUE|TRUE|TRUE
5648402|OYO Hotel Irving DFW Airport South|Arlington, TX|  69|32.83824| -96.98151|TRUE|FALSE|FALSE|TRUE
5648402|Courtyard by Marriott Dallas-Fort Worth/Bedford|Arlington, TX| 124|32.83822| -97.12953|TRUE|FALSE|FALSE|TRUE
5648402|Baymont by Wyndham Arlington At Six Flags Dr|Arlington, TX| 186|32.75387| -97.06519|FALSE|TRUE|TRUE|TRUE
5648402|SpringHill Suites Dallas Arlington North|Arlington, TX| 170|32.76329| -97.07872|TRUE|TRUE|FALSE|TRUE
5648402|Howard Johnson by Wyndham Arlington Ballpark / Six Flags|Arlington, TX| 207|32.75889| -97.07810|FALSE|TRUE|TRUE|TRUE
5648402|Extended Stay America Suites Arlington|Arlington, TX|  83|32.73569| -97.10807|TRUE|TRUE|FALSE|TRUE
5648402|Hyatt Place Fort Worth/Hurst|Arlington, TX| 125|32.84196| -97.18917|TRUE|FALSE|FALSE|TRUE
5648402|Hilton Arlington|Arlington, TX| 262|32.76248| -97.06729|FALSE|FALSE|TRUE|TRUE
5648402|DoubleTree by Hilton Hotel Arlington DFW South|Arlington, TX| 171|32.77338| -97.06353|FALSE|FALSE|TRUE|TRUE
5648402|Sleep Inn Arlington Near Six Flags|Arlington, TX| 170|32.75355| -97.06618|TRUE|TRUE|FALSE|TRUE
5648402|Arya Inn & Suites|Arlington, TX|  68|32.83452| -96.99184|TRUE|FALSE|FALSE|TRUE
5648402|Four Points by Sheraton Dallas Arlington Entertainment District|Arlington, TX| 200|32.74930| -97.06569|FALSE|TRUE|TRUE|TRUE
5655684|Days Inn by Wyndham Cleveland Lakewood|Cleveland, OH|  77|41.48959| -81.77313|TRUE|FALSE|FALSE|TRUE
5655684|Kimpton Schofield Hotel, an IHG Hotel|Cleveland, OH| 159|41.49961| -81.68674|FALSE|TRUE|TRUE|TRUE
5655684|Hyatt Regency Cleveland At The Arcade|Cleveland, OH| 159|41.50076| -81.69075|FALSE|TRUE|TRUE|TRUE
5655684|Extended Stay America Suites Cleveland Brooklyn|Cleveland, OH|  95|41.42483| -81.75763|TRUE|FALSE|FALSE|TRUE
5655684|Drury Plaza Hotel Cleveland Downtown|Cleveland, OH| 159|41.50221| -81.69202|FALSE|FALSE|TRUE|TRUE
5655684|The Ritz-Carlton, Cleveland|Cleveland, OH| 502|41.49726| -81.69469|FALSE|TRUE|TRUE|TRUE
5655684|Crowne Plaza Cleveland at Playhouse Square, an IHG Hotel|Cleveland, OH| 151|41.50049| -81.68329|FALSE|TRUE|FALSE|TRUE
5655684|Ramada by Wyndham Cleveland Independence|Cleveland, OH|  99|41.39493| -81.65457|TRUE|FALSE|FALSE|TRUE
5655684|Comfort Inn|Cleveland, OH| 106|41.50092| -81.67835|TRUE|FALSE|FALSE|TRUE
5655684|Hilton Cleveland Downtown|Cleveland, OH| 179|41.50279| -81.69562|FALSE|FALSE|TRUE|TRUE
5655684|Residence Inn By Marriott Cleveland Downtown|Cleveland, OH| 183|41.49871| -81.68902|FALSE|TRUE|TRUE|TRUE
5655684|Cleveland Marriott Downtown at Key Tower|Cleveland, OH| 189|41.50133| -81.69440|FALSE|FALSE|TRUE|TRUE
5655684|Travelodge by Wyndham Cleveland Airport|Cleveland, OH|  67|41.41807| -81.79263|TRUE|FALSE|FALSE|TRUE
5655684|Hotel Indigo Cleveland Downtown, an IHG Hotel|Cleveland, OH| 164|41.49820| -81.68767|FALSE|TRUE|TRUE|TRUE
5655684|Aloft Cleveland Downtown|Cleveland, OH| 174|41.50081| -81.70338|FALSE|FALSE|TRUE|TRUE
5655684|Red Roof Inn Cleveland - Independence|Cleveland, OH|  79|41.39458| -81.64999|TRUE|FALSE|FALSE|TRUE
5655684|Hilton Garden Inn Cleveland Downtown|Cleveland, OH| 159|41.49617| -81.68131|FALSE|TRUE|TRUE|TRUE
5655684|Holiday Inn Express Cleveland Downtown, an IHG Hotel|Cleveland, OH| 159|41.50039| -81.68879|FALSE|TRUE|TRUE|TRUE
5655684|Extended Stay America Premier Suites - Cleveland - Independence|Cleveland, OH|  99|41.40293| -81.65252|TRUE|FALSE|FALSE|TRUE
5655684|Travelodge by Wyndham Cleveland Lakewood|Cleveland, OH|  77|41.49014| -81.77088|TRUE|FALSE|FALSE|TRUE
5655684|Renaissance Cleveland Hotel|Cleveland, OH| 169|41.49856| -81.69471|FALSE|TRUE|TRUE|TRUE
5655684|La Quinta Inn by Wyndham Cleveland Independence|Cleveland, OH| 100|41.39373| -81.64880|TRUE|FALSE|FALSE|TRUE
5655684|The Westin Cleveland Downtown|Cleveland, OH| 180|41.50373| -81.69141|FALSE|FALSE|TRUE|TRUE
5655684|Economy Inn North Randall|Cleveland, OH|  76|41.42920| -81.52489|TRUE|FALSE|FALSE|TRUE
5655684|Metropolitan at The 9, Autograph Collection|Cleveland, OH| 199|41.49978| -81.68605|FALSE|TRUE|TRUE|TRUE
5679243|SureStay Plus Hotel by Best Western Point Richmond|Berkeley, CA| 101|37.92652|-122.37889|TRUE|FALSE|FALSE|TRUE
5679243|Graduate Berkeley|Berkeley, CA| 150|37.86792|-122.25631|FALSE|TRUE|FALSE|TRUE
5679243|The Ritz-Carlton, San Francisco|Berkeley, CA| 493|37.79162|-122.40728|FALSE|FALSE|TRUE|TRUE
5679243|Four Seasons Hotel San Francisco|Berkeley, CA| 553|37.78630|-122.40390|FALSE|FALSE|TRUE|TRUE
5679243|Europa Hotel|Berkeley, CA|  74|37.79814|-122.40687|TRUE|FALSE|FALSE|TRUE
5679243|Nash Hotel|Berkeley, CA| 134|37.87223|-122.26955|FALSE|TRUE|FALSE|TRUE
5679243|Residence Inn by Marriott Berkeley|Berkeley, CA| 189|37.87076|-122.26719|FALSE|TRUE|TRUE|TRUE
5679243|Aiden by Best Western @ Berkeley|Berkeley, CA| 162|37.87054|-122.28218|FALSE|TRUE|FALSE|TRUE
5679243|Hotel Shattuck Plaza|Berkeley, CA| 174|37.86918|-122.26849|FALSE|TRUE|FALSE|TRUE
5679243|SF Plaza Hotel|Berkeley, CA| 104|37.79064|-122.40587|TRUE|FALSE|FALSE|TRUE
5679243|Union Square Plaza Hotel|Berkeley, CA|  85|37.78718|-122.41049|TRUE|FALSE|FALSE|TRUE
5679243|La Quinta Inn by Wyndham Berkeley|Berkeley, CA| 121|37.86797|-122.29574|FALSE|TRUE|FALSE|TRUE
5679243|Radisson Hotel Oakland Airport|Berkeley, CA| 103|37.74201|-122.19492|TRUE|FALSE|FALSE|TRUE
5679243|HYATT house Emeryville/San Francisco Bay Area|Berkeley, CA| 190|37.83918|-122.29277|FALSE|TRUE|TRUE|TRUE
5679243|1 Hotel San Francisco|Berkeley, CA| 522|37.79359|-122.39305|FALSE|FALSE|TRUE|TRUE
5679243|Four Seasons Hotel San Francisco at Embarcadero|Berkeley, CA| 559|37.79246|-122.40079|FALSE|FALSE|TRUE|TRUE
5679243|Jack London Inn|Berkeley, CA|  87|37.79532|-122.27602|TRUE|FALSE|FALSE|TRUE
5679243|The Urban|Berkeley, CA|  83|37.79031|-122.40587|TRUE|FALSE|FALSE|TRUE
5679243|Rodeway Inn|Berkeley, CA| 100|37.87052|-122.28325|TRUE|TRUE|FALSE|TRUE
5679243|Hotel North Beach|Berkeley, CA|  76|37.87152|-122.27304|TRUE|TRUE|FALSE|TRUE
5679243|Civic Center Lodge|Berkeley, CA| 103|37.79535|-122.26516|TRUE|FALSE|FALSE|TRUE
5679243|The St. Regis San Francisco|Berkeley, CA| 645|37.78613|-122.40147|FALSE|FALSE|TRUE|TRUE
5679243|Quality Inn University|Berkeley, CA| 105|37.87145|-122.27639|FALSE|TRUE|FALSE|TRUE
5679243|Fairmont Heritage Place, Ghirardelli Square|Berkeley, CA|1070|37.80543|-122.42349|FALSE|FALSE|TRUE|TRUE
5679243|LUMA Hotel San Francisco |Berkeley, CA| 210|37.77484|-122.39029|FALSE|FALSE|TRUE|TRUE
5679243|Hyatt Place Emeryville/San Francisco Bay Area|Berkeley, CA| 181|37.83732|-122.29222|FALSE|FALSE|TRUE|TRUE
5679336|Residence Inn by Marriott Boulder Broomfield|Boulder, CO| 107|39.95710|-105.15807|TRUE|FALSE|FALSE|TRUE
5679336|Hyatt Place Boulder/Pearl Street|Boulder, CO| 144|40.02421|-105.25181|FALSE|TRUE|FALSE|TRUE
5679336|Quality Inn Louisville - Boulder|Boulder, CO|  84|39.96128|-105.16791|TRUE|FALSE|FALSE|TRUE
5679336|Courtyard by Marriott Boulder|Boulder, CO| 152|39.95889|-105.16368|FALSE|FALSE|TRUE|TRUE
5679336|Basecamp Boulder|Boulder, CO| 224|40.01416|-105.26839|FALSE|TRUE|TRUE|TRUE
5679336|Boulder Marriott|Boulder, CO| 200|40.01653|-105.25984|FALSE|TRUE|TRUE|TRUE
5679336|Omni Interlocken Hotel|Boulder, CO| 152|39.92769|-105.11884|FALSE|FALSE|TRUE|TRUE
5679336|Holiday Inn Express and Suites Broomfield, an IHG Hotel|Boulder, CO|  98|39.94156|-105.12600|TRUE|FALSE|FALSE|TRUE
5679336|Colorado Chautauqua|Boulder, CO| 264|39.99719|-105.27946|FALSE|TRUE|TRUE|TRUE
5679336|Embassy Suites by Hilton Boulder|Boulder, CO| 190|40.01791|-105.26022|FALSE|TRUE|TRUE|TRUE
5679336|Boulder Adventure Lodge|Boulder, CO| 119|40.01799|-105.32630|TRUE|FALSE|FALSE|TRUE
5679336|Courtyard by Marriott Boulder Broomfield|Boulder, CO|  84|39.95889|-105.16368|TRUE|FALSE|FALSE|TRUE
5679336|Hampton Inn Boulder - Louisville|Boulder, CO| 104|39.95855|-105.16280|TRUE|FALSE|FALSE|TRUE
5679336|Niwot Inn & Spa|Boulder, CO| 253|40.10222|-105.17024|FALSE|FALSE|TRUE|TRUE
5679336|Bradley Boulder Inn|Boulder, CO| 253|40.01988|-105.27480|FALSE|TRUE|TRUE|TRUE
5679336|Best Western Plus Louisville Inn & Suites|Boulder, CO|  94|39.95982|-105.16293|TRUE|FALSE|FALSE|TRUE
5679336|Hilton Garden Inn Boulder|Boulder, CO| 152|40.01797|-105.25880|FALSE|TRUE|TRUE|TRUE
5679336|Millennium Harvest House Boulder|Boulder, CO| 122|40.01230|-105.25972|FALSE|TRUE|FALSE|TRUE
5679336|HYATT house Boulder/Broomfield|Boulder, CO| 118|39.94033|-105.12471|TRUE|FALSE|FALSE|TRUE
5679336|Residence Inn By Marriott Boulder|Boulder, CO| 171|39.95744|-105.15847|FALSE|FALSE|TRUE|TRUE
5679336|Homewood Suites Boulder|Boulder, CO| 114|39.99734|-105.23268|TRUE|FALSE|FALSE|TRUE
5679336|Residence Inn by Marriott Boulder Canyon Boulevard|Boulder, CO| 201|40.01685|-105.26091|FALSE|TRUE|TRUE|TRUE
5679336|TownePlace Suites by Marriott Boulder Broomfield/Interlocken|Boulder, CO|  93|39.92581|-105.13055|TRUE|FALSE|FALSE|TRUE
5679336|Hotel Boulderado|Boulder, CO| 179|40.01934|-105.27943|FALSE|TRUE|TRUE|TRUE
5679357|EVEN Hotel Eugene, an IHG Hotel|Eugene, OR| 138|44.06100|-123.07895|FALSE|TRUE|TRUE|TRUE
5679357|Super 8 by Wyndham Springfield/Eugene|Eugene, OR|  98|44.08167|-123.04093|TRUE|FALSE|FALSE|TRUE
5679357|Hayward Inn|Eugene, OR| 119|44.04628|-123.06696|FALSE|TRUE|FALSE|TRUE
5679357|Hilton Garden Inn Eugene/Springfield|Eugene, OR| 165|44.08522|-123.04288|FALSE|FALSE|TRUE|TRUE
5679357|Maverick Hotel|Eugene, OR|  97|44.04615|-123.06550|TRUE|TRUE|FALSE|TRUE
5679357|Quality Inn and Suites Eugene - Springfield|Eugene, OR| 108|44.08540|-123.04366|TRUE|FALSE|FALSE|TRUE
5679357|Candlewood Suites Eugene Springfield, an IHG Hotel|Eugene, OR| 134|44.04412|-123.04679|FALSE|TRUE|FALSE|TRUE
5679357|Royal Inn Eugene|Eugene, OR| 109|44.07952|-123.15180|TRUE|FALSE|FALSE|TRUE
5679357|La Quinta Inn & Suites by Wyndham Eugene|Eugene, OR| 122|44.05837|-123.07980|FALSE|TRUE|FALSE|TRUE
5679357|Best Western New Oregon|Eugene, OR| 118|44.04704|-123.06825|TRUE|TRUE|FALSE|TRUE
5679357|Courtyard by Marriott Eugene Springfield|Eugene, OR| 141|44.08305|-123.03881|FALSE|FALSE|TRUE|TRUE
5679357|Residence Inn Eugene Springfield|Eugene, OR| 199|44.05971|-123.08369|FALSE|TRUE|TRUE|TRUE
5679357|The Gordon Hotel|Eugene, OR| 228|44.05372|-123.09120|FALSE|FALSE|TRUE|TRUE
5679357|Campbell House Inn|Eugene, OR| 140|44.05712|-123.09001|FALSE|FALSE|TRUE|TRUE
5679357|Comfort Suites Eugene|Eugene, OR| 114|44.03255|-123.04419|TRUE|FALSE|FALSE|TRUE
5679357|Valley River Inn|Eugene, OR| 117|44.06552|-123.10285|TRUE|FALSE|FALSE|TRUE
5679357|Hyatt Place Eugene / Oakway Center|Eugene, OR| 170|44.06638|-123.07784|FALSE|FALSE|TRUE|TRUE
5679357|Inn at the 5th|Eugene, OR| 254|44.05409|-123.08927|FALSE|TRUE|TRUE|TRUE
5679357|Graduate Eugene|Eugene, OR| 147|44.04408|-123.06525|FALSE|TRUE|TRUE|TRUE
5679357|HomeTowne Studios by Red Roof Eugene – Springfield|Eugene, OR|  89|44.05519|-123.09233|TRUE|FALSE|FALSE|TRUE
5679357|Home2 Suites by Hilton Eugene Downtown University Area|Eugene, OR| 141|44.04748|-123.09463|FALSE|FALSE|TRUE|TRUE
5679357|Valueinn Motel|Eugene, OR| 109|44.05207|-123.08675|TRUE|TRUE|FALSE|TRUE
5679357|Best Western Grand Manor Inn|Eugene, OR| 111|44.08205|-123.03969|TRUE|FALSE|FALSE|TRUE
5679364|Super 8 by Wyndham Mountain View|Stanford, CA| 125|37.38965|-122.09332|TRUE|FALSE|FALSE|TRUE
5679364|Sheraton Palo Alto Hotel|Stanford, CA| 303|37.44141|-122.16388|FALSE|TRUE|TRUE|TRUE
5679364|Hotel Lucent|Stanford, CA| 201|37.45136|-122.17914|FALSE|TRUE|FALSE|TRUE
5679364|Ramada by Wyndham Mountain View|Stanford, CA| 121|37.40635|-122.06375|TRUE|FALSE|FALSE|TRUE
5679364|Hotel Strata|Stanford, CA| 385|37.38115|-122.07590|FALSE|FALSE|TRUE|TRUE
5679364|Comfort Inn Sunnyvale - Silicon Valley|Stanford, CA| 112|37.39973|-122.02596|TRUE|FALSE|FALSE|TRUE
5679364|el PRADO|Stanford, CA| 553|37.44766|-122.15908|FALSE|TRUE|TRUE|TRUE
5679364|Good Nite Inn - Redwood City|Stanford, CA| 102|37.49631|-122.23581|TRUE|FALSE|FALSE|TRUE
5679364|Rosewood Sand Hill|Stanford, CA|1005|37.41924|-122.21292|FALSE|FALSE|TRUE|TRUE
5679364|The Grand Hotel|Stanford, CA| 168|37.42411|-122.16608|FALSE|TRUE|FALSE|TRUE
5679364|Hotel Fairchild|Stanford, CA| 125|37.40647|-122.06442|TRUE|FALSE|FALSE|TRUE
5679364|The Nest Hotel Palo Alto|Stanford, CA| 241|37.41735|-122.12899|FALSE|TRUE|FALSE|TRUE
5679364|Hotel Zico|Stanford, CA|  91|37.37971|-122.06857|TRUE|FALSE|FALSE|TRUE
5679364|Stanford Motor Inn Palo Alto|Stanford, CA| 158|37.42042|-122.13665|FALSE|TRUE|FALSE|TRUE
5679364|Ramada by Wyndham Sunnyvale/Silicon Valley|Stanford, CA| 124|37.39097|-121.99232|TRUE|FALSE|FALSE|TRUE
5679364|Menlo Park Inn|Stanford, CA| 105|37.45535|-122.18700|TRUE|FALSE|FALSE|TRUE
5679364|Americas Best Value Inn Mountain View|Stanford, CA| 122|37.38709|-122.08600|TRUE|FALSE|FALSE|TRUE
5679364|Hotel Nia, Autograph Collection|Stanford, CA| 420|37.48251|-122.17716|FALSE|FALSE|TRUE|TRUE
5679364|Creekside Inn|Stanford, CA| 147|37.41897|-122.13564|FALSE|TRUE|FALSE|TRUE
5679364|The Westin Palo Alto|Stanford, CA| 303|37.44063|-122.16310|FALSE|TRUE|TRUE|TRUE
5679364|Days Inn by Wyndham Redwood City|Stanford, CA| 111|37.47102|-122.21615|TRUE|FALSE|FALSE|TRUE
5679364|The Clement Hotel – All Inclusive|Stanford, CA|1062|37.44024|-122.16268|FALSE|TRUE|TRUE|TRUE
5679364|Larkspur Landing Sunnyvale - An All-Suite Hotel|Stanford, CA| 125|37.39453|-122.02803|TRUE|FALSE|FALSE|TRUE
5679364|Comfort Inn Palo Alto|Stanford, CA| 114|37.41675|-122.12836|TRUE|FALSE|FALSE|TRUE
5679364|The Stanford Park Hotel|Stanford, CA| 459|37.44776|-122.17224|FALSE|TRUE|TRUE|TRUE
5679364|Four Seasons Hotel Silicon Valley at East Palo Alto|Stanford, CA| 638|37.46030|-122.14243|FALSE|FALSE|TRUE|TRUE
5679364|Shashi Hotel Mountain View, an Urban Resort|Stanford, CA| 401|37.41695|-122.07772|FALSE|FALSE|TRUE|TRUE
5679366|Little America Hotel|Salt Lake City, UT| 124|40.75799|-111.89193|FALSE|TRUE|FALSE|TRUE
5679366|Ramada by Wyndham Salt Lake City|Salt Lake City, UT|  84|40.71740|-111.88712|TRUE|FALSE|FALSE|TRUE
5679366|Salt Lake Marriott Downtown at City Creek|Salt Lake City, UT| 181|40.76774|-111.89313|FALSE|TRUE|TRUE|TRUE
5679366|Hyatt Regency Salt Lake City|Salt Lake City, UT| 223|40.76574|-111.89463|FALSE|FALSE|TRUE|TRUE
5679366|Kimpton Hotel Monaco Salt Lake City, an IHG Hotel|Salt Lake City, UT| 199|40.76472|-111.89222|FALSE|TRUE|TRUE|TRUE
5679366|Quality Inn & Suites Airport West|Salt Lake City, UT|  81|40.77548|-112.02300|TRUE|FALSE|FALSE|TRUE
5679366|City Creek Inn & Suites|Salt Lake City, UT|  81|40.74690|-111.89023|TRUE|TRUE|FALSE|TRUE
5679366|Marriott City Center|Salt Lake City, UT| 193|40.76433|-111.88859|FALSE|TRUE|TRUE|TRUE
5679366|Radisson Hotel Salt Lake City Downtown|Salt Lake City, UT| 236|40.76899|-111.89782|FALSE|FALSE|TRUE|TRUE
5679366|Marriott University Park|Salt Lake City, UT| 163|40.75925|-111.83021|FALSE|TRUE|TRUE|TRUE
5679366|Ellerbeck Mansion Bed & Breakfast|Salt Lake City, UT| 208|40.77263|-111.88172|FALSE|TRUE|TRUE|TRUE
5679366|Sheraton Salt Lake City Hotel|Salt Lake City, UT| 190|40.75900|-111.89597|FALSE|FALSE|TRUE|TRUE
5679366|MainStay Suites Salt Lake City Fort Union|Salt Lake City, UT|  71|40.62426|-111.85270|TRUE|FALSE|FALSE|TRUE
5679366|Quality Inn Downtown|Salt Lake City, UT|  83|40.75574|-111.89726|TRUE|FALSE|FALSE|TRUE
5679366|HomeTowne Studios by Red Roof Salt Lake City - Mid Valley|Salt Lake City, UT|  85|40.64658|-111.93621|TRUE|FALSE|FALSE|TRUE
5679366|Comfort Inn Murray - Salt Lake City South|Salt Lake City, UT|  81|40.65501|-111.90444|TRUE|FALSE|FALSE|TRUE
5679366|Ramada by Wyndham Salt Lake City Airport Hotel|Salt Lake City, UT|  86|40.77535|-112.02386|TRUE|FALSE|FALSE|TRUE
5679366|Microtel Inn & Suites by Wyndham Salt Lake City Airport|Salt Lake City, UT|  84|40.77006|-112.00282|TRUE|FALSE|FALSE|TRUE
5679366|The Grand America Hotel|Salt Lake City, UT| 340|40.75740|-111.88888|FALSE|TRUE|TRUE|TRUE
5679366|Hilton Salt Lake City Center|Salt Lake City, UT| 297|40.76390|-111.89326|FALSE|TRUE|TRUE|TRUE
5679366|Extended Stay America Suites Salt Lake City West Valley Ctr|Salt Lake City, UT|  97|40.72464|-111.85618|FALSE|TRUE|FALSE|TRUE
5679366|Econo Lodge Downtown|Salt Lake City, UT|  84|40.77127|-111.91175|TRUE|FALSE|FALSE|TRUE
5679368|Quality Inn Tucson Airport - East Valencia|Tucson, AZ|  72|32.13453|-110.92957|TRUE|FALSE|FALSE|TRUE
5679368|Graduate Tucson|Tucson, AZ| 168|32.23282|-110.95767|FALSE|TRUE|TRUE|TRUE
5679368|Quality Inn near Downtown Tucson|Tucson, AZ|  71|32.22187|-110.97127|TRUE|TRUE|FALSE|TRUE
5679368|Econo Lodge near the University of Arizona|Tucson, AZ|  74|32.23188|-110.95011|TRUE|TRUE|FALSE|TRUE
5679368|JW Marriott Starr Pass Resort and Spa|Tucson, AZ| 324|32.21601|-111.05030|FALSE|FALSE|TRUE|TRUE
5679368|Red Roof Inn Tucson Downtown – University|Tucson, AZ|  80|32.23879|-110.97157|TRUE|TRUE|FALSE|TRUE
5679368|Hacienda Del Sol Guest Ranch Resort|Tucson, AZ| 276|32.30802|-110.91444|FALSE|FALSE|TRUE|TRUE
5679368|The Westin La Paloma Resort and Spa|Tucson, AZ| 238|32.31465|-110.91615|FALSE|FALSE|TRUE|TRUE
5679368|GLH Hotel|Tucson, AZ|  76|32.24987|-110.99386|TRUE|FALSE|FALSE|TRUE
5679368|The Lodge at Ventana Canyon|Tucson, AZ| 273|32.32191|-110.84534|FALSE|FALSE|TRUE|TRUE
5679368|Loews Ventana Canyon Resort|Tucson, AZ| 219|32.32770|-110.85016|FALSE|FALSE|TRUE|TRUE
5679368|Travel Inn|Tucson, AZ|  81|32.11720|-110.86047|TRUE|FALSE|FALSE|TRUE
5679368|Days Inn Tucson City Center|Tucson, AZ|  84|32.23119|-110.98414|TRUE|FALSE|FALSE|TRUE
5679368|FRONTDESK The Julian Drew Apts Downtown Tucson|Tucson, AZ| 109|32.22397|-110.97331|FALSE|TRUE|FALSE|TRUE
5679368|Days Inn by Wyndham Tucson Airport|Tucson, AZ|  77|32.16423|-110.91671|TRUE|FALSE|FALSE|TRUE
5679368|Lodge on the Desert|Tucson, AZ| 160|32.22597|-110.90885|FALSE|FALSE|TRUE|TRUE
5679368|DoubleTree by Hilton Tucson Downtown Convention Center|Tucson, AZ| 150|32.21732|-110.97321|FALSE|TRUE|FALSE|TRUE
5679368|Aloft Tucson University|Tucson, AZ| 127|32.23575|-110.94326|FALSE|TRUE|FALSE|TRUE
5679368|3 Palms Tucson North Foothills|Tucson, AZ|  85|32.34139|-110.97772|TRUE|FALSE|FALSE|TRUE
5679368|Tucson Marriott University Park|Tucson, AZ| 184|32.23252|-110.95832|FALSE|TRUE|TRUE|TRUE
5679368|Westward Look Wyndham Grand Resort and Spa|Tucson, AZ| 197|32.34263|-110.96530|FALSE|FALSE|TRUE|TRUE
5679368|The Armory Park Inn|Tucson, AZ| 298|32.21632|-110.96422|FALSE|TRUE|TRUE|TRUE
5679368|Best Western Royal Sun Inn & Suites|Tucson, AZ| 101|32.23488|-110.97199|FALSE|TRUE|FALSE|TRUE
5679368|Ramada by Wyndham Viscount Suites Tucson East|Tucson, AZ|  85|32.22223|-110.88847|TRUE|FALSE|FALSE|TRUE
5679478|Wyndham Phoenix Airport/Tempe|Tempe, AZ| 125|33.41099|-111.97059|FALSE|TRUE|FALSE|TRUE
5679478|Mountain Shadows Resort Scottsdale|Tempe, AZ| 394|33.53058|-111.96382|FALSE|FALSE|TRUE|TRUE
5679478|3 Palms|Tempe, AZ|  95|33.41925|-111.91953|TRUE|TRUE|FALSE|TRUE
5679478|Super 8 by Wyndham Chandler Phoenix|Tempe, AZ|  89|33.30487|-111.96657|TRUE|FALSE|FALSE|TRUE
5679478|Extend -a -Suites Mesa|Tempe, AZ|  74|33.42551|-111.94001|TRUE|TRUE|FALSE|TRUE
5679478|Senna House Scottsdale, A Curio Collection By Hilton|Tempe, AZ| 495|33.50192|-111.91999|FALSE|FALSE|TRUE|TRUE
5679478|Motel 6 Phoenix East|Tempe, AZ|  79|33.45034|-111.96701|TRUE|FALSE|FALSE|TRUE
5679478|Aloft Tempe|Tempe, AZ| 159|33.43469|-111.92447|FALSE|TRUE|TRUE|TRUE
5679478|Days Hotel by Wyndham Mesa Near Phoenix|Tempe, AZ|  93|33.38193|-111.83878|TRUE|FALSE|FALSE|TRUE
5679478|Extended Stay America Suites Phoenix Chandler|Tempe, AZ|  95|33.30493|-112.02499|TRUE|FALSE|FALSE|TRUE
5679478|Andaz Scottsdale Resort & Bungalows|Tempe, AZ| 479|33.52836|-111.92820|FALSE|FALSE|TRUE|TRUE
5679478|Quality Inn Chandler I-10|Tempe, AZ|  90|33.30637|-111.94502|TRUE|FALSE|FALSE|TRUE
5679478|The Phoenician, a Luxury Collection Resort, Scottsdale|Tempe, AZ| 646|33.50578|-111.94957|FALSE|FALSE|TRUE|TRUE
5679478|JW Marriott Camelback Inn Scottsdale Resort & Spa|Tempe, AZ| 568|33.53293|-111.96421|FALSE|FALSE|TRUE|TRUE
5679478|Red Roof Inn PLUS+ Tempe - Phoenix Airport|Tempe, AZ|  89|33.41152|-111.97151|TRUE|TRUE|FALSE|TRUE
5679478|Sanctuary Camelback Mountain, A Gurney's Resort and Spa|Tempe, AZ| 842|33.52248|-111.95951|FALSE|FALSE|TRUE|TRUE
5679478|DoubleTree by Hilton Hotel Phoenix Tempe|Tempe, AZ| 154|33.40660|-111.96172|FALSE|TRUE|FALSE|TRUE
5679478|The Westin Tempe|Tempe, AZ| 241|33.42286|-111.93929|FALSE|TRUE|TRUE|TRUE
5679478|Sleep Inn Phoenix Sky Harbor Airport|Tempe, AZ|  95|33.42378|-111.97905|TRUE|FALSE|FALSE|TRUE
5679478|Chandler Hospitality Inn|Tempe, AZ|  91|33.30862|-111.97351|TRUE|FALSE|FALSE|TRUE
5679478|Hyatt Place Tempe / Phoenix / University|Tempe, AZ| 159|33.42345|-111.92990|FALSE|TRUE|TRUE|TRUE
5679478|Rodeway Inn Old Town Scottsdale|Tempe, AZ|  80|33.48159|-111.92703|TRUE|FALSE|FALSE|TRUE
5679478|Hermosa Inn|Tempe, AZ| 611|33.51834|-112.00490|FALSE|FALSE|TRUE|TRUE
5679478|Comfort Suites Phoenix Airport|Tempe, AZ| 113|33.41023|-111.96914|FALSE|TRUE|FALSE|TRUE
5679478|Hyatt House Tempe/Phoenix/University|Tempe, AZ| 176|33.42371|-111.93002|FALSE|TRUE|TRUE|TRUE
5679480|Luskin Hotel|Los Angeles, CA| 292|34.06928|-118.44579|FALSE|TRUE|FALSE|TRUE
5679480|Palihotel Westwood Village|Los Angeles, CA| 285|34.06086|-118.44295|FALSE|TRUE|FALSE|TRUE
5679480|The Beverly Hills Hotel|Los Angeles, CA|1571|34.08171|-118.41380|FALSE|TRUE|TRUE|TRUE
5679480|Hollywood Roxy Hotel|Los Angeles, CA|  95|34.10069|-118.30964|TRUE|FALSE|FALSE|TRUE
5679480|Hotel Angeleno|Los Angeles, CA| 204|34.07374|-118.46820|FALSE|TRUE|FALSE|TRUE
5679480|The Maybourne Beverly Hills|Los Angeles, CA|1274|34.06777|-118.39892|FALSE|FALSE|TRUE|TRUE
5679480|Royal Palace Westwood|Los Angeles, CA| 222|34.06060|-118.44287|FALSE|TRUE|FALSE|TRUE
5679480|Beverly Wilshire - Beverly Hills, A Four Seasons Hotel|Los Angeles, CA|1024|34.06674|-118.40077|FALSE|FALSE|TRUE|TRUE
5679480|Four Seasons Los Angeles at Beverly Hills|Los Angeles, CA|1104|34.07295|-118.38921|FALSE|FALSE|TRUE|TRUE
5679480|Cloud 9 Inn LAX|Los Angeles, CA| 104|33.96197|-118.36567|TRUE|FALSE|FALSE|TRUE
5679480|Luxe Sunset Boulevard Hotel|Los Angeles, CA| 250|34.07261|-118.46901|FALSE|TRUE|FALSE|TRUE
5679480|Santa Monica Proper Hotel|Los Angeles, CA| 593|34.02087|-118.49452|FALSE|FALSE|TRUE|TRUE
5679480|Fairmont Miramar Hotel|Los Angeles, CA| 582|34.01783|-118.50168|FALSE|FALSE|TRUE|TRUE
5679480|Rosa Bell Motel - Los Angeles|Los Angeles, CA|  98|33.99136|-118.30872|TRUE|FALSE|FALSE|TRUE
5679480|Fairmont Century Plaza|Los Angeles, CA| 436|34.05745|-118.41578|FALSE|TRUE|FALSE|TRUE
5679480|H3 Inn & Suites - LAX Airport - Los Angeles|Los Angeles, CA|  98|33.94569|-118.36044|TRUE|FALSE|FALSE|TRUE
5679480|Shutters on the Beach|Los Angeles, CA| 955|34.00706|-118.49172|FALSE|FALSE|TRUE|TRUE
5679480|The Peninsula Beverly Hills|Los Angeles, CA|1157|34.06575|-118.41055|FALSE|TRUE|TRUE|TRUE
5679480|Ocean Park Hotel|Los Angeles, CA| 101|34.02121|-118.45244|TRUE|FALSE|FALSE|TRUE
5679480|Hollywood VIP Hotel|Los Angeles, CA| 101|34.10358|-118.33979|TRUE|FALSE|FALSE|TRUE
5679480|L'Ermitage Beverly Hills|Los Angeles, CA| 724|34.07264|-118.39542|FALSE|FALSE|TRUE|TRUE
5679480|Hollywood Guest Inn|Los Angeles, CA|  86|34.09772|-118.33695|TRUE|FALSE|FALSE|TRUE
5679480|Beverly Hills Plaza Hotel & Spa|Los Angeles, CA| 303|34.06773|-118.42604|FALSE|TRUE|FALSE|TRUE
5679480|Crenshaw Inn Motel|Los Angeles, CA| 107|33.98272|-118.33132|TRUE|FALSE|FALSE|TRUE
5679480|Skyways Hotel|Los Angeles, CA|  97|33.95252|-118.38508|TRUE|FALSE|FALSE|TRUE
5679480|Century Park Hotel|Los Angeles, CA| 194|34.05188|-118.41763|FALSE|TRUE|FALSE|TRUE
5679480|Casa Del Mar|Los Angeles, CA| 926|34.00627|-118.49147|FALSE|FALSE|TRUE|TRUE
5679480|Budget Motel|Los Angeles, CA|  97|33.97495|-118.31656|TRUE|FALSE|FALSE|TRUE
5679600|Ramada by Wyndham Los Angeles/Downtown West|Los Angeles, CA| 153|34.05120|-118.27772|FALSE|TRUE|FALSE|TRUE
5679600|The Maybourne Beverly Hills|Los Angeles, CA|1274|34.06777|-118.39892|FALSE|FALSE|TRUE|TRUE
5679600|L'Ermitage Beverly Hills|Los Angeles, CA| 724|34.07264|-118.39542|FALSE|FALSE|TRUE|TRUE
5679600|Central Inn Motel|Los Angeles, CA|  87|34.00935|-118.25629|TRUE|TRUE|FALSE|TRUE
5679600|Four Seasons Los Angeles at Beverly Hills|Los Angeles, CA|1104|34.07295|-118.38921|FALSE|FALSE|TRUE|TRUE
5679600|E-Central Downtown Los Angeles Hotel|Los Angeles, CA| 271|34.04432|-118.26413|FALSE|TRUE|FALSE|TRUE
5679600|Park Motel|Los Angeles, CA|  90|34.00815|-118.28303|TRUE|TRUE|FALSE|TRUE
5679600|Beverly Wilshire - Beverly Hills, A Four Seasons Hotel|Los Angeles, CA|1024|34.06674|-118.40077|FALSE|FALSE|TRUE|TRUE
5679600|Courtyard Los Angeles L.A. LIVE|Los Angeles, CA| 236|34.04600|-118.26581|FALSE|TRUE|FALSE|TRUE
5679600|Stuart Hotel - Near Good Samaritan Hospital|Los Angeles, CA|  87|34.05449|-118.26494|TRUE|FALSE|FALSE|TRUE
5679600|Hollywood Inn Suites Hotel|Los Angeles, CA|  80|33.91615|-118.29309|TRUE|FALSE|FALSE|TRUE
5679600|Waldorf Astoria Beverly Hills|Los Angeles, CA|1212|34.06658|-118.41164|FALSE|FALSE|TRUE|TRUE
5679600|Satellite Motel|Los Angeles, CA|  91|33.92324|-118.28229|TRUE|FALSE|FALSE|TRUE
5679600|Pendry West Hollywood|Los Angeles, CA| 576|34.09441|-118.37380|FALSE|FALSE|TRUE|TRUE
5679600|Antonio Hotel|Los Angeles, CA|  86|34.04595|-118.20875|TRUE|FALSE|FALSE|TRUE
5679600|The Peninsula Beverly Hills|Los Angeles, CA|1157|34.06575|-118.41055|FALSE|FALSE|TRUE|TRUE
5679600|Welcome Inn on Colorado Blvd|Los Angeles, CA|  85|34.13893|-118.20781|TRUE|FALSE|FALSE|TRUE
5679600|JW Marriott Los Angeles L.A. LIVE|Los Angeles, CA| 306|34.04530|-118.26648|FALSE|TRUE|FALSE|TRUE
5679600|Comet Motel|Los Angeles, CA|  91|33.93788|-118.26499|TRUE|FALSE|FALSE|TRUE
5679600|The West Hollywood EDITION|Los Angeles, CA| 653|34.09002|-118.38915|FALSE|FALSE|TRUE|TRUE
5679600|The Ritz-Carlton, Los Angeles|Los Angeles, CA| 703|34.04530|-118.26696|FALSE|TRUE|TRUE|TRUE
5679600|LAX Stadium Inn - El Segundo/Inglewood|Los Angeles, CA|  86|33.93112|-118.35535|TRUE|FALSE|FALSE|TRUE
5679600|The Beverly Hills Hotel|Los Angeles, CA|1571|34.08171|-118.41380|FALSE|FALSE|TRUE|TRUE
5679600|Redondo Beach Inn|Los Angeles, CA|  83|33.89303|-118.36550|TRUE|FALSE|FALSE|TRUE
5679600|USC Hotel|Los Angeles, CA| 175|34.01926|-118.28129|FALSE|TRUE|FALSE|TRUE
5679600|Hotel Indigo Los Angeles Downtown, an IHG Hotel|Los Angeles, CA| 226|34.04740|-118.26468|FALSE|TRUE|FALSE|TRUE
5679600|Central Inn Motel on 41 Street|Los Angeles, CA|  92|34.00935|-118.25629|FALSE|TRUE|FALSE|TRUE
5679600|Hollywood Guest Inn|Los Angeles, CA|  86|34.09772|-118.33695|TRUE|FALSE|FALSE|TRUE
5679602|Quality Inn Bellevue|Seattle, WA| 110|47.58134|-122.13688|TRUE|FALSE|FALSE|TRUE
5679602|Extended Stay America Suites Seattle Bellevue Factoria|Seattle, WA| 109|47.63458|-122.13137|TRUE|FALSE|FALSE|TRUE
5679602|Hampton Inn & Suites Seattle-Downtown|Seattle, WA| 141|47.62587|-122.34654|FALSE|TRUE|FALSE|TRUE
5679602|The Westin Seattle|Seattle, WA| 210|47.61369|-122.33827|FALSE|FALSE|TRUE|TRUE
5679602|Staypineapple, Watertown, University District Seattle|Seattle, WA| 127|47.65940|-122.31762|FALSE|TRUE|FALSE|TRUE
5679602|Courtyard by Marriott Seattle Downtown Lake Union|Seattle, WA| 151|47.62745|-122.34059|FALSE|TRUE|FALSE|TRUE
5679602|College Inn Hotel|Seattle, WA| 113|47.65545|-122.31301|TRUE|TRUE|FALSE|TRUE
5679602|Travelodge by Wyndham Seattle By The Space Needle|Seattle, WA| 115|47.62041|-122.34467|TRUE|FALSE|FALSE|TRUE
5679602|Graduate Seattle|Seattle, WA| 145|47.66166|-122.31463|FALSE|TRUE|FALSE|TRUE
5679602|Days Inn by Wyndham Seattle Aurora|Seattle, WA|  85|47.77134|-122.34658|TRUE|FALSE|FALSE|TRUE
5679602|Hyatt Regency Seattle|Seattle, WA| 204|47.61482|-122.33458|FALSE|FALSE|TRUE|TRUE
5679602|Extended Stay America Suites Seattle Redmond|Seattle, WA| 114|47.63458|-122.13137|TRUE|FALSE|FALSE|TRUE
5679602|Bellevue Club Hotel|Seattle, WA| 393|47.60535|-122.18956|FALSE|FALSE|TRUE|TRUE
5679602|Staypineapple, University Inn, University District Seattle|Seattle, WA| 108|47.65817|-122.31750|TRUE|TRUE|FALSE|TRUE
5679602|Lotte Hotel Seattle|Seattle, WA| 457|47.60525|-122.33084|FALSE|FALSE|TRUE|TRUE
5679602|Staypineapple, The Maxwell Hotel, Seattle Center Seattle|Seattle, WA| 123|47.62567|-122.35087|FALSE|TRUE|FALSE|TRUE
5679602|Mint House Seattle - Downtown|Seattle, WA| 272|47.61006|-122.34083|FALSE|FALSE|TRUE|TRUE
5679602|citizenM Seattle South Lake Union|Seattle, WA| 121|47.61997|-122.33888|FALSE|TRUE|FALSE|TRUE
5679602|Grand Hyatt Seattle|Seattle, WA| 187|47.61251|-122.33346|FALSE|FALSE|TRUE|TRUE
5679602|Four Seasons Hotel Seattle|Seattle, WA| 785|47.60738|-122.33916|FALSE|FALSE|TRUE|TRUE
5679602|Comfort Inn Kirkland|Seattle, WA| 103|47.70958|-122.17794|TRUE|FALSE|FALSE|TRUE
5679602|Hotel Hotel Hostel|Seattle, WA|  96|47.65120|-122.35013|TRUE|TRUE|FALSE|TRUE
5679602|Hotel Ballard|Seattle, WA| 419|47.66623|-122.38256|FALSE|FALSE|TRUE|TRUE
5679602|Fairmont Olympic Hotel|Seattle, WA| 314|47.60806|-122.33393|FALSE|FALSE|TRUE|TRUE
5679602|Willows Lodge|Seattle, WA| 530|47.73361|-122.14681|FALSE|FALSE|TRUE|TRUE
5679602|citizenM Seattle Pioneer Square|Seattle, WA| 104|47.60196|-122.33582|TRUE|FALSE|FALSE|TRUE
5679602|Four Points by Sheraton Downtown Seattle Center|Seattle, WA| 131|47.62496|-122.34470|FALSE|TRUE|FALSE|TRUE
5679604|Best Western Plus University Inn|Pullman, WA| 139|46.73341|-117.02370|TRUE|TRUE|TRUE|TRUE
5679604|Holiday Inn Express And Suites Pullman, an IHG Hotel|Pullman, WA| 135|46.71599|-117.16699|TRUE|TRUE|TRUE|TRUE
5679604|Super 8 by Wyndham Moscow / Pullman|Pullman, WA|  82|46.73389|-117.01691|TRUE|FALSE|TRUE|TRUE
5679604|Empire Studios By Barsala|Pullman, WA| 219|46.72978|-117.18174|FALSE|TRUE|TRUE|TRUE
5679604|Coast Hilltop Inn|Pullman, WA| 110|46.73252|-117.19249|TRUE|TRUE|TRUE|TRUE
5679604|Hotel McCoy - Art, Coffee, Beer, Wine|Pullman, WA| 148|46.72914|-117.17718|FALSE|TRUE|TRUE|TRUE
5679604|Empire Apartments By Barsala|Pullman, WA| 207|46.72978|-117.18174|FALSE|TRUE|TRUE|TRUE
5679604|Monarch Motel|Pullman, WA| 123|46.73040|-117.00231|TRUE|FALSE|TRUE|TRUE
5679604|Cougar Land Motel|Pullman, WA|  66|46.73009|-117.18242|TRUE|TRUE|FALSE|TRUE
5679604|Residence Inn Pullman|Pullman, WA| 131|46.73899|-117.15119|TRUE|TRUE|TRUE|TRUE
5679604|FairBridge Inn - Moscow|Pullman, WA|  78|46.73389|-117.02137|TRUE|FALSE|FALSE|TRUE
5679604|Quality Inn Paradise Creek|Pullman, WA|  80|46.72054|-117.16316|TRUE|TRUE|FALSE|TRUE
5679604|Courtyard by Marriott Pullman|Pullman, WA| 125|46.73995|-117.15026|TRUE|TRUE|TRUE|TRUE
5685265|Riverside Hotel|New Orleans, LA| 110|29.85646| -89.98640|TRUE|FALSE|FALSE|TRUE
5685265|Maison de la Luz|New Orleans, LA|1170|29.94879| -90.07202|FALSE|TRUE|TRUE|TRUE
5685265|The Ben Louie|New Orleans, LA| 132|29.96626| -90.10094|TRUE|FALSE|FALSE|TRUE
5685265|Le Pavillon New Orleans|New Orleans, LA| 419|29.95052| -90.07280|FALSE|TRUE|FALSE|TRUE
5685265|Hilton New Orleans Riverside|New Orleans, LA| 641|29.94751| -90.06345|FALSE|FALSE|TRUE|TRUE
5685265|Hotel Monteleone, New Orleans|New Orleans, LA| 512|29.95422| -90.06776|FALSE|FALSE|TRUE|TRUE
5685265|Best Western Bayou Inn|New Orleans, LA| 105|29.90780| -90.16035|TRUE|FALSE|FALSE|TRUE
5685265|La Quinta Inn by Wyndham New Orleans Veterans / Metairie|New Orleans, LA|  81|30.00483| -90.20567|TRUE|FALSE|FALSE|TRUE
5685265|Virgin Hotels New Orleans|New Orleans, LA| 686|29.94894| -90.07313|FALSE|TRUE|TRUE|TRUE
5685265|AC Hotel by Marriott New Orleans French Quarter|New Orleans, LA| 435|29.95242| -90.07131|FALSE|TRUE|FALSE|TRUE
5685265|Hotel Vinache|New Orleans, LA| 166|29.95629| -90.07443|FALSE|TRUE|FALSE|TRUE
5685265|Maison Pierre Lafitte|New Orleans, LA| 214|29.95466| -90.07201|FALSE|TRUE|FALSE|TRUE
5685265|Suburban Studios|New Orleans, LA| 100|29.90910| -90.20646|TRUE|FALSE|FALSE|TRUE
5685265|NOPSI Hotel, New Orleans|New Orleans, LA| 478|29.95205| -90.07265|FALSE|TRUE|TRUE|TRUE
5685265|Quality Inn New Orleans I-10 East|New Orleans, LA|  64|30.03715| -89.97409|TRUE|FALSE|FALSE|TRUE
5685265|Windsor Court Hotel|New Orleans, LA|1515|29.94948| -90.06635|FALSE|FALSE|TRUE|TRUE
5685265|Wyndham New Orleans - French Quarter|New Orleans, LA| 398|29.95376| -90.06835|FALSE|TRUE|FALSE|TRUE
5685265|Ramada by Wyndham Metairie New Orleans Airport|New Orleans, LA| 116|29.99609| -90.15893|TRUE|FALSE|FALSE|TRUE
5685265|Midtown Hotel - Downtown New Orleans|New Orleans, LA| 117|29.94978| -90.06771|TRUE|FALSE|FALSE|TRUE
5685265|InterContinental New Orleans, an IHG Hotel|New Orleans, LA| 406|29.95028| -90.06968|FALSE|TRUE|FALSE|TRUE
5685265|Harrahs New Orleans Casino & Hotel|New Orleans, LA|1192|29.94793| -90.06553|FALSE|FALSE|TRUE|TRUE
5685265|Four Seasons Hotel New Orleans|New Orleans, LA| 693|29.94888| -90.06389|FALSE|FALSE|TRUE|TRUE
5685265|Days Inn by Wyndham New Orleans Pontchartrain|New Orleans, LA|  83|30.00213| -90.03978|TRUE|FALSE|FALSE|TRUE
5685265|Comfort Inn Marrero - New Orleans West|New Orleans, LA| 101|29.89219| -90.12282|TRUE|FALSE|FALSE|TRUE
5685265|The Natchez|New Orleans, LA| 675|29.94974| -90.06870|FALSE|TRUE|TRUE|TRUE
5685265|Loews New Orleans Hotel|New Orleans, LA| 575|29.94797| -90.06621|FALSE|FALSE|TRUE|TRUE
5685308|HomeTowne Studios Phoenix - Dunlap Ave|Glendale, AZ|  79|33.56842|-112.10440|TRUE|FALSE|FALSE|TRUE
5685308|Travelers Inn|Glendale, AZ| 100|33.53865|-112.18599|FALSE|TRUE|FALSE|TRUE
5685308|Courtyard by Marriott Phoenix West/Avondale|Glendale, AZ| 152|33.46610|-112.26699|FALSE|TRUE|TRUE|TRUE
5685308|Red Roof Inn Phoenix - Midtown|Glendale, AZ|  86|33.49583|-112.11374|TRUE|FALSE|FALSE|TRUE
5685308|Travel Inn - In Phoenix (Alhambra)|Glendale, AZ|  80|33.49380|-112.11609|TRUE|FALSE|FALSE|TRUE
5685308|Super 8 by Wyndham Phoenix West|Glendale, AZ|  70|33.49607|-112.11553|TRUE|FALSE|FALSE|TRUE
5685308|Residence Inn Phoenix Glendale Sports & Entertainment District|Glendale, AZ| 195|33.54214|-112.26034|FALSE|TRUE|TRUE|TRUE
5685308|DoubleTree by Hilton Phoenix North|Glendale, AZ| 120|33.57931|-112.11996|FALSE|FALSE|TRUE|TRUE
5685308|Days Hotel by Wyndham Peoria Glendale Area|Glendale, AZ|  95|33.59079|-112.25157|TRUE|TRUE|FALSE|TRUE
5685308|Springhill Suites Phoenix Glendale Sports & Entertainment District|Glendale, AZ| 224|33.54272|-112.25994|FALSE|TRUE|TRUE|TRUE
5685308|The Hotel Serene|Glendale, AZ| 120|33.64117|-112.23025|FALSE|FALSE|TRUE|TRUE
5685308|Best Western Tolleson Hotel|Glendale, AZ| 178|33.46469|-112.24145|FALSE|TRUE|TRUE|TRUE
5685308|Home2 Suites by Hilton Glendale - Westgate|Glendale, AZ| 333|33.53138|-112.26659|FALSE|TRUE|TRUE|TRUE
5685308|Aloft Glendale at Westgate|Glendale, AZ| 263|33.53637|-112.25928|FALSE|TRUE|TRUE|TRUE
5685308|Sheraton Crescent Hotel|Glendale, AZ| 133|33.56851|-112.11560|FALSE|FALSE|TRUE|TRUE
5685308|HomeTowne Studios by Red Roof Phoenix - West|Glendale, AZ|  90|33.46438|-112.17166|TRUE|FALSE|FALSE|TRUE
5685308|Red Roof Inn PLUS+ Phoenix West|Glendale, AZ|  88|33.46438|-112.17166|TRUE|FALSE|FALSE|TRUE
5685308|Baymont by Wyndham Phoenix I-10 near 51st Ave|Glendale, AZ|  95|33.46209|-112.17325|TRUE|FALSE|FALSE|TRUE
5685308|Premier Inns Metro Center|Glendale, AZ|  94|33.58004|-112.11823|TRUE|FALSE|FALSE|TRUE
5685308|Super 8 by Wyndham Phoenix Metro North|Glendale, AZ|  75|33.55603|-112.11363|TRUE|FALSE|FALSE|TRUE
5685308|Tru By Hilton Phoenix Glendale Westgate, AZ|Glendale, AZ| 296|33.53125|-112.26562|FALSE|TRUE|TRUE|TRUE
5685308|Motel 6 Phoenix, AZ - West|Glendale, AZ|  90|33.46439|-112.17297|TRUE|FALSE|FALSE|TRUE
5685308|A Victory Inn Tolleson|Glendale, AZ| 112|33.46385|-112.24224|FALSE|TRUE|FALSE|TRUE
5685333|Travel Inn - In Phoenix (Alhambra)|Glendale, AZ|  80|33.49380|-112.11609|TRUE|FALSE|FALSE|TRUE
5685333|Super 8 by Wyndham Phoenix West|Glendale, AZ|  70|33.49607|-112.11553|TRUE|FALSE|FALSE|TRUE
5685333|Springhill Suites Phoenix Glendale Sports & Entertainment District|Glendale, AZ| 224|33.54272|-112.25994|FALSE|TRUE|TRUE|TRUE
5685333|Motel 6 Phoenix, AZ - West|Glendale, AZ|  90|33.46439|-112.17297|TRUE|FALSE|FALSE|TRUE
5685333|HomeTowne Studios Phoenix - Dunlap Ave|Glendale, AZ|  79|33.56842|-112.10440|TRUE|FALSE|FALSE|TRUE
5685333|Best Western Tolleson Hotel|Glendale, AZ| 178|33.46469|-112.24145|FALSE|TRUE|TRUE|TRUE
5685333|A Victory Inn Tolleson|Glendale, AZ| 112|33.46385|-112.24224|FALSE|TRUE|FALSE|TRUE
5685333|Sheraton Crescent Hotel|Glendale, AZ| 133|33.56851|-112.11560|FALSE|FALSE|TRUE|TRUE
5685333|Tru By Hilton Phoenix Glendale Westgate, AZ|Glendale, AZ| 296|33.53125|-112.26562|FALSE|TRUE|TRUE|TRUE
5685333|Aloft Glendale at Westgate|Glendale, AZ| 263|33.53637|-112.25928|FALSE|TRUE|TRUE|TRUE
5685333|Baymont by Wyndham Phoenix I-10 near 51st Ave|Glendale, AZ|  95|33.46209|-112.17325|TRUE|FALSE|FALSE|TRUE
5685333|Days Hotel by Wyndham Peoria Glendale Area|Glendale, AZ|  95|33.59079|-112.25157|TRUE|TRUE|FALSE|TRUE
5685333|Red Roof Inn PLUS+ Phoenix West|Glendale, AZ|  88|33.46438|-112.17166|TRUE|FALSE|FALSE|TRUE
5685333|DoubleTree by Hilton Phoenix North|Glendale, AZ| 120|33.57931|-112.11996|FALSE|FALSE|TRUE|TRUE
5685333|Courtyard by Marriott Phoenix West/Avondale|Glendale, AZ| 152|33.46610|-112.26699|FALSE|TRUE|TRUE|TRUE
5685333|Super 8 by Wyndham Phoenix Metro North|Glendale, AZ|  75|33.55603|-112.11363|TRUE|FALSE|FALSE|TRUE
5685333|Travelers Inn|Glendale, AZ| 100|33.53865|-112.18599|FALSE|TRUE|FALSE|TRUE
5685333|HomeTowne Studios by Red Roof Phoenix - West|Glendale, AZ|  90|33.46438|-112.17166|TRUE|FALSE|FALSE|TRUE
5685333|Red Roof Inn Phoenix - Midtown|Glendale, AZ|  86|33.49583|-112.11374|TRUE|FALSE|FALSE|TRUE
5685333|Home2 Suites by Hilton Glendale - Westgate|Glendale, AZ| 333|33.53138|-112.26659|FALSE|TRUE|TRUE|TRUE
5685333|Premier Inns Metro Center|Glendale, AZ|  94|33.58004|-112.11823|TRUE|FALSE|FALSE|TRUE
5685333|Residence Inn Phoenix Glendale Sports & Entertainment District|Glendale, AZ| 195|33.54214|-112.26034|FALSE|TRUE|TRUE|TRUE
5685333|The Hotel Serene|Glendale, AZ| 120|33.64117|-112.23025|FALSE|FALSE|TRUE|TRUE
5685337|A Victory Inn Tolleson|Glendale, AZ| 112|33.46385|-112.24224|FALSE|TRUE|FALSE|TRUE
5685337|Travelers Inn|Glendale, AZ| 100|33.53865|-112.18599|FALSE|TRUE|FALSE|TRUE
5685337|Tru By Hilton Phoenix Glendale Westgate, AZ|Glendale, AZ| 296|33.53125|-112.26562|FALSE|TRUE|TRUE|TRUE
5685337|Super 8 by Wyndham Phoenix Metro North|Glendale, AZ|  75|33.55603|-112.11363|TRUE|FALSE|FALSE|TRUE
5685337|Travel Inn - In Phoenix (Alhambra)|Glendale, AZ|  80|33.49380|-112.11609|TRUE|FALSE|FALSE|TRUE
5685337|DoubleTree by Hilton Phoenix North|Glendale, AZ| 120|33.57931|-112.11996|FALSE|FALSE|TRUE|TRUE
5685337|Aloft Glendale at Westgate|Glendale, AZ| 263|33.53637|-112.25928|FALSE|TRUE|TRUE|TRUE
5685337|Days Hotel by Wyndham Peoria Glendale Area|Glendale, AZ|  95|33.59079|-112.25157|TRUE|TRUE|FALSE|TRUE
5685337|Red Roof Inn Phoenix - Midtown|Glendale, AZ|  86|33.49583|-112.11374|TRUE|FALSE|FALSE|TRUE
5685337|Courtyard by Marriott Phoenix West/Avondale|Glendale, AZ| 152|33.46610|-112.26699|FALSE|TRUE|TRUE|TRUE
5685337|Sheraton Crescent Hotel|Glendale, AZ| 133|33.56851|-112.11560|FALSE|FALSE|TRUE|TRUE
5685337|Super 8 by Wyndham Phoenix West|Glendale, AZ|  70|33.49607|-112.11553|TRUE|FALSE|FALSE|TRUE
5685337|Best Western Tolleson Hotel|Glendale, AZ| 178|33.46469|-112.24145|FALSE|TRUE|TRUE|TRUE
5685337|HomeTowne Studios Phoenix - Dunlap Ave|Glendale, AZ|  79|33.56842|-112.10440|TRUE|FALSE|FALSE|TRUE
5685337|HomeTowne Studios by Red Roof Phoenix - West|Glendale, AZ|  90|33.46438|-112.17166|TRUE|FALSE|FALSE|TRUE
5685337|Home2 Suites by Hilton Glendale - Westgate|Glendale, AZ| 333|33.53138|-112.26659|FALSE|TRUE|TRUE|TRUE
5685337|Premier Inns Metro Center|Glendale, AZ|  94|33.58004|-112.11823|TRUE|FALSE|FALSE|TRUE
5685337|Baymont by Wyndham Phoenix I-10 near 51st Ave|Glendale, AZ|  95|33.46209|-112.17325|TRUE|FALSE|FALSE|TRUE
5685337|Motel 6 Phoenix, AZ - West|Glendale, AZ|  90|33.46439|-112.17297|TRUE|FALSE|FALSE|TRUE
5685337|The Hotel Serene|Glendale, AZ| 120|33.64117|-112.23025|FALSE|FALSE|TRUE|TRUE
5685337|Springhill Suites Phoenix Glendale Sports & Entertainment District|Glendale, AZ| 224|33.54272|-112.25994|FALSE|TRUE|TRUE|TRUE
5685337|Residence Inn Phoenix Glendale Sports & Entertainment District|Glendale, AZ| 195|33.54214|-112.26034|FALSE|TRUE|TRUE|TRUE
5685337|Red Roof Inn PLUS+ Phoenix West|Glendale, AZ|  88|33.46438|-112.17166|TRUE|FALSE|FALSE|TRUE
5685503|DoubleTree by Hilton Hotel Arlington DFW South|Arlington, TX| 171|32.77338| -97.06353|FALSE|FALSE|TRUE|TRUE
5685503|Arya Inn & Suites|Arlington, TX|  68|32.83452| -96.99184|TRUE|FALSE|FALSE|TRUE
5685503|SpringHill Suites Dallas Arlington North|Arlington, TX| 170|32.76329| -97.07872|TRUE|TRUE|FALSE|TRUE
5685503|Tru by Hilton Grand Prairie|Arlington, TX| 145|32.77218| -97.06160|TRUE|FALSE|FALSE|TRUE
5685503|Howard Johnson by Wyndham Arlington Ballpark / Six Flags|Arlington, TX| 207|32.75889| -97.07810|FALSE|TRUE|TRUE|TRUE
5685503|Aloft Dallas Arlington Entertainment District|Arlington, TX| 271|32.76138| -97.07485|FALSE|TRUE|TRUE|TRUE
5685503|Sheraton Arlington Hotel|Arlington, TX| 411|32.75686| -97.08185|FALSE|TRUE|TRUE|TRUE
5685503|Extended Stay America Suites Arlington|Arlington, TX|  83|32.73569| -97.10807|TRUE|TRUE|FALSE|TRUE
5685503|Live by Loews, Arlington, TX|Arlington, TX| 771|32.74950| -97.08570|FALSE|TRUE|TRUE|TRUE
5685503|HomeTowne Studios by Red Roof Dallas - Irving|Arlington, TX|  72|32.86436| -96.99415|TRUE|FALSE|FALSE|TRUE
5685503|Sleep Inn Arlington Near Six Flags|Arlington, TX| 170|32.75355| -97.06618|TRUE|TRUE|FALSE|TRUE
5685503|Hyatt Place Dallas/North Arlington/Grand Prairie|Arlington, TX| 195|32.77198| -97.06053|FALSE|FALSE|TRUE|TRUE
5685503|Super 8 by Wyndham Irving DFW Airport/South|Arlington, TX|  92|32.83844| -97.01175|TRUE|FALSE|FALSE|TRUE
5685503|Baymont by Wyndham Arlington At Six Flags Dr|Arlington, TX| 186|32.75387| -97.06519|FALSE|TRUE|TRUE|TRUE
5685503|Four Points by Sheraton Dallas Arlington Entertainment District|Arlington, TX| 200|32.74930| -97.06569|FALSE|TRUE|TRUE|TRUE
5685503|Courtyard by Marriott Dallas-Fort Worth/Bedford|Arlington, TX| 124|32.83822| -97.12953|TRUE|FALSE|FALSE|TRUE
5685503|Courtyard by Marriott Dallas Arlington/Entertainment Dist|Arlington, TX| 280|32.75760| -97.08895|FALSE|TRUE|TRUE|TRUE
5685503|Hawthorn Suites by Wyndham Irving DFW South|Arlington, TX| 103|32.83954| -96.98900|TRUE|FALSE|FALSE|TRUE
5685503|Hilton Arlington|Arlington, TX| 262|32.76248| -97.06729|FALSE|FALSE|TRUE|TRUE
5685503|Hyatt Place Fort Worth/Hurst|Arlington, TX| 125|32.84196| -97.18917|TRUE|FALSE|FALSE|TRUE
5685503|OYO Hotel Irving DFW Airport South|Arlington, TX|  69|32.83824| -96.98151|TRUE|FALSE|FALSE|TRUE
5685506|Arya Inn & Suites|Arlington, TX|  68|32.83452| -96.99184|TRUE|FALSE|FALSE|TRUE
5685506|Hyatt Place Dallas/North Arlington/Grand Prairie|Arlington, TX| 195|32.77198| -97.06053|FALSE|FALSE|TRUE|TRUE
5685506|DoubleTree by Hilton Hotel Arlington DFW South|Arlington, TX| 171|32.77338| -97.06353|FALSE|FALSE|TRUE|TRUE
5685506|Courtyard by Marriott Dallas Arlington/Entertainment Dist|Arlington, TX| 280|32.75760| -97.08895|FALSE|TRUE|TRUE|TRUE
5685506|Courtyard by Marriott Dallas-Fort Worth/Bedford|Arlington, TX| 124|32.83822| -97.12953|TRUE|FALSE|FALSE|TRUE
5685506|Four Points by Sheraton Dallas Arlington Entertainment District|Arlington, TX| 200|32.74930| -97.06569|FALSE|TRUE|TRUE|TRUE
5685506|HomeTowne Studios by Red Roof Dallas - Irving|Arlington, TX|  72|32.86436| -96.99415|TRUE|FALSE|FALSE|TRUE
5685506|Hawthorn Suites by Wyndham Irving DFW South|Arlington, TX| 103|32.83954| -96.98900|TRUE|FALSE|FALSE|TRUE
5685506|Sleep Inn Arlington Near Six Flags|Arlington, TX| 170|32.75355| -97.06618|TRUE|TRUE|FALSE|TRUE
5685506|Live by Loews, Arlington, TX|Arlington, TX| 771|32.74950| -97.08570|FALSE|TRUE|TRUE|TRUE
5685506|Super 8 by Wyndham Irving DFW Airport/South|Arlington, TX|  92|32.83844| -97.01175|TRUE|FALSE|FALSE|TRUE
5685506|Hyatt Place Fort Worth/Hurst|Arlington, TX| 125|32.84196| -97.18917|TRUE|FALSE|FALSE|TRUE
5685506|Aloft Dallas Arlington Entertainment District|Arlington, TX| 271|32.76138| -97.07485|FALSE|TRUE|TRUE|TRUE
5685506|Sheraton Arlington Hotel|Arlington, TX| 411|32.75686| -97.08185|FALSE|TRUE|TRUE|TRUE
5685506|Tru by Hilton Grand Prairie|Arlington, TX| 145|32.77218| -97.06160|TRUE|FALSE|FALSE|TRUE
5685506|Howard Johnson by Wyndham Arlington Ballpark / Six Flags|Arlington, TX| 207|32.75889| -97.07810|FALSE|TRUE|TRUE|TRUE
5685506|Extended Stay America Suites Arlington|Arlington, TX|  83|32.73569| -97.10807|TRUE|TRUE|FALSE|TRUE
5685506|OYO Hotel Irving DFW Airport South|Arlington, TX|  69|32.83824| -96.98151|TRUE|FALSE|FALSE|TRUE
5685506|SpringHill Suites Dallas Arlington North|Arlington, TX| 170|32.76329| -97.07872|TRUE|TRUE|FALSE|TRUE
5685506|Hilton Arlington|Arlington, TX| 262|32.76248| -97.06729|FALSE|FALSE|TRUE|TRUE
5685506|Baymont by Wyndham Arlington At Six Flags Dr|Arlington, TX| 186|32.75387| -97.06519|FALSE|TRUE|TRUE|TRUE
5685507|Extended Stay America Suites Arlington|Arlington, TX|  83|32.73569| -97.10807|TRUE|TRUE|FALSE|TRUE
5685507|Tru by Hilton Grand Prairie|Arlington, TX| 145|32.77218| -97.06160|TRUE|FALSE|FALSE|TRUE
5685507|Hyatt Place Dallas/North Arlington/Grand Prairie|Arlington, TX| 195|32.77198| -97.06053|FALSE|FALSE|TRUE|TRUE
5685507|Hyatt Place Fort Worth/Hurst|Arlington, TX| 125|32.84196| -97.18917|TRUE|FALSE|FALSE|TRUE
5685507|Four Points by Sheraton Dallas Arlington Entertainment District|Arlington, TX| 200|32.74930| -97.06569|FALSE|TRUE|TRUE|TRUE
5685507|Aloft Dallas Arlington Entertainment District|Arlington, TX| 271|32.76138| -97.07485|FALSE|TRUE|TRUE|TRUE
5685507|Sheraton Arlington Hotel|Arlington, TX| 411|32.75686| -97.08185|FALSE|TRUE|TRUE|TRUE
5685507|Baymont by Wyndham Arlington At Six Flags Dr|Arlington, TX| 186|32.75387| -97.06519|FALSE|TRUE|TRUE|TRUE
5685507|Hawthorn Suites by Wyndham Irving DFW South|Arlington, TX| 103|32.83954| -96.98900|TRUE|FALSE|FALSE|TRUE
5685507|SpringHill Suites Dallas Arlington North|Arlington, TX| 170|32.76329| -97.07872|TRUE|TRUE|FALSE|TRUE
5685507|DoubleTree by Hilton Hotel Arlington DFW South|Arlington, TX| 171|32.77338| -97.06353|FALSE|FALSE|TRUE|TRUE
5685507|Arya Inn & Suites|Arlington, TX|  68|32.83452| -96.99184|TRUE|FALSE|FALSE|TRUE
5685507|Courtyard by Marriott Dallas-Fort Worth/Bedford|Arlington, TX| 124|32.83822| -97.12953|TRUE|FALSE|FALSE|TRUE
5685507|HomeTowne Studios by Red Roof Dallas - Irving|Arlington, TX|  72|32.86436| -96.99415|TRUE|FALSE|FALSE|TRUE
5685507|Hilton Arlington|Arlington, TX| 262|32.76248| -97.06729|FALSE|FALSE|TRUE|TRUE
5685507|OYO Hotel Irving DFW Airport South|Arlington, TX|  69|32.83824| -96.98151|TRUE|FALSE|FALSE|TRUE
5685507|Live by Loews, Arlington, TX|Arlington, TX| 771|32.74950| -97.08570|FALSE|TRUE|TRUE|TRUE
5685507|Super 8 by Wyndham Irving DFW Airport/South|Arlington, TX|  92|32.83844| -97.01175|TRUE|FALSE|FALSE|TRUE
5685507|Sleep Inn Arlington Near Six Flags|Arlington, TX| 170|32.75355| -97.06618|TRUE|TRUE|FALSE|TRUE
5685507|Howard Johnson by Wyndham Arlington Ballpark / Six Flags|Arlington, TX| 207|32.75889| -97.07810|FALSE|TRUE|TRUE|TRUE
5685507|Courtyard by Marriott Dallas Arlington/Entertainment Dist|Arlington, TX| 280|32.75760| -97.08895|FALSE|TRUE|TRUE|TRUE
5689328|Omni La Mansion del Rio|San Antonio, TX| 240|29.42549| -98.49043|FALSE|FALSE|TRUE|TRUE
5689328|Flex Studios|San Antonio, TX|  56|29.52851| -98.56124|TRUE|FALSE|FALSE|TRUE
5689328|Days Inn by Wyndham San Antonio Alamo/Riverwalk|San Antonio, TX|  72|29.42615| -98.48274|FALSE|TRUE|FALSE|TRUE
5689328|Hyatt Regency San Antonio Riverwalk|San Antonio, TX| 295|29.42559| -98.48820|FALSE|TRUE|TRUE|TRUE
5689328|Quality Inn near SeaWorld - Lackland|San Antonio, TX|  57|29.43952| -98.64256|TRUE|FALSE|FALSE|TRUE
5689328|Hotel Contessa|San Antonio, TX| 189|29.42310| -98.48982|FALSE|TRUE|FALSE|TRUE
5689328|Super 8 by Wyndham San Antonio Downtown NE|San Antonio, TX|  61|29.45277| -98.41889|TRUE|FALSE|FALSE|TRUE
5689328|Mokara Hotel & Spa San Antonio|San Antonio, TX| 308|29.42469| -98.49054|FALSE|FALSE|TRUE|TRUE
5689328|Days Inn by Wyndham San Antonio at Palo Alto|San Antonio, TX|  55|29.32889| -98.55163|TRUE|FALSE|FALSE|TRUE
5689328|Star Inn Hotel Seaworld San Antonio|San Antonio, TX|  60|29.46722| -98.61688|TRUE|FALSE|FALSE|TRUE
5689328|DoubleTree by Hilton San Antonio Downtown|San Antonio, TX| 130|29.42660| -98.48588|FALSE|TRUE|FALSE|TRUE
5689328|Hotel Valencia Riverwalk|San Antonio, TX| 252|29.42627| -98.49159|FALSE|FALSE|TRUE|TRUE
5689328|Hilton Palacio Del Rio|San Antonio, TX| 277|29.42234| -98.48791|FALSE|TRUE|TRUE|TRUE
5689328|Super 8 by Wyndham San Antonio Near SeaWorld Ingram Park|San Antonio, TX|  57|29.45276| -98.62805|TRUE|FALSE|FALSE|TRUE
5689328|The Emily Morgan - a DoubleTree by Hilton|San Antonio, TX| 180|29.42660| -98.48595|FALSE|TRUE|FALSE|TRUE
5689328|Marriott San Antonio Riverwalk|San Antonio, TX| 331|29.42235| -98.48450|FALSE|TRUE|TRUE|TRUE
5689328|The Westin Riverwalk, San Antonio|San Antonio, TX| 292|29.42340| -98.49077|FALSE|TRUE|TRUE|TRUE
5689328|Econo Lodge|San Antonio, TX|  60|29.57262| -98.59237|TRUE|FALSE|FALSE|TRUE
5689328|The St. Anthony, A Luxury Collection Hotel, San Antonio|San Antonio, TX| 331|29.42733| -98.48954|FALSE|FALSE|TRUE|TRUE
5689328|Deluxe Inn San Antonio|San Antonio, TX|  58|29.40391| -98.62514|TRUE|FALSE|FALSE|TRUE
5689328|O´Brien Historic Hotel|San Antonio, TX| 142|29.42150| -98.49057|FALSE|TRUE|FALSE|TRUE
5689328|La Quinta Inn by Wyndham San Antonio South Park|San Antonio, TX|  61|29.35521| -98.52597|TRUE|FALSE|FALSE|TRUE
5689328|Thompson San Antonio – Riverwalk|San Antonio, TX| 341|29.43169| -98.48904|FALSE|FALSE|TRUE|TRUE
5689328|Extended Stay SA|San Antonio, TX|  57|29.56888| -98.47979|TRUE|FALSE|FALSE|TRUE
5689328|Quality Inn Near Medical Center|San Antonio, TX|  57|29.48781| -98.58071|TRUE|FALSE|FALSE|TRUE
5689328|San Antonio Marriott Rivercenter|San Antonio, TX| 374|29.42314| -98.48363|FALSE|TRUE|TRUE|TRUE
5689330|Econo Lodge Inn & Suites|El Paso, TX|  45|31.83806|-106.56857|TRUE|FALSE|FALSE|TRUE
5689330|Courtyard by Marriott El Paso Downtown/Convention Center|El Paso, TX| 129|31.76068|-106.49244|FALSE|TRUE|TRUE|TRUE
5689330|Travelodge by Wyndham El Paso - Airport|El Paso, TX|  63|31.78057|-106.40861|TRUE|FALSE|FALSE|TRUE
5689330|Extended Stay America Suites El Paso West|El Paso, TX|  69|31.84149|-106.56827|TRUE|FALSE|FALSE|TRUE
5689330|Radisson Hotel El Paso Airport|El Paso, TX| 147|31.79379|-106.39454|FALSE|FALSE|TRUE|TRUE
5689330|DoubleTree by Hilton El Paso Downtown|El Paso, TX| 128|31.76114|-106.49127|FALSE|TRUE|TRUE|TRUE
5689330|Quality Inn & Suites El Paso I-10|El Paso, TX|  60|31.87587|-106.58121|TRUE|FALSE|FALSE|TRUE
5689330|The Gardner Hotel El Paso|El Paso, TX|  82|31.76192|-106.48800|FALSE|TRUE|FALSE|TRUE
5689330|Hotel Maripina|El Paso, TX|  41|31.74718|-106.45521|TRUE|FALSE|FALSE|TRUE
5689330|The Plaza Hotel Pioneer Park|El Paso, TX| 242|31.75890|-106.48863|FALSE|TRUE|TRUE|TRUE
5689330|Quality Inn Airport East|El Paso, TX|  69|31.75060|-106.34471|TRUE|FALSE|FALSE|TRUE
5689330|Extended Stay America Suites El Paso Airport|El Paso, TX|  69|31.80533|-106.38243|TRUE|FALSE|FALSE|TRUE
5689330|Hotel Paso Del Norte, Autograph Collection|El Paso, TX| 179|31.75776|-106.48944|FALSE|TRUE|TRUE|TRUE
5689330|Hotel Indigo El Paso Downtown, an IHG Hotel|El Paso, TX| 151|31.76103|-106.48675|FALSE|TRUE|TRUE|TRUE
5689330|Hilton Garden Inn El Paso / University|El Paso, TX| 136|31.77296|-106.50154|FALSE|TRUE|TRUE|TRUE
5689330|La Quinta Inn by Wyndham El Paso Cielo Vista|El Paso, TX|  66|31.76675|-106.36565|TRUE|FALSE|FALSE|TRUE
5689330|Quality Suites University|El Paso, TX|  54|31.81591|-106.55148|TRUE|FALSE|FALSE|TRUE
5689330|Embassy Suites by Hilton El Paso|El Paso, TX| 165|31.78047|-106.40969|FALSE|FALSE|TRUE|TRUE
5689330|Aloft El Paso Downtown|El Paso, TX| 119|31.75968|-106.48628|FALSE|TRUE|FALSE|TRUE
5689330|Stanton House|El Paso, TX| 229|31.75957|-106.48687|FALSE|TRUE|TRUE|TRUE
5689330|Hotel Chula Vista|El Paso, TX|  56|31.72791|-106.31096|TRUE|FALSE|FALSE|TRUE
5689330|Sleep Inn University|El Paso, TX|  60|31.81581|-106.55232|TRUE|FALSE|FALSE|TRUE
5689330|HI Express El Paso Downtown, an IHG Hotel|El Paso, TX| 138|31.76339|-106.48820|FALSE|TRUE|TRUE|TRUE
5689330|Hotel Conquistador Inn By US Consulate|El Paso, TX|  69|31.69213|-106.40380|TRUE|FALSE|FALSE|TRUE
5689332|Hyatt Place Tampa Downtown|Tampa, FL| 189|27.94781| -82.45653|FALSE|FALSE|TRUE|TRUE
5689332|Marriott Tampa Westshore|Tampa, FL| 226|27.95304| -82.52309|FALSE|TRUE|TRUE|TRUE
5689332|Econo Lodge Busch Gardens|Tampa, FL|  88|28.03202| -82.44045|TRUE|FALSE|FALSE|TRUE
5689332|Hotel South Tampa & Suites|Tampa, FL| 117|27.93392| -82.50577|TRUE|FALSE|FALSE|TRUE
5689332|Quality Inn & Suites Near Fairgrounds Ybor City|Tampa, FL| 114|27.96827| -82.40370|TRUE|FALSE|FALSE|TRUE
5689332|Hotel Tampa Riverwalk|Tampa, FL| 171|27.94467| -82.45879|FALSE|FALSE|TRUE|TRUE
5689332|SpringHill Suites by Marriott Tampa Westshore Airport|Tampa, FL| 163|27.95302| -82.52554|FALSE|TRUE|TRUE|TRUE
5689332|DoubleTree by Hilton Hotel Tampa Airport - Westshore|Tampa, FL| 132|27.95148| -82.52111|FALSE|TRUE|FALSE|TRUE
5689332|Holiday Inn Tampa Westshore - Airport Area, an IHG Hotel|Tampa, FL| 154|27.95161| -82.52501|FALSE|TRUE|FALSE|TRUE
5689332|The Tampa EDITION|Tampa, FL| 720|27.94369| -82.45085|FALSE|FALSE|TRUE|TRUE
5689332|Tampa Airport Marriott|Tampa, FL| 271|27.98187| -82.53461|FALSE|TRUE|TRUE|TRUE
5689332|Suburban Studios Airport|Tampa, FL| 108|27.99615| -82.55702|TRUE|FALSE|FALSE|TRUE
5689332|Seminole Hard Rock Hotel & Casino Tampa|Tampa, FL| 373|27.99338| -82.37198|FALSE|FALSE|TRUE|TRUE
5689332|La Quinta Inn & Suites by Wyndham Tampa Fairgrounds - Casino|Tampa, FL| 107|27.98951| -82.35775|TRUE|FALSE|FALSE|TRUE
5689332|Four Points by Sheraton Suites Tampa Airport Westshore|Tampa, FL| 163|27.95163| -82.51853|FALSE|TRUE|TRUE|TRUE
5689332|Hyatt Place Tampa Airport/Westshore|Tampa, FL| 177|27.95748| -82.52591|FALSE|TRUE|TRUE|TRUE
5689332|Hampton Inn & Suites Tampa Airport Avion Park Westshore|Tampa, FL| 163|27.95936| -82.53385|FALSE|FALSE|TRUE|TRUE
5689332|Quality Inn and Conference Center Tampa-Brandon|Tampa, FL| 110|28.05399| -82.42903|TRUE|FALSE|FALSE|TRUE
5689332|Ramada by Wyndham Tampa Airport Westshore|Tampa, FL| 134|27.95393| -82.52474|FALSE|TRUE|FALSE|TRUE
5689332|Hyatt House Tampa Airport Westshore|Tampa, FL| 171|27.95692| -82.53262|FALSE|FALSE|TRUE|TRUE
5689332|JW Marriott Tampa Water Street|Tampa, FL| 391|27.94191| -82.45367|FALSE|FALSE|TRUE|TRUE
5689332|Extended Stay America Suites Tampa Airport Spruce Street|Tampa, FL| 124|27.95890| -82.51729|FALSE|TRUE|FALSE|TRUE
5689332|La Quinta Inn by Wyndham Tampa Near Busch Gardens|Tampa, FL|  90|28.03364| -82.42705|TRUE|FALSE|FALSE|TRUE
5689332|Econo Lodge Airport at RJ Stadium|Tampa, FL|  88|27.97587| -82.50333|TRUE|TRUE|FALSE|TRUE
5689332|Extended Stay America Suites Tampa North Airport|Tampa, FL| 113|27.99748| -82.54671|TRUE|FALSE|FALSE|TRUE
5689332|Rodeway Inn Near Ybor City - Casino|Tampa, FL| 114|27.96992| -82.40352|TRUE|FALSE|FALSE|TRUE
5692975|The Beverly Hills Hotel|Inglewood, CA|1571|33.96168|-118.35313|FALSE|TRUE|TRUE|TRUE
5692975|Quality Inn & Suites Los Angeles Airport - LAX|Inglewood, CA| 155|33.94493|-118.36455|FALSE|TRUE|FALSE|TRUE
5692975|The Peninsula Beverly Hills|Inglewood, CA|1110|34.06576|-118.41072|FALSE|FALSE|TRUE|TRUE
5692975|Royal Century Hotel|Inglewood, CA|  92|33.94491|-118.35159|TRUE|TRUE|FALSE|TRUE
5692975|Holiday Inn Los Angeles - LAX Airport, an IHG Hotel|Inglewood, CA| 184|33.94620|-118.37092|FALSE|TRUE|FALSE|TRUE
5692975|Central Inn Motel|Inglewood, CA|  98|34.00935|-118.25629|TRUE|FALSE|FALSE|TRUE
5692975|La Quinta Inn & Suites by Wyndham Inglewood|Inglewood, CA| 215|33.93125|-118.34332|FALSE|TRUE|FALSE|TRUE
5692975|Shutters on the Beach|Inglewood, CA| 955|34.00692|-118.49169|FALSE|FALSE|TRUE|TRUE
5692975|City Center Hotel|Inglewood, CA| 108|34.05151|-118.26500|TRUE|FALSE|FALSE|TRUE
5692975|H3 Inn & Suites - LAX Airport - Los Angeles|Inglewood, CA| 101|33.94569|-118.36044|TRUE|TRUE|FALSE|TRUE
5692975|Antonio Hotel|Inglewood, CA|  97|33.96168|-118.35313|TRUE|TRUE|FALSE|TRUE
5692975|Ramada by Wyndham Hawthorne LAX / LA Stadium|Inglewood, CA| 105|33.91607|-118.37208|TRUE|FALSE|FALSE|TRUE
5692975|Best Western Plus Suites Hotel - Los Angeles LAX Airport|Inglewood, CA| 187|33.94579|-118.36570|FALSE|TRUE|FALSE|TRUE
5692975|The Maybourne Beverly Hills|Inglewood, CA|1396|34.06797|-118.39875|FALSE|FALSE|TRUE|TRUE
5692975|Budget Motel|Inglewood, CA| 108|33.97495|-118.31656|TRUE|FALSE|FALSE|TRUE
5692975|The Wave Manhattan Beach|Inglewood, CA| 109|33.88474|-118.41091|TRUE|FALSE|FALSE|TRUE
5692975|LAX Stadium Inn - El Segundo/Inglewood|Inglewood, CA|  97|33.93112|-118.35535|TRUE|TRUE|FALSE|TRUE
5692975|Beverly Wilshire - Beverly Hills, A Four Seasons Hotel|Inglewood, CA| 983|34.06674|-118.40077|FALSE|FALSE|TRUE|TRUE
5692975|Pendry West Hollywood|Inglewood, CA| 674|34.09440|-118.37379|FALSE|FALSE|TRUE|TRUE
5692975|Loews Santa Monica Beach Hotel|Inglewood, CA| 629|34.00924|-118.49292|FALSE|FALSE|TRUE|TRUE
5692975|Four Seasons Los Angeles at Beverly Hills|Inglewood, CA| 988|34.07305|-118.38934|FALSE|FALSE|TRUE|TRUE
5692975|Casa Del Mar|Inglewood, CA| 897|34.00627|-118.49147|FALSE|FALSE|TRUE|TRUE
5692975|L'Ermitage Beverly Hills|Inglewood, CA| 724|34.07254|-118.39540|FALSE|FALSE|TRUE|TRUE
5692975|Eastsider Motel|Inglewood, CA| 100|34.02232|-118.25272|TRUE|FALSE|FALSE|TRUE
5692975|Cloud 9 Inn LAX|Inglewood, CA| 110|33.96197|-118.36567|FALSE|TRUE|FALSE|TRUE
5693185|The Westin Charlotte|Charlotte, NC| 193|35.22210| -80.84727|FALSE|TRUE|TRUE|TRUE
5693185|La Quinta Inn & Suites by Wyndham Charlotte Airport North|Charlotte, NC|  72|35.24120| -80.92062|TRUE|FALSE|FALSE|TRUE
5693185|DoubleTree by Hilton Hotel Charlotte|Charlotte, NC| 167|35.23307| -80.85196|FALSE|TRUE|TRUE|TRUE
5693185|Baymont by Wyndham Charlotte University|Charlotte, NC|  77|35.28065| -80.79062|TRUE|FALSE|FALSE|TRUE
5693185|Extended Stay America Suites Charlotte Airport|Charlotte, NC|  77|35.23751| -80.92262|TRUE|FALSE|FALSE|TRUE
5693185|Hyatt Place Charlotte Downtown|Charlotte, NC| 184|35.22258| -80.84108|FALSE|TRUE|TRUE|TRUE
5693185|Charlotte Marriott City Center|Charlotte, NC| 234|35.22799| -80.84346|FALSE|TRUE|TRUE|TRUE
5693185|Grand Bohemian Hotel Charlotte, Autograph Collection|Charlotte, NC| 264|35.22818| -80.84444|FALSE|TRUE|TRUE|TRUE
5693185|HYATT house Charlotte/Center City|Charlotte, NC| 191|35.22419| -80.83905|FALSE|FALSE|TRUE|TRUE
5693185|Quality Inn & Suites Airport|Charlotte, NC|  80|35.23971| -80.91740|TRUE|FALSE|FALSE|TRUE
5693185|Hampton Inn Charlotte-Uptown|Charlotte, NC| 167|35.22013| -80.84237|FALSE|TRUE|TRUE|TRUE
5693185|Sleep Inn Airport - Billy Graham Parkway|Charlotte, NC|  81|35.17971| -80.89302|TRUE|FALSE|FALSE|TRUE
5693185|Microtel Inn & Suites by Wyndham Charlotte/Northlake|Charlotte, NC|  72|35.30574| -80.85259|TRUE|FALSE|FALSE|TRUE
5693185|Aloft Charlotte City Center|Charlotte, NC| 156|35.22506| -80.84190|FALSE|TRUE|FALSE|TRUE
5693185|Kimpton Tryon Park Hotel, an IHG Hotel|Charlotte, NC| 284|35.22642| -80.84637|FALSE|TRUE|TRUE|TRUE
5693185|Suburban Studios Charlotte-Ballantyne|Charlotte, NC|  78|35.09420| -80.86364|TRUE|FALSE|FALSE|TRUE
5693185|The Ritz-Carlton, Charlotte|Charlotte, NC| 748|35.22616| -80.84145|FALSE|TRUE|TRUE|TRUE
5693185|Rodeway Inn Charlotte Airport Area|Charlotte, NC|  70|35.24074| -80.91852|TRUE|FALSE|FALSE|TRUE
5693185|Hilton Charlotte Uptown|Charlotte, NC| 192|35.22393| -80.84377|FALSE|TRUE|TRUE|TRUE
5693185|Quality Inn Airport South|Charlotte, NC|  63|35.18012| -80.88358|TRUE|FALSE|FALSE|TRUE
5693185|Royal Inn Charlotte Airport Hotel|Charlotte, NC|  78|35.23542| -80.91795|TRUE|FALSE|FALSE|TRUE
5695239|Margaritaville Hollywood Beach Resort|Miami Gardens, FL| 534|26.01878| -80.11674|FALSE|FALSE|TRUE|TRUE
5695239|The Clevelander|Miami Gardens, FL| 111|25.78078| -80.13098|TRUE|FALSE|FALSE|TRUE
5695239|The St. Regis Bal Harbour Resort|Miami Gardens, FL|1132|25.88909| -80.12241|FALSE|FALSE|TRUE|TRUE
5695239|Greniers|Miami Gardens, FL|  90|26.02505| -80.11578|TRUE|FALSE|FALSE|TRUE
5695239|Four Seasons Hotel at The Surf Club|Miami Gardens, FL|2049|25.87772| -80.12142|FALSE|FALSE|TRUE|TRUE
5695239|May-Dee Suites|Miami Gardens, FL| 122|26.01073| -80.19495|FALSE|TRUE|FALSE|TRUE
5695239|Miami Lakes Hotel|Miami Gardens, FL| 141|25.91206| -80.31126|FALSE|TRUE|FALSE|TRUE
5695239|WoodSpring Suites Miramar|Miami Gardens, FL| 124|25.97539| -80.29685|FALSE|TRUE|FALSE|TRUE
5695239|Grand Palms Spa & Golf Resort|Miami Gardens, FL| 101|26.00016| -80.35079|TRUE|FALSE|FALSE|TRUE
5695239|Casa Pellegrino|Miami Gardens, FL|  94|26.02446| -80.11617|TRUE|FALSE|FALSE|TRUE
5695239|Thunderbird Hotel|Miami Gardens, FL| 121|25.94204| -80.24560|FALSE|TRUE|FALSE|TRUE
5695239|Dream Inn|Miami Gardens, FL| 113|25.94204| -80.24560|TRUE|TRUE|FALSE|TRUE
5695239|Stadium Hotel|Miami Gardens, FL| 162|25.95790| -80.23885|FALSE|TRUE|FALSE|TRUE
5695239|Best Western Plus Hollywood/Aventura|Miami Gardens, FL| 153|25.98591| -80.16482|FALSE|TRUE|FALSE|TRUE
5695239|Private Ocean Condos at Marenas Beach|Miami Gardens, FL| 619|25.94916| -80.11988|FALSE|FALSE|TRUE|TRUE
5695239|Diplomat Beach Resort Hollywood, Curio Collection by Hilton|Miami Gardens, FL| 415|25.99191| -80.11828|FALSE|FALSE|TRUE|TRUE
5695239|Curtis Inn & Suites|Miami Gardens, FL| 102|25.99833| -80.14250|TRUE|FALSE|FALSE|TRUE
5695239|Hollywood Beach Hotels|Miami Gardens, FL|  93|25.94204| -80.24560|TRUE|TRUE|FALSE|TRUE
5695239|Red Carpet Inn Airport/Cruiseport|Miami Gardens, FL|  77|26.08635| -80.17466|TRUE|FALSE|FALSE|TRUE
5695239|The Oasis Tower at Seminole Hard Rock|Miami Gardens, FL| 705|26.05187| -80.21052|FALSE|FALSE|TRUE|TRUE
5695239|Trump International Beach Resort|Miami Gardens, FL| 470|25.94320| -80.12061|FALSE|FALSE|TRUE|TRUE
5695239|Seminole Hard Rock Hotel and Casino|Miami Gardens, FL| 610|26.05082| -80.21155|FALSE|FALSE|TRUE|TRUE
5695239|Acqualina Resort & Residences On The Beach|Miami Gardens, FL|1130|25.94082| -80.12092|FALSE|FALSE|TRUE|TRUE
5695239|SpringHill Suites by Marriott Fort Lauderdale Miramar|Miami Gardens, FL| 168|25.97424| -80.29263|FALSE|TRUE|FALSE|TRUE
5695239|Miami Gardens Inn & Suites|Miami Gardens, FL| 116|25.94204| -80.24560|FALSE|TRUE|FALSE|TRUE
5695239|Hotolos Hollywood|Miami Gardens, FL| 100|26.04703| -80.15850|TRUE|FALSE|FALSE|TRUE
5695239|The Ritz-Carlton Bal Harbour, Miami|Miami Gardens, FL| 943|25.89900| -80.12330|FALSE|FALSE|TRUE|TRUE
5695239|Travelodge by Wyndham Miami Biscayne Bay|Miami Gardens, FL|  82|25.82499| -80.18661|TRUE|FALSE|FALSE|TRUE
5695240|May-Dee Suites|Miami Gardens, FL| 122|26.01073| -80.19495|FALSE|TRUE|FALSE|TRUE
5695240|Trump International Beach Resort|Miami Gardens, FL| 470|25.94320| -80.12061|FALSE|FALSE|TRUE|TRUE
5695240|WoodSpring Suites Miramar|Miami Gardens, FL| 124|25.97539| -80.29685|FALSE|TRUE|FALSE|TRUE
5695240|Thunderbird Hotel|Miami Gardens, FL| 121|25.94204| -80.24560|FALSE|TRUE|FALSE|TRUE
5695240|Stadium Hotel|Miami Gardens, FL| 162|25.95790| -80.23885|FALSE|TRUE|FALSE|TRUE
5695240|Greniers|Miami Gardens, FL|  90|26.02505| -80.11578|TRUE|FALSE|FALSE|TRUE
5695240|Travelodge by Wyndham Miami Biscayne Bay|Miami Gardens, FL|  82|25.82499| -80.18661|TRUE|FALSE|FALSE|TRUE
5695240|The Oasis Tower at Seminole Hard Rock|Miami Gardens, FL| 705|26.05187| -80.21052|FALSE|FALSE|TRUE|TRUE
5695240|Dream Inn|Miami Gardens, FL| 113|25.94204| -80.24560|TRUE|TRUE|FALSE|TRUE
5695240|Four Seasons Hotel at The Surf Club|Miami Gardens, FL|2049|25.87772| -80.12142|FALSE|FALSE|TRUE|TRUE
5695240|The St. Regis Bal Harbour Resort|Miami Gardens, FL|1132|25.88909| -80.12241|FALSE|FALSE|TRUE|TRUE
5695240|Diplomat Beach Resort Hollywood, Curio Collection by Hilton|Miami Gardens, FL| 415|25.99191| -80.11828|FALSE|FALSE|TRUE|TRUE
5695240|Best Western Plus Hollywood/Aventura|Miami Gardens, FL| 153|25.98591| -80.16482|FALSE|TRUE|FALSE|TRUE
5695240|Hollywood Beach Hotels|Miami Gardens, FL|  93|25.94204| -80.24560|TRUE|TRUE|FALSE|TRUE
5695240|Grand Palms Spa & Golf Resort|Miami Gardens, FL| 101|26.00016| -80.35079|TRUE|FALSE|FALSE|TRUE
5695240|Margaritaville Hollywood Beach Resort|Miami Gardens, FL| 534|26.01878| -80.11674|FALSE|FALSE|TRUE|TRUE
5695240|Acqualina Resort & Residences On The Beach|Miami Gardens, FL|1130|25.94082| -80.12092|FALSE|FALSE|TRUE|TRUE
5695240|Casa Pellegrino|Miami Gardens, FL|  94|26.02446| -80.11617|TRUE|FALSE|FALSE|TRUE
5695240|SpringHill Suites by Marriott Fort Lauderdale Miramar|Miami Gardens, FL| 168|25.97424| -80.29263|FALSE|TRUE|FALSE|TRUE
5695240|The Clevelander|Miami Gardens, FL| 111|25.78078| -80.13098|TRUE|FALSE|FALSE|TRUE
5695240|Miami Gardens Inn & Suites|Miami Gardens, FL| 116|25.94204| -80.24560|FALSE|TRUE|FALSE|TRUE
5695240|Red Carpet Inn Airport/Cruiseport|Miami Gardens, FL|  77|26.08635| -80.17466|TRUE|FALSE|FALSE|TRUE
5695240|Seminole Hard Rock Hotel and Casino|Miami Gardens, FL| 610|26.05082| -80.21155|FALSE|FALSE|TRUE|TRUE
5695240|Miami Lakes Hotel|Miami Gardens, FL| 141|25.91206| -80.31126|FALSE|TRUE|FALSE|TRUE
5695240|The Ritz-Carlton Bal Harbour, Miami|Miami Gardens, FL| 943|25.89900| -80.12330|FALSE|FALSE|TRUE|TRUE
5695240|Curtis Inn & Suites|Miami Gardens, FL| 102|25.99833| -80.14250|TRUE|FALSE|FALSE|TRUE
5695240|Private Ocean Condos at Marenas Beach|Miami Gardens, FL| 619|25.94916| -80.11988|FALSE|FALSE|TRUE|TRUE
5695240|Hotolos Hollywood|Miami Gardens, FL| 100|26.04703| -80.15850|TRUE|FALSE|FALSE|TRUE
5695255|The LaSalle Chicago, Autograph Collection|Chicago, IL| 368|41.87915| -87.63247|FALSE|TRUE|FALSE|TRUE
5695255|The Ritz-Carlton, Chicago|Chicago, IL| 574|41.89782| -87.62228|FALSE|FALSE|TRUE|TRUE
5695255|Hilton Garden Inn Chicago McCormick Place|Chicago, IL| 398|41.85270| -87.62268|FALSE|TRUE|TRUE|TRUE
5695255|Extended Stay America Suites Chicago Midway|Chicago, IL| 112|41.77435| -87.74286|TRUE|FALSE|FALSE|TRUE
5695255|The Hotel at Midtown|Chicago, IL| 478|41.92558| -87.67940|FALSE|FALSE|TRUE|TRUE
5695255|CitizenM Chicago Downtown|Chicago, IL| 122|41.88696| -87.62505|FALSE|TRUE|FALSE|TRUE
5695255|Four Seasons Hotel Chicago|Chicago, IL| 610|41.89961| -87.62488|FALSE|FALSE|TRUE|TRUE
5695255|Club Quarters Hotel, Central Loop, Chicago|Chicago, IL| 122|41.87927| -87.63119|FALSE|TRUE|FALSE|TRUE
5695255|Sleep Inn Midway Airport Bedford Park|Chicago, IL| 109|41.77166| -87.74262|TRUE|FALSE|FALSE|TRUE
5695255|Waldorf Astoria Chicago|Chicago, IL| 611|41.89974| -87.62748|FALSE|FALSE|TRUE|TRUE
5695255|Trump International Hotel & Tower Chicago|Chicago, IL| 524|41.88890| -87.62643|FALSE|FALSE|TRUE|TRUE
5695255|The Langham, Chicago|Chicago, IL| 528|41.88842| -87.62751|FALSE|FALSE|TRUE|TRUE
5695255|Central Loop Hotel|Chicago, IL| 122|41.87925| -87.63111|FALSE|TRUE|FALSE|TRUE
5695255|Congress Plaza Hotel|Chicago, IL| 151|41.87491| -87.62482|FALSE|TRUE|FALSE|TRUE
5695255|Hotel Felix River North/Magnificent Mile|Chicago, IL| 117|41.89463| -87.63159|TRUE|FALSE|FALSE|TRUE
5695255|Selina Chicago|Chicago, IL|  89|41.89848| -87.62562|TRUE|FALSE|FALSE|TRUE
5695255|Found Hotel Chicago River North|Chicago, IL| 104|41.89287| -87.63377|TRUE|FALSE|FALSE|TRUE
5695255|Hampton Inn Chicago McCormick Place|Chicago, IL| 398|41.85273| -87.62323|FALSE|TRUE|TRUE|TRUE
5695255|Hampton Inn Chicago Downtown/Magnificent Mile|Chicago, IL| 112|41.89519| -87.62305|TRUE|FALSE|FALSE|TRUE
5695255|Park Hyatt Chicago|Chicago, IL| 528|41.89724| -87.62527|FALSE|FALSE|TRUE|TRUE
5695255|The Peninsula Chicago|Chicago, IL| 616|41.89620| -87.62515|FALSE|FALSE|TRUE|TRUE
5695255|Hyatt Regency Chicago|Chicago, IL| 193|41.88745| -87.62284|FALSE|TRUE|FALSE|TRUE
5695255|The Willows Hotel|Chicago, IL| 112|41.93395| -87.64358|TRUE|FALSE|FALSE|TRUE
5695255|JW Marriott Chicago|Chicago, IL| 448|41.87907| -87.63301|FALSE|TRUE|TRUE|TRUE
5695255|Hotel BnB-2|Chicago, IL|  92|41.89585| -87.63797|TRUE|FALSE|FALSE|TRUE
5695255|Freehand Chicago|Chicago, IL| 117|41.89238| -87.62732|TRUE|FALSE|FALSE|TRUE
5695255|The Whitehall Hotel|Chicago, IL| 109|41.89891| -87.62571|TRUE|FALSE|FALSE|TRUE
5695255|Radisson Blu Aqua Hotel Chicago|Chicago, IL| 197|41.88658| -87.62016|FALSE|TRUE|FALSE|TRUE
5695255|Hotel Versey Days Inn by Wyndham Chicago|Chicago, IL|  99|41.93294| -87.64557|TRUE|FALSE|FALSE|TRUE
5695257|Hotel Felix River North/Magnificent Mile|Chicago, IL| 117|41.89463| -87.63159|TRUE|FALSE|FALSE|TRUE
5695257|The Hotel at Midtown|Chicago, IL| 478|41.92558| -87.67940|FALSE|FALSE|TRUE|TRUE
5695257|Hampton Inn Chicago Downtown/Magnificent Mile|Chicago, IL| 112|41.89519| -87.62305|TRUE|FALSE|FALSE|TRUE
5695257|Hotel Versey Days Inn by Wyndham Chicago|Chicago, IL|  99|41.93294| -87.64557|TRUE|FALSE|FALSE|TRUE
5695257|The Whitehall Hotel|Chicago, IL| 109|41.89891| -87.62571|TRUE|FALSE|FALSE|TRUE
5695257|Congress Plaza Hotel|Chicago, IL| 151|41.87491| -87.62482|FALSE|TRUE|FALSE|TRUE
5695257|Sleep Inn Midway Airport Bedford Park|Chicago, IL| 109|41.77166| -87.74262|TRUE|FALSE|FALSE|TRUE
5695257|Selina Chicago|Chicago, IL|  89|41.89848| -87.62562|TRUE|FALSE|FALSE|TRUE
5695257|The Langham, Chicago|Chicago, IL| 528|41.88842| -87.62751|FALSE|FALSE|TRUE|TRUE
5695257|Club Quarters Hotel, Central Loop, Chicago|Chicago, IL| 122|41.87927| -87.63119|FALSE|TRUE|FALSE|TRUE
5695257|Trump International Hotel & Tower Chicago|Chicago, IL| 524|41.88890| -87.62643|FALSE|FALSE|TRUE|TRUE
5695257|Freehand Chicago|Chicago, IL| 117|41.89238| -87.62732|TRUE|FALSE|FALSE|TRUE
5695257|Extended Stay America Suites Chicago Midway|Chicago, IL| 112|41.77435| -87.74286|TRUE|FALSE|FALSE|TRUE
5695257|Radisson Blu Aqua Hotel Chicago|Chicago, IL| 197|41.88658| -87.62016|FALSE|TRUE|FALSE|TRUE
5695257|JW Marriott Chicago|Chicago, IL| 448|41.87907| -87.63301|FALSE|TRUE|TRUE|TRUE
5695257|Waldorf Astoria Chicago|Chicago, IL| 611|41.89974| -87.62748|FALSE|FALSE|TRUE|TRUE
5695257|Hotel BnB-2|Chicago, IL|  92|41.89585| -87.63797|TRUE|FALSE|FALSE|TRUE
5695257|Found Hotel Chicago River North|Chicago, IL| 104|41.89287| -87.63377|TRUE|FALSE|FALSE|TRUE
5695257|Four Seasons Hotel Chicago|Chicago, IL| 610|41.89961| -87.62488|FALSE|FALSE|TRUE|TRUE
5695257|Park Hyatt Chicago|Chicago, IL| 528|41.89724| -87.62527|FALSE|FALSE|TRUE|TRUE
5695257|Hampton Inn Chicago McCormick Place|Chicago, IL| 398|41.85273| -87.62323|FALSE|TRUE|TRUE|TRUE
5695257|The LaSalle Chicago, Autograph Collection|Chicago, IL| 368|41.87915| -87.63247|FALSE|TRUE|FALSE|TRUE
5695257|The Willows Hotel|Chicago, IL| 112|41.93395| -87.64358|TRUE|FALSE|FALSE|TRUE
5695257|The Ritz-Carlton, Chicago|Chicago, IL| 574|41.89782| -87.62228|FALSE|FALSE|TRUE|TRUE
5695257|Hilton Garden Inn Chicago McCormick Place|Chicago, IL| 398|41.85270| -87.62268|FALSE|TRUE|TRUE|TRUE
5695257|The Peninsula Chicago|Chicago, IL| 616|41.89620| -87.62515|FALSE|FALSE|TRUE|TRUE
5695257|CitizenM Chicago Downtown|Chicago, IL| 122|41.88696| -87.62505|FALSE|TRUE|FALSE|TRUE
5695257|Central Loop Hotel|Chicago, IL| 122|41.87925| -87.63111|FALSE|TRUE|FALSE|TRUE
5695257|Hyatt Regency Chicago|Chicago, IL| 193|41.88745| -87.62284|FALSE|TRUE|FALSE|TRUE
5695259|Hotel Versey Days Inn by Wyndham Chicago|Chicago, IL|  99|41.93294| -87.64557|TRUE|FALSE|FALSE|TRUE
5695259|Radisson Blu Aqua Hotel Chicago|Chicago, IL| 197|41.88658| -87.62016|FALSE|TRUE|FALSE|TRUE
5695259|JW Marriott Chicago|Chicago, IL| 448|41.87907| -87.63301|FALSE|TRUE|TRUE|TRUE
5695259|The Ritz-Carlton, Chicago|Chicago, IL| 574|41.89782| -87.62228|FALSE|FALSE|TRUE|TRUE
5695259|Hyatt Regency Chicago|Chicago, IL| 193|41.88745| -87.62284|FALSE|TRUE|FALSE|TRUE
5695259|Hampton Inn Chicago Downtown/Magnificent Mile|Chicago, IL| 112|41.89519| -87.62305|TRUE|FALSE|FALSE|TRUE
5695259|Selina Chicago|Chicago, IL|  89|41.89848| -87.62562|TRUE|FALSE|FALSE|TRUE
5695259|Hotel Felix River North/Magnificent Mile|Chicago, IL| 117|41.89463| -87.63159|TRUE|FALSE|FALSE|TRUE
5695259|Extended Stay America Suites Chicago Midway|Chicago, IL| 112|41.77435| -87.74286|TRUE|FALSE|FALSE|TRUE
5695259|Sleep Inn Midway Airport Bedford Park|Chicago, IL| 109|41.77166| -87.74262|TRUE|FALSE|FALSE|TRUE
5695259|Central Loop Hotel|Chicago, IL| 122|41.87925| -87.63111|FALSE|TRUE|FALSE|TRUE
5695259|Hampton Inn Chicago McCormick Place|Chicago, IL| 398|41.85273| -87.62323|FALSE|TRUE|TRUE|TRUE
5695259|Club Quarters Hotel, Central Loop, Chicago|Chicago, IL| 122|41.87927| -87.63119|FALSE|TRUE|FALSE|TRUE
5695259|The Langham, Chicago|Chicago, IL| 528|41.88842| -87.62751|FALSE|FALSE|TRUE|TRUE
5695259|The Whitehall Hotel|Chicago, IL| 109|41.89891| -87.62571|TRUE|FALSE|FALSE|TRUE
5695259|Trump International Hotel & Tower Chicago|Chicago, IL| 524|41.88890| -87.62643|FALSE|FALSE|TRUE|TRUE
5695259|Waldorf Astoria Chicago|Chicago, IL| 611|41.89974| -87.62748|FALSE|FALSE|TRUE|TRUE
5695259|Park Hyatt Chicago|Chicago, IL| 528|41.89724| -87.62527|FALSE|FALSE|TRUE|TRUE
5695259|Congress Plaza Hotel|Chicago, IL| 151|41.87491| -87.62482|FALSE|TRUE|FALSE|TRUE
5695259|The Hotel at Midtown|Chicago, IL| 478|41.92558| -87.67940|FALSE|FALSE|TRUE|TRUE
5695259|Four Seasons Hotel Chicago|Chicago, IL| 610|41.89961| -87.62488|FALSE|FALSE|TRUE|TRUE
5695259|Hilton Garden Inn Chicago McCormick Place|Chicago, IL| 398|41.85270| -87.62268|FALSE|TRUE|TRUE|TRUE
5695259|Freehand Chicago|Chicago, IL| 117|41.89238| -87.62732|TRUE|FALSE|FALSE|TRUE
5695259|The LaSalle Chicago, Autograph Collection|Chicago, IL| 368|41.87915| -87.63247|FALSE|TRUE|FALSE|TRUE
5695259|Hotel BnB-2|Chicago, IL|  92|41.89585| -87.63797|TRUE|FALSE|FALSE|TRUE
5695259|CitizenM Chicago Downtown|Chicago, IL| 122|41.88696| -87.62505|FALSE|TRUE|FALSE|TRUE
5695259|Found Hotel Chicago River North|Chicago, IL| 104|41.89287| -87.63377|TRUE|FALSE|FALSE|TRUE
5695259|The Willows Hotel|Chicago, IL| 112|41.93395| -87.64358|TRUE|FALSE|FALSE|TRUE
5695259|The Peninsula Chicago|Chicago, IL| 616|41.89620| -87.62515|FALSE|FALSE|TRUE|TRUE
5695261|Renaissance by Marriott Boston Patriot Place Hotel|Foxborough, MA| 156|42.09045| -71.26853|FALSE|TRUE|TRUE|TRUE
5695261|Econo Lodge Sharon|Foxborough, MA|  85|42.12519| -71.23042|TRUE|TRUE|FALSE|TRUE
5695261|Best Western Plus The Inn at Sharon/Foxboro|Foxborough, MA|  99|42.12324| -71.23031|TRUE|TRUE|FALSE|TRUE
5695261|Hilton Garden Inn Foxborough Patriot Place|Foxborough, MA| 146|42.09150| -71.26865|FALSE|TRUE|TRUE|TRUE
5695261|Residence Inn by Marriott Boston Norwood|Foxborough, MA| 120|42.16943| -71.20033|TRUE|FALSE|FALSE|TRUE
5695261|Red Roof Inn PLUS+ Boston - Mansfield/ Foxboro|Foxborough, MA|  95|42.03411| -71.23668|TRUE|FALSE|FALSE|TRUE
5695261|SpringHill Suites by Marriott Wrentham Plainville|Foxborough, MA|  86|42.03871| -71.31233|TRUE|FALSE|FALSE|TRUE
5695261|TownePlace Suites by Marriott Wrentham Plainville|Foxborough, MA| 162|42.03856| -71.31183|FALSE|FALSE|TRUE|TRUE
5695261|Sonesta Select Boston Foxborough Mansfield|Foxborough, MA| 122|42.03978| -71.23689|TRUE|FALSE|FALSE|TRUE
5695261|Comfort Inn Foxboro – Mansfield|Foxborough, MA| 102|42.03943| -71.23985|TRUE|TRUE|FALSE|TRUE
5695261|Hampton Inn Boston - Norwood|Foxborough, MA| 123|42.19696| -71.18431|FALSE|FALSE|TRUE|TRUE
5695261|Courtyard by Marriott Boston Norwood/Canton|Foxborough, MA| 122|42.17532| -71.19010|TRUE|FALSE|FALSE|TRUE
5695261|Best Western Plus Executive Residency Franklin|Foxborough, MA| 110|42.06149| -71.39714|TRUE|FALSE|FALSE|TRUE
5695261|Americas Best Value Inn Foxboro|Foxborough, MA| 100|42.08196| -71.28072|TRUE|TRUE|FALSE|TRUE
5695261|Residence Inn by Marriott Boston-Franklin|Foxborough, MA| 165|42.06538| -71.24783|FALSE|TRUE|TRUE|TRUE
5695261|Home2 Suites by Hilton Walpole Foxboro|Foxborough, MA| 123|42.10473| -71.25585|FALSE|TRUE|TRUE|TRUE
5695261|The Proctor Mansion Inn|Foxborough, MA| 446|42.06550| -71.32757|FALSE|TRUE|TRUE|TRUE
5695261|Residence Inn by Marriott Foxborough|Foxborough, MA| 140|42.04473| -71.23833|FALSE|TRUE|TRUE|TRUE
5695261|Four Points By Sheraton Norwood|Foxborough, MA| 160|42.17541| -71.19446|FALSE|FALSE|TRUE|TRUE
5695261|Hampton Inn Franklin/Milford|Foxborough, MA| 128|42.06515| -71.39754|FALSE|FALSE|TRUE|TRUE
5695261|Best Western North Attleboro / Providence Beltway|Foxborough, MA| 121|41.95922| -71.34274|TRUE|FALSE|FALSE|TRUE
5695275|Best Western Plus The Inn at Sharon/Foxboro|Foxborough, MA|  99|42.12324| -71.23031|TRUE|TRUE|FALSE|TRUE
5695275|Hampton Inn Franklin/Milford|Foxborough, MA| 128|42.06515| -71.39754|FALSE|FALSE|TRUE|TRUE
5695275|Hilton Garden Inn Foxborough Patriot Place|Foxborough, MA| 146|42.09150| -71.26865|FALSE|TRUE|TRUE|TRUE
5695275|Best Western North Attleboro / Providence Beltway|Foxborough, MA| 121|41.95922| -71.34274|TRUE|FALSE|FALSE|TRUE
5695275|Courtyard by Marriott Boston Norwood/Canton|Foxborough, MA| 122|42.17532| -71.19010|TRUE|FALSE|FALSE|TRUE
5695275|TownePlace Suites by Marriott Wrentham Plainville|Foxborough, MA| 162|42.03856| -71.31183|FALSE|FALSE|TRUE|TRUE
5695275|Renaissance by Marriott Boston Patriot Place Hotel|Foxborough, MA| 156|42.09045| -71.26853|FALSE|TRUE|TRUE|TRUE
5695275|Residence Inn by Marriott Foxborough|Foxborough, MA| 140|42.04473| -71.23833|FALSE|TRUE|TRUE|TRUE
5695275|Residence Inn by Marriott Boston-Franklin|Foxborough, MA| 165|42.06538| -71.24783|FALSE|TRUE|TRUE|TRUE
5695275|Home2 Suites by Hilton Walpole Foxboro|Foxborough, MA| 123|42.10473| -71.25585|FALSE|TRUE|TRUE|TRUE
5695275|Red Roof Inn PLUS+ Boston - Mansfield/ Foxboro|Foxborough, MA|  95|42.03411| -71.23668|TRUE|FALSE|FALSE|TRUE
5695275|Best Western Plus Executive Residency Franklin|Foxborough, MA| 110|42.06149| -71.39714|TRUE|FALSE|FALSE|TRUE
5695275|Comfort Inn Foxboro – Mansfield|Foxborough, MA| 102|42.03943| -71.23985|TRUE|TRUE|FALSE|TRUE
5695275|Americas Best Value Inn Foxboro|Foxborough, MA| 100|42.08196| -71.28072|TRUE|TRUE|FALSE|TRUE
5695275|The Proctor Mansion Inn|Foxborough, MA| 446|42.06550| -71.32757|FALSE|TRUE|TRUE|TRUE
5695275|Residence Inn by Marriott Boston Norwood|Foxborough, MA| 120|42.16943| -71.20033|TRUE|FALSE|FALSE|TRUE
5695275|Sonesta Select Boston Foxborough Mansfield|Foxborough, MA| 122|42.03978| -71.23689|TRUE|FALSE|FALSE|TRUE
