id|name|city|price|lat|long|p|t|l|fresh
5655669|WoodSpring Suites Tamarac|Sunrise, FL| 124|26.19447| -80.29301|TRUE|TRUE|FALSE|TRUE
5655669|Harbor Vacation Homes|Sunrise, FL| 334|26.16697| -80.25659|FALSE|TRUE|TRUE|TRUE
5655669|Sheraton Suites Fort Lauderdale Plantation|Sunrise, FL| 243|26.12410| -80.25664|FALSE|TRUE|TRUE|TRUE
5655669|Residence Inn By Marriott Fort Lauderdale Plantation|Sunrise, FL| 236|26.12256| -80.25156|FALSE|FALSE|TRUE|TRUE
5655669|Courtyard by Marriott Fort Lauderdale North/Cypress Creek|Sunrise, FL| 278|26.20174| -80.18046|FALSE|FALSE|TRUE|TRUE
5655669|Extended Stay America Suites Fort Lauderdale Tamarac|Sunrise, FL| 129|26.20169| -80.15288|TRUE|FALSE|FALSE|TRUE
5655669|Plaza Hotel Fort Lauderdale|Sunrise, FL| 103|26.18931| -80.20270|TRUE|FALSE|FALSE|TRUE
5655669|Extended Stay America Suites Fort Lauderdale Davie|Sunrise, FL| 166|26.20169| -80.15288|TRUE|FALSE|FALSE|TRUE
5655669|La Quinta Inn & Suites by Wyndham Sunrise Sawgrass Mills|Sunrise, FL| 171|26.12446| -80.33143|FALSE|TRUE|FALSE|TRUE
5655669|Hampton Inn Weston Ft. Lauderdale|Sunrise, FL| 162|26.09278| -80.36766|TRUE|FALSE|FALSE|TRUE
5655669|Staybridge Suites Fort Lauderdale Airport - West, an IHG Hotel|Sunrise, FL| 214|26.06453| -80.21240|FALSE|FALSE|TRUE|TRUE
5655669|HomeTowne Studios by Red Roof Fort Lauderdale|Sunrise, FL| 102|26.18739| -80.18639|TRUE|FALSE|FALSE|TRUE
5655669|Hampton Inn Ft. Lauderdale-West/Pembroke Pines|Sunrise, FL| 166|26.02546| -80.34768|TRUE|FALSE|FALSE|TRUE
5655669|Hyatt Place Ft. Lauderdale/Plantation|Sunrise, FL| 214|26.11894| -80.26284|FALSE|TRUE|TRUE|TRUE
5655669|DoubleTree by Hilton Hotel Sunrise - Sawgrass Mills|Sunrise, FL| 233|26.14457| -80.32544|FALSE|TRUE|TRUE|TRUE
5655669|Sonesta ES Suites Fort Lauderdale Plantation|Sunrise, FL| 236|26.12592| -80.26149|FALSE|TRUE|TRUE|TRUE
5655669|Residence Inn By Marriott Fort Lauderdale Weston|Sunrise, FL| 259|26.08613| -80.37267|FALSE|FALSE|TRUE|TRUE
5655669|La Quinta Inn & Suites by Wyndham Sunrise|Sunrise, FL| 160|26.12339| -80.33189|TRUE|TRUE|FALSE|TRUE
5655669|Renaissance Fort Lauderdale West Hotel|Sunrise, FL| 263|26.10388| -80.26272|FALSE|FALSE|TRUE|TRUE
5655669|Courtyard by Marriott Fort Lauderdale Weston|Sunrise, FL| 209|26.09226| -80.36518|FALSE|TRUE|FALSE|TRUE
5655669|AC Hotel Fort Lauderdale Sawgrass Mills / Sunrise|Sunrise, FL| 258|26.15016| -80.31874|FALSE|TRUE|TRUE|TRUE
5655669|Courtyard by Marriott Fort Lauderdale Plantation|Sunrise, FL| 214|26.11289| -80.25478|FALSE|FALSE|TRUE|TRUE
5655669|La Quinta Inn by Wyndham Ft. Lauderdale Tamarac East|Sunrise, FL| 113|26.18564| -80.19984|TRUE|FALSE|FALSE|TRUE
5655669|Extended Stay America Select Suites - Fort Lauderdale - Airport - West|Sunrise, FL| 166|26.09033| -80.22072|TRUE|FALSE|FALSE|TRUE
5655671|AC Hotel Fort Lauderdale Sawgrass Mills / Sunrise|Sunrise, FL| 258|26.15016| -80.31874|FALSE|TRUE|TRUE|TRUE
5655671|Hampton Inn Ft. Lauderdale-West/Pembroke Pines|Sunrise, FL| 166|26.02546| -80.34768|TRUE|FALSE|FALSE|TRUE
5655671|La Quinta Inn by Wyndham Ft. Lauderdale Tamarac East|Sunrise, FL| 113|26.18564| -80.19984|TRUE|FALSE|FALSE|TRUE
5655671|Sonesta ES Suites Fort Lauderdale Plantation|Sunrise, FL| 236|26.12592| -80.26149|FALSE|TRUE|TRUE|TRUE
5655671|Extended Stay America Select Suites - Fort Lauderdale - Airport - West|Sunrise, FL| 166|26.09033| -80.22072|TRUE|FALSE|FALSE|TRUE
5655671|La Quinta Inn & Suites by Wyndham Sunrise Sawgrass Mills|Sunrise, FL| 171|26.12446| -80.33143|FALSE|TRUE|FALSE|TRUE
5655671|DoubleTree by Hilton Hotel Sunrise - Sawgrass Mills|Sunrise, FL| 233|26.14457| -80.32544|FALSE|TRUE|TRUE|TRUE
5655671|Staybridge Suites Fort Lauderdale Airport - West, an IHG Hotel|Sunrise, FL| 214|26.06453| -80.21240|FALSE|FALSE|TRUE|TRUE
5655671|Extended Stay America Suites Fort Lauderdale Davie|Sunrise, FL| 166|26.20169| -80.15288|TRUE|FALSE|FALSE|TRUE
5655671|Residence Inn By Marriott Fort Lauderdale Weston|Sunrise, FL| 259|26.08613| -80.37267|FALSE|FALSE|TRUE|TRUE
5655671|HomeTowne Studios by Red Roof Fort Lauderdale|Sunrise, FL| 102|26.18739| -80.18639|TRUE|FALSE|FALSE|TRUE
5655671|Extended Stay America Suites Fort Lauderdale Tamarac|Sunrise, FL| 129|26.20169| -80.15288|TRUE|FALSE|FALSE|TRUE
5655671|Sheraton Suites Fort Lauderdale Plantation|Sunrise, FL| 243|26.12410| -80.25664|FALSE|TRUE|TRUE|TRUE
5655671|Residence Inn By Marriott Fort Lauderdale Plantation|Sunrise, FL| 236|26.12256| -80.25156|FALSE|FALSE|TRUE|TRUE
5655671|Courtyard by Marriott Fort Lauderdale North/Cypress Creek|Sunrise, FL| 278|26.20174| -80.18046|FALSE|FALSE|TRUE|TRUE
5655671|Harbor Vacation Homes|Sunrise, FL| 334|26.16697| -80.25659|FALSE|TRUE|TRUE|TRUE
5655671|Plaza Hotel Fort Lauderdale|Sunrise, FL| 103|26.18931| -80.20270|TRUE|FALSE|FALSE|TRUE
5655671|WoodSpring Suites Tamarac|Sunrise, FL| 124|26.19447| -80.29301|TRUE|TRUE|FALSE|TRUE
5655671|Hampton Inn Weston Ft. Lauderdale|Sunrise, FL| 162|26.09278| -80.36766|TRUE|FALSE|FALSE|TRUE
5655671|La Quinta Inn & Suites by Wyndham Sunrise|Sunrise, FL| 160|26.12339| -80.33189|TRUE|TRUE|FALSE|TRUE
5655671|Courtyard by Marriott Fort Lauderdale Plantation|Sunrise, FL| 214|26.11289| -80.25478|FALSE|FALSE|TRUE|TRUE
5655671|Courtyard by Marriott Fort Lauderdale Weston|Sunrise, FL| 209|26.09226| -80.36518|FALSE|TRUE|FALSE|TRUE
5655671|Hyatt Place Ft. Lauderdale/Plantation|Sunrise, FL| 214|26.11894| -80.26284|FALSE|TRUE|TRUE|TRUE
5655671|Renaissance Fort Lauderdale West Hotel|Sunrise, FL| 263|26.10388| -80.26272|FALSE|FALSE|TRUE|TRUE
5685266|Canopy by Hilton New Orleans Downtown|New Orleans, LA| 136|29.95404| -90.07420|FALSE|TRUE|FALSE|TRUE
5685266|Lucky Inn|New Orleans, LA| 102|29.96603| -90.08545|TRUE|FALSE|FALSE|TRUE
5685266|Holiday Inn New Orleans - Downtown Superdome, an IHG Hotel|New Orleans, LA| 128|29.95299| -90.07497|FALSE|TRUE|FALSE|TRUE
5685266|Courtyard by Marriott New Orleans Westbank/Gretna|New Orleans, LA| 452|29.92568| -90.04143|FALSE|FALSE|TRUE|TRUE
5685266|The Roosevelt New Orleans, A Waldorf Astoria Hotel|New Orleans, LA| 683|29.95434| -90.07230|FALSE|TRUE|TRUE|TRUE
5685266|The Ritz-Carlton, New Orleans|New Orleans, LA| 398|29.95496| -90.07097|FALSE|TRUE|TRUE|TRUE
5685266|Olde Town Inn|New Orleans, LA| 103|29.96776| -90.05529|TRUE|FALSE|FALSE|TRUE
5685266|La Quinta Inn by Wyndham New Orleans Veterans / Metairie|New Orleans, LA|  91|30.00483| -90.20567|TRUE|FALSE|FALSE|TRUE
5685266|Holiday Inn Express New Orleans Downtown, an IHG Hotel|New Orleans, LA| 107|29.95175| -90.07368|FALSE|TRUE|FALSE|TRUE
5685266|Harrahs New Orleans Casino & Hotel|New Orleans, LA| 405|29.94793| -90.06553|FALSE|FALSE|TRUE|TRUE
5685266|Maison Saint Charles by Hotel RL|New Orleans, LA|  88|29.94029| -90.07522|TRUE|FALSE|FALSE|TRUE
5685266|The Natchez|New Orleans, LA| 492|29.94974| -90.06870|FALSE|FALSE|TRUE|TRUE
5685266|Four Seasons Hotel New Orleans|New Orleans, LA| 391|29.94888| -90.06389|FALSE|FALSE|TRUE|TRUE
5685266|Maison de la Luz|New Orleans, LA| 418|29.94879| -90.07202|FALSE|TRUE|TRUE|TRUE
5685266|Sheraton New Orleans Hotel|New Orleans, LA| 385|29.95186| -90.06802|FALSE|FALSE|TRUE|TRUE
5685266|Hyatt Regency New Orleans|New Orleans, LA| 256|29.94955| -90.07727|FALSE|TRUE|TRUE|TRUE
5685266|Suburban Studios|New Orleans, LA| 100|29.90910| -90.20646|TRUE|FALSE|FALSE|TRUE
5685266|Sonesta ES Suites New Orleans|New Orleans, LA| 128|29.95409| -90.07462|FALSE|TRUE|FALSE|TRUE
5685266|La Quinta Inn & Suites by Wyndham New Orleans Downtown|New Orleans, LA| 378|29.95089| -90.06941|FALSE|FALSE|TRUE|TRUE
5685266|Selina Catahoula New Orleans|New Orleans, LA| 101|29.95185| -90.07321|TRUE|TRUE|FALSE|TRUE
5685266|Quality Inn New Orleans I-10 East|New Orleans, LA|  64|30.03715| -89.97409|TRUE|FALSE|FALSE|TRUE
5685266|Midtown Hotel - Downtown New Orleans|New Orleans, LA|  95|29.94978| -90.06771|TRUE|FALSE|FALSE|TRUE
5685266|Hotel Indigo New Orleans French Quarter, an IHG Hotel|New Orleans, LA| 143|29.95241| -90.06986|FALSE|TRUE|FALSE|TRUE
5685266|Comfort Inn Marrero - New Orleans West|New Orleans, LA| 101|29.89219| -90.12282|TRUE|FALSE|FALSE|TRUE
5685266|Days Inn by Wyndham New Orleans Pontchartrain|New Orleans, LA|  76|30.00213| -90.03978|TRUE|FALSE|FALSE|TRUE
5695225|Miami Gardens Inn & Suites|Miami Gardens, FL| 217|25.94204| -80.24560|FALSE|TRUE|FALSE|TRUE
5695225|SpringHill Suites by Marriott Fort Lauderdale Miramar|Miami Gardens, FL| 214|25.97424| -80.29263|FALSE|TRUE|FALSE|TRUE
5695225|May-Dee Suites|Miami Gardens, FL| 135|26.01073| -80.19495|TRUE|TRUE|FALSE|TRUE
5695225|Trump International Beach Resort|Miami Gardens, FL| 720|25.94320| -80.12061|FALSE|FALSE|TRUE|TRUE
5695225|Seminole Hard Rock Hotel and Casino|Miami Gardens, FL| 621|26.05082| -80.21155|FALSE|FALSE|TRUE|TRUE
5695225|The Clevelander|Miami Gardens, FL| 125|25.78078| -80.13098|TRUE|FALSE|FALSE|TRUE
5695225|Ocean Inn|Miami Gardens, FL| 125|26.03212| -80.11525|TRUE|FALSE|FALSE|TRUE
5695225|Four Seasons Hotel at The Surf Club|Miami Gardens, FL|1837|25.87772| -80.12142|FALSE|FALSE|TRUE|TRUE
5695225|Stadium Hotel|Miami Gardens, FL| 158|25.95790| -80.23885|FALSE|TRUE|FALSE|TRUE
5695225|The St. Regis Bal Harbour Resort|Miami Gardens, FL|1898|25.88909| -80.12241|FALSE|FALSE|TRUE|TRUE
5695225|Courtyard by Marriott Fort Lauderdale SW/Miramar|Miami Gardens, FL| 197|25.98182| -80.34129|FALSE|TRUE|FALSE|TRUE
5695225|Hollywood Beach Hotels|Miami Gardens, FL| 116|25.94204| -80.24560|TRUE|TRUE|FALSE|TRUE
5695225|Acqualina Resort & Residences On The Beach|Miami Gardens, FL|1130|25.94082| -80.12092|FALSE|FALSE|TRUE|TRUE
5695225|Margaritaville Hollywood Beach Resort|Miami Gardens, FL| 572|26.01878| -80.11674|FALSE|FALSE|TRUE|TRUE
5695225|Miami Lakes Hotel|Miami Gardens, FL| 157|25.91206| -80.31126|FALSE|TRUE|FALSE|TRUE
5695225|The Harrison Hotel Downtown Hollywood|Miami Gardens, FL| 125|26.01073| -80.14622|TRUE|FALSE|FALSE|TRUE
5695225|Baltic Boutique|Miami Gardens, FL| 302|25.94204| -80.24560|FALSE|TRUE|FALSE|TRUE
5695225|Red Carpet Inn Airport/Cruiseport|Miami Gardens, FL|  96|26.08635| -80.17466|TRUE|FALSE|FALSE|TRUE
5695225|Curtis Inn & Suites|Miami Gardens, FL| 136|25.99833| -80.14250|TRUE|FALSE|FALSE|TRUE
5695225|AC Hotel by Marriott Miami Aventura|Miami Gardens, FL| 356|25.96770| -80.14225|FALSE|TRUE|FALSE|TRUE
5695225|Hyde Beach House|Miami Gardens, FL| 697|25.98685| -80.12071|FALSE|FALSE|TRUE|TRUE
5695225|Sonesta Select Miami Lakes|Miami Gardens, FL| 157|25.91614| -80.32612|FALSE|TRUE|FALSE|TRUE
5695225|Diplomat Beach Resort Hollywood, Curio Collection by Hilton|Miami Gardens, FL| 591|25.99191| -80.11828|FALSE|FALSE|TRUE|TRUE
5695225|Greniers|Miami Gardens, FL| 116|26.02505| -80.11578|TRUE|FALSE|FALSE|TRUE
5695225|Broadmore Miami Beach|Miami Gardens, FL| 102|25.86055| -80.12022|TRUE|FALSE|FALSE|TRUE
5695225|The Oasis Tower at Seminole Hard Rock|Miami Gardens, FL|1614|26.05187| -80.21052|FALSE|FALSE|TRUE|TRUE
5695225|Grand Palms Spa & Golf Resort|Miami Gardens, FL| 101|26.00016| -80.35079|TRUE|FALSE|FALSE|TRUE
5695225|The Ritz-Carlton Bal Harbour, Miami|Miami Gardens, FL|1365|25.89900| -80.12330|FALSE|FALSE|TRUE|TRUE
5695243|Park Hyatt Chicago|Chicago, IL| 449|41.89724| -87.62527|FALSE|FALSE|TRUE|TRUE
5695243|Club Quarters Hotel Wacker at Michigan, Chicago|Chicago, IL| 100|41.88761| -87.62544|TRUE|TRUE|FALSE|TRUE
5695243|Found Hotel Chicago River North|Chicago, IL|  92|41.89287| -87.63377|TRUE|FALSE|FALSE|TRUE
5695243|Trump International Hotel & Tower Chicago|Chicago, IL| 464|41.88890| -87.62643|FALSE|FALSE|TRUE|TRUE
5695243|Freehand Chicago|Chicago, IL| 102|41.89238| -87.62732|TRUE|FALSE|FALSE|TRUE
5695243|Hotel Versey Days Inn by Wyndham Chicago|Chicago, IL|  84|41.93294| -87.64557|TRUE|FALSE|FALSE|TRUE
5695243|The Chicago Hotel Collection River North|Chicago, IL| 164|41.89854| -87.63641|FALSE|FALSE|TRUE|TRUE
5695243|The Ritz-Carlton, Chicago|Chicago, IL| 492|41.89782| -87.62228|FALSE|FALSE|TRUE|TRUE
5695243|The Langham, Chicago|Chicago, IL| 475|41.88842| -87.62751|FALSE|FALSE|TRUE|TRUE
5695243|Hotel Blake, an Ascend Hotel Collection Member|Chicago, IL| 114|41.87511| -87.62938|FALSE|TRUE|FALSE|TRUE
5695243|Congress Plaza Hotel|Chicago, IL| 126|41.87491| -87.62482|FALSE|TRUE|FALSE|TRUE
5695243|Hotel BnB-2|Chicago, IL|  92|41.89585| -87.63797|TRUE|FALSE|FALSE|TRUE
5695243|Millennium Knickerbocker Chicago|Chicago, IL| 100|41.89977| -87.62270|TRUE|FALSE|FALSE|TRUE
5695243|The Whitehall Hotel|Chicago, IL|  89|41.89891| -87.62571|TRUE|FALSE|FALSE|TRUE
5695243|Hilton Garden Inn Chicago Downtown South Loop|Chicago, IL| 109|41.86909| -87.62566|FALSE|TRUE|FALSE|TRUE
5695243|Hampton Inn Chicago Downtown/Magnificent Mile|Chicago, IL|  99|41.89519| -87.62305|TRUE|FALSE|FALSE|TRUE
5695243|Best Western Grant Park Hotel|Chicago, IL|  88|41.86909| -87.62468|TRUE|TRUE|FALSE|TRUE
5695243|Club Quarters Hotel, Central Loop, Chicago|Chicago, IL| 141|41.87927| -87.63119|FALSE|TRUE|FALSE|TRUE
5695243|Nobu Hotel Chicago|Chicago, IL| 440|41.88473| -87.64949|FALSE|FALSE|TRUE|TRUE
5695243|The Chicago Hotel Collection - Wrigleyville|Chicago, IL| 164|41.94553| -87.65487|FALSE|FALSE|TRUE|TRUE
5695243|Hyatt Regency Chicago|Chicago, IL| 165|41.88745| -87.62284|FALSE|TRUE|TRUE|TRUE
5695243|Swissotel - Chicago|Chicago, IL| 151|41.88717| -87.61949|FALSE|TRUE|FALSE|TRUE
5695243|Hotel Julian|Chicago, IL| 109|41.88514| -87.62492|FALSE|TRUE|FALSE|TRUE
5695243|The Peninsula Chicago|Chicago, IL| 528|41.89620| -87.62515|FALSE|FALSE|TRUE|TRUE
5695243|Four Seasons Hotel Chicago|Chicago, IL| 423|41.89961| -87.62488|FALSE|FALSE|TRUE|TRUE
5695243|Aloft Chicago Mag Mile, a Marriott Hotel|Chicago, IL| 100|41.89309| -87.62118|TRUE|FALSE|FALSE|TRUE
5695243|Hampton Inn Chicago McCormick Place|Chicago, IL| 109|41.85273| -87.62323|FALSE|TRUE|FALSE|TRUE
5695243|Waldorf Astoria Chicago|Chicago, IL| 443|41.89974| -87.62748|FALSE|FALSE|TRUE|TRUE
5695281|Econo Lodge Andrews Air Force Base|Landover, MD|  70|38.78201| -76.89081|TRUE|FALSE|FALSE|TRUE
5695281|The Hay-Adams|Landover, MD| 459|38.90040| -77.03693|FALSE|FALSE|TRUE|TRUE
5695281|Comfort Inn Largo-Washington DC East|Landover, MD| 105|38.89449| -76.84227|FALSE|TRUE|FALSE|TRUE
5695281|Pendry Washington DC - The Wharf|Landover, MD| 454|38.87756| -77.02241|FALSE|FALSE|TRUE|TRUE
5695281|Extended Stay America Suites Washington DC Landover|Landover, MD|  97|38.93400| -76.89664|FALSE|TRUE|FALSE|TRUE
5695281|Days Inn by Wyndham Lanham Washington D.C|Landover, MD|  86|38.96226| -76.86088|TRUE|FALSE|FALSE|TRUE
5695281|Metro Points Hotel|Landover, MD|  85|38.95892| -76.86889|TRUE|FALSE|FALSE|TRUE
5695281|Generator Hotel Washington DC|Landover, MD| 105|38.92562| -76.88939|FALSE|TRUE|FALSE|TRUE
5695281|Courtyard Largo Medical Center Drive|Landover, MD| 140|38.90692| -76.84692|FALSE|TRUE|FALSE|TRUE
5695281|Days Inn by Wyndham Camp Springs/Andrews AFB DC Area|Landover, MD|  77|38.81392| -76.89562|TRUE|FALSE|FALSE|TRUE
5695281|Super 8 by Wyndham Camp Springs/Andrews AFB DC Area|Landover, MD|  85|38.81399| -76.89603|TRUE|FALSE|FALSE|TRUE
5695281|Conrad Washington, DC|Landover, MD| 388|38.90137| -77.02528|FALSE|FALSE|TRUE|TRUE
5695281|Waldorf Astoria Washington DC|Landover, MD| 533|38.89411| -77.02758|FALSE|FALSE|TRUE|TRUE
5695281|Quality Inn Takoma Park|Landover, MD|  88|38.98395| -76.98675|TRUE|FALSE|FALSE|TRUE
5695281|Salamander Washington DC|Landover, MD| 405|38.88366| -77.03032|FALSE|FALSE|TRUE|TRUE
5695281|Comfort Inn at Joint Base Andrews|Landover, MD|  90|38.78030| -76.89002|TRUE|FALSE|FALSE|TRUE
5695281|Holiday Inn Express I-95 Capitol Beltway-Largo, an IHG Hotel|Landover, MD| 105|38.91377| -76.84897|FALSE|TRUE|FALSE|TRUE
5695281|Quality Inn Near Joint Base Andrews - Washington Area|Landover, MD|  85|38.82076| -76.88784|TRUE|FALSE|FALSE|TRUE
5695281|Residence Inn by Marriott Washington Downtown/Convention Center|Landover, MD| 346|38.90437| -77.02423|FALSE|FALSE|TRUE|TRUE
5695281|DoubleTree by Hilton Largo/Washington DC|Landover, MD| 146|38.91566| -76.84879|FALSE|TRUE|TRUE|TRUE
5695281|WoodSpring Suites Washington DC East Arena Drive|Landover, MD|  89|38.90793| -76.85133|TRUE|TRUE|FALSE|TRUE
5695281|Staybridge Suites Washington DC East - Largo, an IHG Hotel|Landover, MD| 149|38.90699| -76.84066|FALSE|TRUE|TRUE|TRUE
5695281|Courtyard by Marriott New Carrollton|Landover, MD| 144|38.94771| -76.86331|FALSE|TRUE|TRUE|TRUE
5695281|Red Roof Inn Washington DC - Lanham|Landover, MD|  89|38.96478| -76.85962|TRUE|FALSE|FALSE|TRUE
5695281|Homewood Suites by Hilton Largo/Washington, D.C.|Landover, MD| 169|38.91444| -76.84935|FALSE|TRUE|TRUE|TRUE
5695333|DoubleTree by Hilton Philadelphia Center City|Philadelphia, PA| 172|39.94792| -75.16413|FALSE|TRUE|FALSE|TRUE
5695333|Red Carpet Inn Philadelphia Airport|Philadelphia, PA|  76|39.87242| -75.28119|TRUE|FALSE|FALSE|TRUE
5695333|Philadelphia Marriott Downtown|Philadelphia, PA| 188|39.95260| -75.16062|FALSE|FALSE|TRUE|TRUE
5695333|Howard Johnson by Wyndham Blackwood Near Philadelphia|Philadelphia, PA| 116|39.81340| -75.06928|TRUE|FALSE|FALSE|TRUE
5695333|Club Quarters Hotel Rittenhouse Square, Philadelphia|Philadelphia, PA| 151|39.95122| -75.16840|FALSE|TRUE|FALSE|TRUE
5695333|Days Inn by Wyndham Runnemede Philadelphia Area|Philadelphia, PA|  85|39.85779| -75.07254|TRUE|FALSE|FALSE|TRUE
5695333|Philadelphia Marriott Old City|Philadelphia, PA| 207|39.94621| -75.14342|FALSE|TRUE|TRUE|TRUE
5695333|Parkway Inn|Philadelphia, PA|  62|39.91875| -75.32845|TRUE|FALSE|FALSE|TRUE
5695333|Red Roof Inn PLUS+ Philadelphia Airport|Philadelphia, PA|  98|39.86820| -75.30609|TRUE|FALSE|FALSE|TRUE
5695333|The Rittenhouse Philadelphia|Philadelphia, PA| 651|39.94966| -75.16482|FALSE|TRUE|TRUE|TRUE
5695333|Holiday Inn Express Philadelphia-Midtown, an IHG Hotel|Philadelphia, PA| 137|39.94936| -75.16238|FALSE|TRUE|FALSE|TRUE
5695333|BnB Philadelphia - Boutique Hotel|Philadelphia, PA| 621|39.97993| -75.12262|FALSE|FALSE|TRUE|TRUE
5695333|Travelodge by Wyndham Bellmawr|Philadelphia, PA|  87|39.86208| -75.07705|TRUE|FALSE|FALSE|TRUE
5695333|DoubleTree by Hilton Cherry Hill Philadelphia|Philadelphia, PA| 116|39.92633| -75.05373|TRUE|FALSE|FALSE|TRUE
5695333|Radisson Hotel Philadelphia, PA|Philadelphia, PA| 251|39.94917| -75.16954|FALSE|TRUE|TRUE|TRUE
5695333|Sheraton Philadelphia Downtown|Philadelphia, PA| 255|39.95723| -75.16695|FALSE|FALSE|TRUE|TRUE
5695333|Sonesta Philadelphia Rittenhouse Square|Philadelphia, PA| 188|39.95283| -75.17030|FALSE|FALSE|TRUE|TRUE
5695333|Wyndham Garden Philadelphia Airport|Philadelphia, PA| 101|39.86764| -75.30377|TRUE|FALSE|FALSE|TRUE
5695333|Extended Stay America Suites Philadelphia Airport Tinicum Bl|Philadelphia, PA| 116|39.88385| -75.24823|TRUE|FALSE|FALSE|TRUE
5695333|Four Seasons Hotel Philadelphia at Comcast Center|Philadelphia, PA| 937|39.95509| -75.17090|FALSE|FALSE|TRUE|TRUE
5695333|The Ritz-Carlton, Philadelphia|Philadelphia, PA| 482|39.95128| -75.16427|FALSE|FALSE|TRUE|TRUE
5695333|Best Western Plus Philadelphia Convention Center Hotel|Philadelphia, PA| 115|39.95801| -75.15947|TRUE|FALSE|FALSE|TRUE
5695333|Alexander Inn|Philadelphia, PA| 137|39.94629| -75.16099|FALSE|TRUE|FALSE|TRUE
5695333|W Philadelphia|Philadelphia, PA| 261|39.95124| -75.16490|FALSE|TRUE|TRUE|TRUE
5695333|Days Inn by Wyndham Springfield/Phil.Intl Airport|Philadelphia, PA|  81|39.91948| -75.32802|TRUE|FALSE|FALSE|TRUE
5695333|Extended Stay America Suites Philadelphia Cherry Hill|Philadelphia, PA|  93|39.88385| -75.24823|TRUE|FALSE|FALSE|TRUE
5695333|Cambria Hotel Philadelphia Downtown Center City|Philadelphia, PA| 158|39.94855| -75.16400|FALSE|TRUE|FALSE|TRUE
5695333|Hyatt Centric Center City Philadelphia|Philadelphia, PA| 197|39.94931| -75.16894|FALSE|TRUE|TRUE|TRUE
5695351|Renaissance Seattle Hotel|Seattle, WA| 176|47.60667|-122.33068|FALSE|TRUE|FALSE|TRUE
5695351|Ramada by Wyndham Seatac Airport North|Seattle, WA|  89|47.47926|-122.28351|TRUE|FALSE|FALSE|TRUE
5695351|Extended Stay America Suites Seattle Redmond|Seattle, WA| 109|47.63458|-122.13137|TRUE|FALSE|FALSE|TRUE
5695351|Embassy Suites by Hilton Seattle Downtown Pioneer Square|Seattle, WA| 235|47.59808|-122.33093|FALSE|TRUE|TRUE|TRUE
5695351|citizenM Seattle Pioneer Square|Seattle, WA| 121|47.60196|-122.33582|TRUE|TRUE|FALSE|TRUE
5695351|Extended Stay America Premier Suites Seattle Bellevue Downtown|Seattle, WA| 114|47.61071|-122.18764|TRUE|FALSE|FALSE|TRUE
5695351|Extended Stay America Suites Seattle Bellevue Factoria|Seattle, WA| 103|47.63458|-122.13137|TRUE|FALSE|FALSE|TRUE
5695351|Extended Stay America Suites Seattle Tukwila|Seattle, WA| 104|47.47484|-122.27262|TRUE|FALSE|FALSE|TRUE
5695351|Hyatt House Seattle/Downtown|Seattle, WA| 402|47.62005|-122.34791|FALSE|FALSE|TRUE|TRUE
5695351|Grand Hyatt Seattle|Seattle, WA| 223|47.61251|-122.33346|FALSE|FALSE|TRUE|TRUE
5695351|Four Seasons Hotel Seattle|Seattle, WA| 872|47.60738|-122.33916|FALSE|TRUE|TRUE|TRUE
5695351|Lotte Hotel Seattle|Seattle, WA| 492|47.60525|-122.33084|FALSE|TRUE|TRUE|TRUE
5695351|Hotel 1000, LXR Hotels & Resorts|Seattle, WA| 416|47.60505|-122.33612|FALSE|TRUE|TRUE|TRUE
5695351|College Inn Hotel|Seattle, WA| 121|47.65545|-122.31301|TRUE|FALSE|FALSE|TRUE
5695351|Hotel Ballard|Seattle, WA| 448|47.66623|-122.38256|FALSE|FALSE|TRUE|TRUE
5695351|Quality Inn Bellevue|Seattle, WA| 106|47.58134|-122.13688|TRUE|FALSE|FALSE|TRUE
5695351|Courtyard Seattle Downtown Pioneer Square|Seattle, WA| 160|47.60289|-122.33277|FALSE|TRUE|FALSE|TRUE
5695351|Crowne Plaza Seattle - Downtown, an IHG Hotel|Seattle, WA| 179|47.60821|-122.33211|FALSE|TRUE|FALSE|TRUE
5695351|Ramada by Wyndham SeaTac Airport|Seattle, WA|  92|47.45269|-122.29469|TRUE|FALSE|FALSE|TRUE
5695351|Seattle Marriott Waterfront|Seattle, WA| 211|47.61070|-122.34649|FALSE|FALSE|TRUE|TRUE
5695351|Super 8 by Wyndham SeaTac Airport|Seattle, WA| 109|47.45934|-122.28822|TRUE|FALSE|FALSE|TRUE
5695351|Executive Hotel Pacific|Seattle, WA| 130|47.60702|-122.33344|FALSE|TRUE|FALSE|TRUE
5695351|The Westin Seattle|Seattle, WA| 215|47.61369|-122.33827|FALSE|FALSE|TRUE|TRUE
5695351|Fairmont Olympic Hotel|Seattle, WA| 333|47.60806|-122.33393|FALSE|TRUE|TRUE|TRUE
5695351|Hyatt At Olive 8|Seattle, WA| 211|47.61371|-122.33417|FALSE|FALSE|TRUE|TRUE
5695351|Ramada by Wyndham SeaTac Airport North|Seattle, WA|  83|47.47926|-122.28351|TRUE|FALSE|FALSE|TRUE
5695436|Nobu Hotel Atlanta|Atlanta, GA| 420|33.85439| -84.36349|FALSE|FALSE|TRUE|TRUE
5695436|OYO Hotel Decatur I-285 The Perimeter|Atlanta, GA|  83|33.73786| -84.23582|TRUE|FALSE|FALSE|TRUE
5695436|Embassy Suites by Hilton Atlanta Midtown|Atlanta, GA| 442|33.79054| -84.39827|FALSE|FALSE|TRUE|TRUE
5695436|Howard Johnson by Wyndham Atlanta Airport/College Park|Atlanta, GA|  79|33.61529| -84.43967|TRUE|FALSE|FALSE|TRUE
5695436|Quality Suites Atlanta Airport East|Atlanta, GA|  88|33.61301| -84.40140|TRUE|FALSE|FALSE|TRUE
5695436|Days Inn by Wyndham Hartsfield Jackson Atlanta Airport West|Atlanta, GA|  74|33.63341| -84.49180|TRUE|FALSE|FALSE|TRUE
5695436|Econo Lodge|Atlanta, GA|  82|33.65881| -84.43356|TRUE|FALSE|FALSE|TRUE
5695436|AC Hotel by Marriott Atlanta Downtown|Atlanta, GA| 195|33.75994| -84.39102|FALSE|TRUE|FALSE|TRUE
5695436|Econo Lodge Conley|Atlanta, GA|  73|33.66714| -84.33847|TRUE|FALSE|FALSE|TRUE
5695436|Quality Inn Atlanta Airport - Central|Atlanta, GA|  85|33.62451| -84.45417|TRUE|FALSE|FALSE|TRUE
5695436|Omni Hotel At The Battery Atlanta|Atlanta, GA| 397|33.88944| -84.46768|FALSE|FALSE|TRUE|TRUE
5695436|The Westin Peachtree Plaza, Atlanta|Atlanta, GA| 203|33.75941| -84.38836|FALSE|TRUE|FALSE|TRUE
5695436|Barclay Hotel Atlanta Downtown|Atlanta, GA| 130|33.75734| -84.38944|FALSE|TRUE|FALSE|TRUE
5695436|Residence Inn by Marriott Atlanta Midtown/Georgia Tech|Atlanta, GA| 471|33.78310| -84.38746|FALSE|FALSE|TRUE|TRUE
5695436|SpringHill Suites by Marriott Atlanta Downtown|Atlanta, GA| 163|33.76497| -84.39502|FALSE|TRUE|FALSE|TRUE
5695436|Rodeway Inn|Atlanta, GA|  65|33.74900| -84.38798|TRUE|TRUE|FALSE|TRUE
5695436|Stonehurst Place Bed & Breakfast|Atlanta, GA| 396|33.77986| -84.38057|FALSE|FALSE|TRUE|TRUE
5695436|Omni Atlanta Hotel at CNN Center|Atlanta, GA| 297|33.75915| -84.39494|FALSE|TRUE|TRUE|TRUE
5695436|JW Marriott Atlanta Buckhead|Atlanta, GA| 362|33.84572| -84.35963|FALSE|FALSE|TRUE|TRUE
5695436|Residence Inn by Marriott Atlanta Cumberland/Galleria|Atlanta, GA|1144|33.88601| -84.47603|FALSE|FALSE|TRUE|TRUE
5695436|Thompson Buckhead|Atlanta, GA| 405|33.83833| -84.37435|FALSE|FALSE|TRUE|TRUE
5695436|Microtel Inn by Wyndham Atlanta Airport|Atlanta, GA|  82|33.62339| -84.45537|TRUE|FALSE|FALSE|TRUE
5695436|W Atlanta Downtown|Atlanta, GA| 445|33.76491| -84.38954|FALSE|TRUE|TRUE|TRUE
5695436|Reverb by Hard Rock Atlanta Downtown|Atlanta, GA| 214|33.75348| -84.39925|FALSE|TRUE|FALSE|TRUE
5695436|Wingate by Wyndham - Atlanta at Six Flags|Atlanta, GA|  72|33.84257| -84.31486|TRUE|FALSE|FALSE|TRUE
5695436|Hyatt Place Atlanta Centennial Park|Atlanta, GA| 223|33.76254| -84.39597|FALSE|TRUE|FALSE|TRUE
5695436|The American Hotel Atlanta Downtown - a DoubleTree by Hilton|Atlanta, GA| 173|33.75931| -84.38992|FALSE|TRUE|FALSE|TRUE
5695474|Hilton San Jose|Santa Clara, CA| 560|37.32930|-121.89058|FALSE|FALSE|TRUE|TRUE
5695474|Courtyard by Marriott Sunnyvale Mountain View|Santa Clara, CA| 105|37.36941|-122.03957|TRUE|FALSE|FALSE|TRUE
5695474|Larkspur Landing Milpitas - An All-Suite Hotel|Santa Clara, CA| 109|37.42507|-121.92183|TRUE|TRUE|FALSE|TRUE
5695474|Delta Hotels by Marriott Santa Clara|Santa Clara, CA| 167|37.38366|-121.96216|FALSE|TRUE|FALSE|TRUE
5695474|Ramada by Wyndham Sunnyvale/Silicon Valley|Santa Clara, CA| 124|37.39124|-121.99159|FALSE|TRUE|FALSE|TRUE
5695474|Hyatt House San Jose Airport|Santa Clara, CA| 181|37.37393|-121.91947|FALSE|FALSE|TRUE|TRUE
5695474|Hyatt Centric Santa Clara Silicon Valley|Santa Clara, CA| 183|37.38674|-121.98334|FALSE|TRUE|TRUE|TRUE
5695474|AC Hotel by Marriott Sunnyvale Moffett Park|Santa Clara, CA| 133|37.41244|-122.02295|FALSE|TRUE|FALSE|TRUE
5695474|Cherry Orchard Inn|Santa Clara, CA| 109|37.35299|-122.00325|TRUE|FALSE|FALSE|TRUE
5695474|Hotel Valencia Santana Row|Santa Clara, CA| 366|37.32084|-121.94809|FALSE|FALSE|TRUE|TRUE
5695474|San Jose Marriott|Santa Clara, CA| 517|37.33038|-121.88829|FALSE|FALSE|TRUE|TRUE
5695474|Hilton Garden Inn San Jose/Milpitas|Santa Clara, CA| 112|37.42503|-121.92314|FALSE|TRUE|FALSE|TRUE
5695474|Days Inn by Wyndham Fremont|Santa Clara, CA| 108|37.49370|-121.93218|TRUE|FALSE|FALSE|TRUE
5695474|Santa Clara Marriott|Santa Clara, CA| 451|37.39068|-121.97426|FALSE|TRUE|TRUE|TRUE
5695474|Extended Studio Suites|Santa Clara, CA|  98|37.37558|-121.91870|TRUE|FALSE|FALSE|TRUE
5695474|Comfort Inn Sunnyvale - Silicon Valley|Santa Clara, CA| 105|37.39973|-122.02596|TRUE|FALSE|FALSE|TRUE
5695474|Hotel Zico|Santa Clara, CA|  90|37.37969|-122.06857|TRUE|FALSE|FALSE|TRUE
5695474|Hilton Garden Inn Cupertino|Santa Clara, CA| 104|37.33344|-122.01487|TRUE|FALSE|FALSE|TRUE
5695474|Hyatt Place San Jose/Downtown|Santa Clara, CA| 412|37.33011|-121.89112|FALSE|FALSE|TRUE|TRUE
5695474|Element San Jose Airport, a Marriott Hotel|Santa Clara, CA| 184|37.35146|-121.92668|FALSE|FALSE|TRUE|TRUE
5695474|Extended Stay America Suites San Jose Santa Clara|Santa Clara, CA| 158|37.41959|-121.97570|FALSE|TRUE|FALSE|TRUE
5695474|Avante, a JDV by Hyatt Hotel|Santa Clara, CA| 108|37.37620|-122.06102|TRUE|FALSE|FALSE|TRUE
5695474|Radisson Hotel Sunnyvale – Silicon Valley|Santa Clara, CA| 124|37.40954|-122.00224|FALSE|TRUE|FALSE|TRUE
5695474|Enchanté Boutique Hotel|Santa Clara, CA| 358|37.38078|-122.11443|FALSE|FALSE|TRUE|TRUE
5695474|Quality Inn & Suites Silicon Valley|Santa Clara, CA| 105|37.35174|-121.97989|TRUE|FALSE|FALSE|TRUE
5695474|Signia by Hilton San Jose|Santa Clara, CA| 429|37.33316|-121.88876|FALSE|FALSE|TRUE|TRUE
5695474|Comfort Suites San Jose Airport|Santa Clara, CA| 104|37.36352|-121.91064|TRUE|FALSE|FALSE|TRUE
5695474|AC Hotel by Marriott San Jose Santa Clara|Santa Clara, CA| 176|37.38548|-121.98044|FALSE|TRUE|FALSE|TRUE
5695474|Comfort Inn Palo Alto|Santa Clara, CA| 109|37.41675|-122.12836|TRUE|FALSE|FALSE|TRUE
5695547|Quality Inn Hamburg|Orchard Park, NY|  91|42.73895| -78.84579|TRUE|TRUE|FALSE|TRUE
5695547|Hampton Inn Buffalo-Hamburg|Orchard Park, NY| 240|42.73895| -78.84579|FALSE|TRUE|TRUE|TRUE
5695547|Baymont by Wyndham Buffalo|Orchard Park, NY| 113|42.90827| -78.75244|TRUE|FALSE|FALSE|TRUE
5695547|Best Western on the Avenue|Orchard Park, NY| 136|42.89826| -78.87487|TRUE|FALSE|FALSE|TRUE
5695547|Hotel at the Lafayette Trademark Collection by Wyndham|Orchard Park, NY| 163|42.88496| -78.87294|TRUE|TRUE|FALSE|TRUE
5695547|Residence Inn by Marriott Buffalo Galleria Mall|Orchard Park, NY| 168|42.90729| -78.77037|TRUE|FALSE|FALSE|TRUE
5695547|Holiday Inn Express Cheektowaga North East, an IHG Hotel|Orchard Park, NY| 132|42.90663| -78.77103|TRUE|FALSE|FALSE|TRUE
5695547|Residence Inn by Marriott Buffalo Downtown|Orchard Park, NY| 623|42.90112| -78.87365|FALSE|FALSE|TRUE|TRUE
5695547|Staybridge Suites West Seneca, an IHG Hotel|Orchard Park, NY| 303|42.83590| -78.75389|FALSE|TRUE|TRUE|TRUE
5695547|M Hotel Buffalo|Orchard Park, NY| 137|42.90977| -78.76056|TRUE|FALSE|FALSE|TRUE
5695547|Hilton Garden Inn Buffalo Downtown|Orchard Park, NY| 174|42.88611| -78.87400|TRUE|FALSE|FALSE|TRUE
5695547|Hampton Inn East Aurora|Orchard Park, NY| 482|42.76626| -78.60822|FALSE|FALSE|TRUE|TRUE
5695547|Courtyard Buffalo Downtown / Canalside|Orchard Park, NY| 623|42.87817| -78.87631|FALSE|TRUE|TRUE|TRUE
5695547|Econo Lodge South|Orchard Park, NY| 142|42.79112| -78.81852|TRUE|TRUE|FALSE|TRUE
5695547|Buffalo Marriott at LECOM HARBORCENTER|Orchard Park, NY| 245|42.87682| -78.87707|FALSE|TRUE|TRUE|TRUE
5695547|The Westin Buffalo|Orchard Park, NY| 378|42.89122| -78.87687|FALSE|FALSE|TRUE|TRUE
5695547|Aloft Buffalo Downtown, a Marriott Hotel|Orchard Park, NY| 280|42.89337| -78.87391|FALSE|FALSE|TRUE|TRUE
5695547|Best Western Plus Galleria Inn & Suites|Orchard Park, NY| 119|42.87699| -78.79392|TRUE|TRUE|FALSE|TRUE
5695547|Hampton Inn Buffalo-Airport / Galleria Mall|Orchard Park, NY| 174|42.90747| -78.77238|TRUE|FALSE|FALSE|TRUE
5695547|Comfort Inn And Suites Hamburg|Orchard Park, NY| 613|42.73984| -78.85089|FALSE|TRUE|TRUE|TRUE
5695547|Hampton Inn Buffalo South/I-90|Orchard Park, NY| 314|42.82988| -78.78885|FALSE|TRUE|TRUE|TRUE
5695568|Sheraton Denver Downtown Hotel|Denver, CO| 166|39.74242|-104.98958|FALSE|FALSE|TRUE|TRUE
5695568|Hyatt Place Denver Downtown|Denver, CO| 153|39.74155|-104.99290|FALSE|TRUE|FALSE|TRUE
5695568|Extended Stay America Suites Denver Lakewood South|Denver, CO|  84|39.65060|-105.07935|TRUE|FALSE|FALSE|TRUE
5695568|Hyatt Regency Denver at Colorado Convention Center|Denver, CO| 153|39.74340|-104.99365|FALSE|TRUE|FALSE|TRUE
5695568|HomeTowne Studios by Red Roof Denver - Glendale/Cherry Creek|Denver, CO|  74|39.70810|-104.93090|TRUE|FALSE|FALSE|TRUE
5695568|Hotel Indigo Denver Downtown, an IHG Hotel|Denver, CO| 180|39.75556|-105.00010|FALSE|TRUE|TRUE|TRUE
5695568|Life House, Lower Highlands|Denver, CO| 649|39.76758|-105.00375|FALSE|FALSE|TRUE|TRUE
5695568|Super 8 by Wyndham Henderson North East Denver|Denver, CO|  69|39.86165|-104.91073|TRUE|FALSE|FALSE|TRUE
5695568|Days Inn by Wyndham Denver Downtown|Denver, CO|  78|39.73973|-104.97571|TRUE|FALSE|FALSE|TRUE
5695568|Quality Inn Denver Westminster|Denver, CO|  79|39.85124|-105.04978|TRUE|FALSE|FALSE|TRUE
5695568|The Slate Denver, Tapestry Collection By Hilton|Denver, CO| 122|39.74091|-104.99477|FALSE|TRUE|FALSE|TRUE
5695568|The Curtis Denver - a DoubleTree by Hilton Hotel|Denver, CO| 149|39.74573|-104.99707|FALSE|TRUE|FALSE|TRUE
5695568|The Ritz-Carlton, Denver|Denver, CO| 579|39.75014|-104.99188|FALSE|FALSE|TRUE|TRUE
5695568|Grand Hyatt Denver|Denver, CO| 175|39.74582|-104.98920|FALSE|FALSE|TRUE|TRUE
5695568|La Quinta Inn by Wyndham Denver Golden|Denver, CO|  81|39.76414|-105.14435|TRUE|FALSE|FALSE|TRUE
5695568|Hilton Garden Inn Denver Union Station, CO|Denver, CO| 156|39.75754|-104.99931|FALSE|TRUE|TRUE|TRUE
5695568|Americas Best Value Inn Denver|Denver, CO|  84|39.77242|-104.84902|TRUE|FALSE|FALSE|TRUE
5695568|Embassy Suites Denver-Downtown/Convention Center|Denver, CO| 156|39.74410|-104.99482|FALSE|TRUE|TRUE|TRUE
5695568|Hilton Denver City Center|Denver, CO| 172|39.74720|-104.99052|FALSE|FALSE|TRUE|TRUE
5695568|Kimpton Hotel Born, an IHG Hotel|Denver, CO| 348|39.75327|-105.00203|FALSE|TRUE|TRUE|TRUE
5695568|HomeTowne Studios by Red Roof Denver - Thornton|Denver, CO|  84|39.91235|-104.98863|TRUE|FALSE|FALSE|TRUE
5695568|HomeTowne Studios by Red Roof Denver - Lakewood West|Denver, CO|  83|39.72818|-105.11027|TRUE|FALSE|FALSE|TRUE
5695568|Super 8 by Wyndham Denver Central|Denver, CO|  78|39.80329|-104.98653|TRUE|FALSE|FALSE|TRUE
5695568|SpringHill Suites by Marriott Denver Downtown|Denver, CO| 150|39.74729|-105.00414|FALSE|TRUE|FALSE|TRUE
5695568|Four Seasons Hotel Denver|Denver, CO| 804|39.74648|-104.99819|FALSE|TRUE|TRUE|TRUE
5695586|Tru By Hilton Indianapolis Downtown, IN|Indianapolis, IN| 208|39.75889| -86.15967|FALSE|TRUE|FALSE|TRUE
5695586|Studio 6 Indianapolis, IN|Indianapolis, IN|  69|39.82268| -86.27231|TRUE|FALSE|FALSE|TRUE
5695586|Quality Inn & Suites|Indianapolis, IN|  70|39.84322| -86.25248|TRUE|FALSE|FALSE|TRUE
5695586|Rodeway Inn|Indianapolis, IN|  68|39.82140| -86.04500|TRUE|FALSE|FALSE|TRUE
5695586|Bottleworks Hotel|Indianapolis, IN| 337|39.77909| -86.14340|FALSE|FALSE|TRUE|TRUE
5695586|Holiday Inn Indianapolis Downtown, an IHG Hotel|Indianapolis, IN| 199|39.76010| -86.16702|FALSE|TRUE|FALSE|TRUE
5695586|TownePlace Suites by Marriott Indianapolis Downtown|Indianapolis, IN| 188|39.75806| -86.15957|FALSE|TRUE|FALSE|TRUE
5695586|Hampton Inn Indianapolis Downtown Across from Circle Centre|Indianapolis, IN| 196|39.76541| -86.15764|FALSE|TRUE|FALSE|TRUE
5695586|Royal Inn|Indianapolis, IN|  52|39.76840| -86.15807|TRUE|FALSE|FALSE|TRUE
5695586|Hyatt Regency Indianapolis|Indianapolis, IN| 293|39.76636| -86.16082|FALSE|TRUE|TRUE|TRUE
5695586|La Quinta Inn by Wyndham Indianapolis Airport Lynhurst|Indianapolis, IN|  74|39.72898| -86.25133|TRUE|FALSE|FALSE|TRUE
5695586|Sleep Inn|Indianapolis, IN|  75|39.76840| -86.15807|TRUE|FALSE|FALSE|TRUE
5695586|Conrad Indianapolis|Indianapolis, IN| 350|39.76743| -86.15920|FALSE|FALSE|TRUE|TRUE
5695586|Le Méridien Indianapolis|Indianapolis, IN| 325|39.76514| -86.15965|FALSE|TRUE|TRUE|TRUE
5695586|Quality Inn East|Indianapolis, IN|  74|39.79725| -86.04365|TRUE|FALSE|FALSE|TRUE
5695586|JW Marriott Indianapolis|Indianapolis, IN| 315|39.76659| -86.16769|FALSE|TRUE|TRUE|TRUE
5695586|Marriott Indianapolis Downtown|Indianapolis, IN| 294|39.76663| -86.16481|FALSE|TRUE|TRUE|TRUE
5695586|Omni Severin Hotel|Indianapolis, IN| 268|39.76381| -86.15980|FALSE|TRUE|TRUE|TRUE
5695586|Baymont by Wyndham Indianapolis West|Indianapolis, IN|  75|39.82521| -86.27816|TRUE|FALSE|FALSE|TRUE
5695586|Super 8 by Wyndham Indianapolis South|Indianapolis, IN|  67|39.69757| -86.15026|TRUE|FALSE|FALSE|TRUE
5695586|Extended Stay America Suites Indianapolis Airport|Indianapolis, IN|  73|39.72538| -86.26306|TRUE|FALSE|FALSE|TRUE
5695586|The Westin Indianapolis|Indianapolis, IN| 288|39.76647| -86.16359|FALSE|TRUE|TRUE|TRUE
5695586|Days Inn by Wyndham Indianapolis East Post Road|Indianapolis, IN|  70|39.79823| -86.01011|TRUE|FALSE|FALSE|TRUE
5695586|Courtyard by Marriott Indianapolis Downtown|Indianapolis, IN| 288|39.76683| -86.16909|FALSE|FALSE|TRUE|TRUE
5695586|Hotel Indy, Indianapolis, a Tribute Portfolio Hotel|Indianapolis, IN| 268|39.76633| -86.15474|FALSE|FALSE|TRUE|TRUE
5695637|Hampton Inn Green Bay Downtown|Green Bay, WI| 140|44.51840| -88.01276|FALSE|FALSE|TRUE|TRUE
5695637|Best Western Green Bay Inn Conference Center|Green Bay, WI| 149|44.49878| -88.05316|FALSE|TRUE|TRUE|TRUE
5695637|My Place Hotel - Green Bay|Green Bay, WI| 113|44.49021| -88.05939|TRUE|TRUE|FALSE|TRUE
5695637|Hotel Northland, Autograph Collection|Green Bay, WI| 195|44.51578| -88.01287|FALSE|FALSE|TRUE|TRUE
5695637|St. Brendan's Inn|Green Bay, WI| 149|44.51239| -88.01794|FALSE|FALSE|TRUE|TRUE
5695637|Extended Stay Airport|Green Bay, WI|  81|44.49157| -88.10388|TRUE|FALSE|FALSE|TRUE
5695637|Comfort Inn Green Bay|Green Bay, WI|  87|44.47263| -88.07697|TRUE|TRUE|FALSE|TRUE
5695637|Kress Inn, Ascend Hotel Collection|Green Bay, WI| 107|44.44574| -88.06906|TRUE|FALSE|FALSE|TRUE
5695637|Radisson Conference Center Green Bay|Green Bay, WI| 136|44.49726| -88.12233|FALSE|FALSE|TRUE|TRUE
5695637|Wingate by Wyndham Green Bay/Airport|Green Bay, WI|  87|44.49453| -88.12332|TRUE|FALSE|FALSE|TRUE
5695637|AmericInn by Wyndham Green Bay East|Green Bay, WI| 109|44.47000| -87.95382|TRUE|FALSE|FALSE|TRUE
5695637|AmericInn by Wyndham Green Bay West|Green Bay, WI| 108|44.55953| -88.06557|TRUE|FALSE|FALSE|TRUE
5695637|Lodge Kohler|Green Bay, WI| 276|44.50229| -88.06497|FALSE|TRUE|TRUE|TRUE
5695637|Baymont by Wyndham Green Bay|Green Bay, WI|  68|44.47234| -88.07631|TRUE|TRUE|FALSE|TRUE
5695637|SpringHill Suites Green Bay|Green Bay, WI| 146|44.49633| -88.05121|FALSE|TRUE|TRUE|TRUE
5695637|Hotel J Green Bay|Green Bay, WI|  91|44.49177| -88.10755|TRUE|FALSE|FALSE|TRUE
5695637|Delta Hotels by Marriott Green Bay|Green Bay, WI| 117|44.47603| -88.07774|FALSE|TRUE|FALSE|TRUE
5695637|Residence Inn by Marriott Green Bay Downtown|Green Bay, WI| 149|44.48014| -88.05150|FALSE|TRUE|TRUE|TRUE
5695637|Hawthorn Suites by Wyndham Green Bay|Green Bay, WI| 132|44.48523| -88.02414|FALSE|FALSE|TRUE|TRUE
5695637|Astor House|Green Bay, WI| 173|44.50501| -88.01518|FALSE|FALSE|TRUE|TRUE
5695637|Aloft Green Bay, a Marriott Hotel|Green Bay, WI| 117|44.47844| -88.05245|FALSE|TRUE|FALSE|TRUE
5695637|AmericInn by Wyndham Green Bay Near Stadium|Green Bay, WI| 113|44.47346| -88.07673|TRUE|TRUE|FALSE|TRUE
5695654|Days Inn by Wyndham Florence Cincinnati Area|Cincinnati, OH|  72|39.00929| -84.63429|TRUE|FALSE|FALSE|TRUE
5695654|The Cincinnatian Hotel Curio Collection by Hilton|Cincinnati, OH| 190|39.10258| -84.51382|FALSE|TRUE|TRUE|TRUE
5695654|Wingate by Wyndham Erlanger/Cincinnati|Cincinnati, OH|  85|39.02865| -84.61225|TRUE|FALSE|FALSE|TRUE
5695654|Hampton Inn & Suites Cincinnati-Downtown|Cincinnati, OH| 200|39.10294| -84.51363|FALSE|TRUE|TRUE|TRUE
5695654|Days Inn by Wyndham Fort Wright Cincinnati Area|Cincinnati, OH|  57|39.05662| -84.54476|TRUE|FALSE|FALSE|TRUE
5695654|The Westin Cincinnati|Cincinnati, OH| 191|39.10075| -84.51230|FALSE|TRUE|TRUE|TRUE
5695654|Best Western Inn Florence|Cincinnati, OH|  74|39.00272| -84.64350|TRUE|FALSE|FALSE|TRUE
5695654|Hyatt Regency Cincinnati|Cincinnati, OH| 306|39.10027| -84.51561|FALSE|TRUE|TRUE|TRUE
5695654|Rodeway Inn Florence - Cincinnati South|Cincinnati, OH|  52|38.98984| -84.64132|TRUE|FALSE|FALSE|TRUE
5695654|Quality Inn & Suites|Cincinnati, OH|  75|39.10357| -84.52874|TRUE|FALSE|FALSE|TRUE
5695654|Extended Stay America Select Suites - Cincinnati - Florence - Airport|Cincinnati, OH|  91|39.01055| -84.63280|TRUE|FALSE|FALSE|TRUE
5695654|Hilton Cincinnati Netherland Plaza|Cincinnati, OH| 181|39.10074| -84.51397|FALSE|TRUE|FALSE|TRUE
5695654|Hotel Covington Cincinnati Riverfront|Cincinnati, OH| 224|39.08364| -84.50997|FALSE|FALSE|TRUE|TRUE
5695654|AC Hotel by Marriott Cincinnati at The Banks|Cincinnati, OH| 190|39.09686| -84.50870|FALSE|TRUE|TRUE|TRUE
5695654|Homewood Suites by Hilton Cincinnati-Downtown|Cincinnati, OH| 186|39.10302| -84.51357|FALSE|TRUE|FALSE|TRUE
5695654|The Lytle Park Hotel, Autograph Collection|Cincinnati, OH| 297|39.10119| -84.50339|FALSE|FALSE|TRUE|TRUE
5695654|The Summit Hotel|Cincinnati, OH| 235|39.15853| -84.40339|FALSE|FALSE|TRUE|TRUE
5695654|Holiday Inn Cincinnati Airport, an IHG Hotel|Cincinnati, OH|  88|39.05686| -84.62768|TRUE|FALSE|FALSE|TRUE
5695654|21c Museum Hotel Cincinnati|Cincinnati, OH| 246|39.10309| -84.51211|FALSE|FALSE|TRUE|TRUE
5695654|Renaissance Cincinnati Downtown Hotel|Cincinnati, OH| 240|39.10030| -84.51153|FALSE|TRUE|TRUE|TRUE
5695654|Red Roof Inn Cincinnati Airport–Florence/ Erlanger|Cincinnati, OH|  72|39.02683| -84.61616|TRUE|FALSE|FALSE|TRUE
5695654|Courtyard by Marriott Cincinnati Downtown|Cincinnati, OH| 180|39.10018| -84.51251|FALSE|TRUE|FALSE|TRUE
5695654|Kinley Cincinnati Downtown, a Tribute Portfolio Hotel|Cincinnati, OH| 212|39.10334| -84.51504|FALSE|TRUE|TRUE|TRUE
5695654|Comfort Suites Cincinnati Airport|Cincinnati, OH|  91|39.07720| -84.66093|TRUE|FALSE|FALSE|TRUE
5695654|Super 8 by Wyndham Fort Mitchell Cincinnati Area|Cincinnati, OH|  69|39.04846| -84.57065|TRUE|FALSE|FALSE|TRUE
5695730|Sheraton Pittsburgh Hotel at Station Square|Pittsburgh, PA| 183|40.43473| -80.00598|FALSE|TRUE|FALSE|TRUE
5695730|Sonesta Simply Suites Pittsburgh Airport|Pittsburgh, PA|  96|40.44908| -80.18300|TRUE|FALSE|FALSE|TRUE
5695730|The Warhola Bloomfield|Pittsburgh, PA| 286|40.44837| -80.00249|FALSE|TRUE|TRUE|TRUE
5695730|Hyatt Place Pittsburgh-North Shore|Pittsburgh, PA| 176|40.44669| -80.00909|FALSE|TRUE|FALSE|TRUE
5695730|Omni William Penn Hotel|Pittsburgh, PA| 213|40.44060| -79.99659|FALSE|FALSE|TRUE|TRUE
5695730|Wyndham Garden Pittsburgh Airport|Pittsburgh, PA|  96|40.46570| -80.19865|TRUE|FALSE|FALSE|TRUE
5695730|Extended Stay America Suites Pittsburgh West Mifflin|Pittsburgh, PA|  87|40.36340| -79.86644|TRUE|FALSE|FALSE|TRUE
5695730|Etage Executive Living|Pittsburgh, PA| 227|40.44092| -80.00390|FALSE|TRUE|TRUE|TRUE
5695730|Wyndham Grand Pittsburgh Downtown|Pittsburgh, PA| 151|40.44167| -80.00642|FALSE|TRUE|FALSE|TRUE
5695730|Fairmont Pittsburgh|Pittsburgh, PA| 262|40.44159| -80.00170|FALSE|TRUE|TRUE|TRUE
5695730|Red Roof Inn PLUS+ Pittsburgh South - Airport|Pittsburgh, PA|  80|40.44969| -80.15721|TRUE|FALSE|FALSE|TRUE
5695730|Quality Inn Pittsburgh Airport|Pittsburgh, PA|  91|40.44527| -80.17221|TRUE|FALSE|FALSE|TRUE
5695730|Springhill Suites by Marriott Pittsburgh North Shore|Pittsburgh, PA| 136|40.44859| -80.00462|FALSE|TRUE|FALSE|TRUE
5695730|Days Inn by Wyndham Pittsburgh|Pittsburgh, PA|  96|40.41923| -80.03035|TRUE|FALSE|FALSE|TRUE
5695730|Comfort Inn Pittsburgh|Pittsburgh, PA|  93|40.50569| -80.00898|TRUE|FALSE|FALSE|TRUE
5695730|Renaissance Pittsburgh Hotel|Pittsburgh, PA| 241|40.44383| -80.00221|FALSE|TRUE|TRUE|TRUE
5695730|Mansions on Fifth Hotel|Pittsburgh, PA| 215|40.44808| -79.93829|FALSE|FALSE|TRUE|TRUE
5695730|The Inn on Negley|Pittsburgh, PA| 239|40.45334| -79.93146|FALSE|FALSE|TRUE|TRUE
5695730|Red Roof Inn Pittsburgh - McKnight Rd|Pittsburgh, PA|  87|40.50569| -80.00892|TRUE|FALSE|FALSE|TRUE
5695730|Wingate by Wyndham West Mifflin|Pittsburgh, PA|  94|40.34556| -79.95755|TRUE|FALSE|FALSE|TRUE
5695730|Extended Stay America Suites Pittsburgh Airport|Pittsburgh, PA|  87|40.44345| -80.15972|TRUE|FALSE|FALSE|TRUE
5695730|Kimpton Hotel Monaco Pittsburgh, an IHG Hotel|Pittsburgh, PA| 265|40.44141| -79.99632|FALSE|FALSE|TRUE|TRUE
5695730|Comfort Inn and Suites|Pittsburgh, PA|  96|40.41993| -80.03033|TRUE|FALSE|FALSE|TRUE
5695730|Comfort Inn Conference Center|Pittsburgh, PA|  77|40.44304| -79.82635|TRUE|FALSE|FALSE|TRUE
5695730|Residence Inn by Marriott Pittsburgh North Shore|Pittsburgh, PA| 136|40.44791| -80.00721|FALSE|TRUE|FALSE|TRUE
5695730|The Industrialist Hotel, Pittsburgh, Autograph Collection|Pittsburgh, PA| 222|40.43960| -80.00141|FALSE|TRUE|TRUE|TRUE
5695730|The Oaklander Hotel, Autograph Collection|Pittsburgh, PA| 222|40.44505| -79.95513|FALSE|FALSE|TRUE|TRUE
5735777|Red Roof Inn Lexington - Hamburg|Lexington, KY|  72|38.04416| -84.42344|TRUE|FALSE|FALSE|TRUE
5735777|Origin Lexington a Wyndham Hotel|Lexington, KY| 148|37.97629| -84.52592|FALSE|FALSE|TRUE|TRUE
5735777|Hilton Lexington/Downtown|Lexington, KY| 192|38.04842| -84.50009|FALSE|TRUE|TRUE|TRUE
5735777|The Campbell House Lexington, Curio Collection by Hilton|Lexington, KY| 147|38.03482| -84.52506|FALSE|TRUE|TRUE|TRUE
5735777|Embassy Suites by Hilton Lexington/UK Coldstream|Lexington, KY| 177|38.09506| -84.48893|FALSE|FALSE|TRUE|TRUE
5735777|Lexington Griffin Gate Marriott Golf Resort & Spa|Lexington, KY| 142|38.09317| -84.48504|FALSE|TRUE|TRUE|TRUE
5735777|Comfort Inn Lexington Southeast|Lexington, KY|  77|37.96313| -84.38569|TRUE|FALSE|FALSE|TRUE
5735777|Elwood Hotel & Suites|Lexington, KY| 124|38.03500| -84.52312|FALSE|TRUE|FALSE|TRUE
5735777|GuestHouse Lexington|Lexington, KY|  86|38.04296| -84.42383|TRUE|FALSE|FALSE|TRUE
5735777|La Quinta Inn by Wyndham Lexington|Lexington, KY|  83|38.10028| -84.48204|TRUE|FALSE|FALSE|TRUE
5735777|Lexington Marriott City Center|Lexington, KY| 202|38.04636| -84.49804|FALSE|TRUE|TRUE|TRUE
5735777|Microtel Inn by Wyndham Lexington|Lexington, KY|  69|38.04227| -84.42691|TRUE|FALSE|FALSE|TRUE
5735777|Embassy Suites by Hilton Lexington Green|Lexington, KY| 158|37.99566| -84.52500|FALSE|FALSE|TRUE|TRUE
5735777|Extended Stay America Suites Lexington Nicholasville Road|Lexington, KY|  86|37.99367| -84.52255|TRUE|FALSE|FALSE|TRUE
5735777|21c Museum Hotel Lexington|Lexington, KY| 197|38.04715| -84.49761|FALSE|TRUE|TRUE|TRUE
5735777|Super 8 by Wyndham Lexington/Hamburg Area|Lexington, KY|  64|38.04218| -84.42149|TRUE|FALSE|FALSE|TRUE
5735777|Sleep Inn Lexington|Lexington, KY|  81|38.01913| -84.41471|TRUE|FALSE|FALSE|TRUE
5735777|Quality Inn Lexington|Lexington, KY|  73|38.04407| -84.42158|TRUE|FALSE|FALSE|TRUE
5735777|Staybridge Suites Lexington S Medical Ctr Area, an IHG Hotel|Lexington, KY| 132|38.06673| -84.52880|FALSE|TRUE|FALSE|TRUE
5735777|Courtyard by Marriott Lexington North|Lexington, KY|  95|38.07578| -84.49074|FALSE|TRUE|FALSE|TRUE
5735777|Hyatt Regency Lexington|Lexington, KY| 162|38.04845| -84.50154|FALSE|TRUE|TRUE|TRUE
5735777|The Sire Hotel Lexington, Tapestry Collection by Hilton|Lexington, KY| 153|38.04858| -84.49508|FALSE|TRUE|TRUE|TRUE
5735777|Extended Stay America Suites Lexington Tates Creek|Lexington, KY|  83|37.98404| -84.49517|TRUE|FALSE|FALSE|TRUE
5735777|Quality Inn Lexington East/Hamburg Area|Lexington, KY|  73|38.04410| -84.42134|TRUE|FALSE|FALSE|TRUE
5735811|Hilton Garden Inn Waco|Waco, TX| 147|31.49197| -97.15973|FALSE|FALSE|TRUE|TRUE
5735811|TownePlace Suites by Marriott Waco South|Waco, TX| 157|31.49368| -97.16109|FALSE|FALSE|TRUE|TRUE
5735811|Americas Best Value Inn Waco|Waco, TX|  86|31.52699| -97.16542|TRUE|FALSE|FALSE|TRUE
5735811|Element Waco|Waco, TX| 160|31.52295| -97.13114|FALSE|TRUE|TRUE|TRUE
5735811|1700 South 2nd|Waco, TX| 208|31.54609| -97.11277|FALSE|TRUE|TRUE|TRUE
5735811|Hilton Waco|Waco, TX| 191|31.55959| -97.12826|FALSE|TRUE|TRUE|TRUE
5735811|Residence Inn by Marriott Waco South|Waco, TX| 184|31.50119| -97.15756|FALSE|FALSE|TRUE|TRUE
5735811|OYO Hotel Waco University Area/ I-35|Waco, TX|  61|31.56152| -97.11770|TRUE|TRUE|FALSE|TRUE
5735811|SpringHill Suites Waco Woodway|Waco, TX| 147|31.50399| -97.20075|FALSE|FALSE|TRUE|TRUE
5735811|Quality Inn & Suites|Waco, TX|  74|31.50935| -97.14411|TRUE|FALSE|FALSE|TRUE
5735811|Hotel Indigo WACO - BAYLOR, an IHG Hotel|Waco, TX| 168|31.55547| -97.12509|FALSE|TRUE|TRUE|TRUE
5735811|Red Roof Inn Waco|Waco, TX|  87|31.56108| -97.11830|TRUE|TRUE|FALSE|TRUE
5735811|Studio 6 Waco, TX - Downtown - Baylor|Waco, TX|  71|31.53810| -97.12757|TRUE|TRUE|FALSE|TRUE
5735811|Days Inn by Wyndham Waco|Waco, TX|  80|31.59837| -97.11001|TRUE|FALSE|FALSE|TRUE
5735811|Days Inn by Wyndham Waco University Area|Waco, TX|  75|31.51939| -97.13451|TRUE|FALSE|FALSE|TRUE
5735811|Aloft Waco Baylor, a Marriott Hotel|Waco, TX| 136|31.54554| -97.12912|FALSE|TRUE|FALSE|TRUE
5735811|Extended Stay America Suites Waco Woodway|Waco, TX|  86|31.54933| -97.14667|TRUE|FALSE|FALSE|TRUE
5735811|Courtyard by Marriott Waco|Waco, TX| 126|31.56069| -97.13021|FALSE|TRUE|FALSE|TRUE
5735811|Knights Inn Franklin Ave Waco|Waco, TX|  81|31.52858| -97.16264|TRUE|FALSE|FALSE|TRUE
5735811|Home2 Suites by Hilton Waco|Waco, TX| 146|31.52749| -97.13434|FALSE|TRUE|TRUE|TRUE
5735811|Residence Inn Waco|Waco, TX| 169|31.50136| -97.15763|FALSE|FALSE|TRUE|TRUE
5735811|Sleep Inn & Suites Hewitt - South Waco|Waco, TX|  84|31.45915| -97.17309|TRUE|FALSE|FALSE|TRUE
5735812|Ramada by Wyndham Columbia|Columbia, MO|  72|38.96032| -92.29371|TRUE|TRUE|FALSE|TRUE
5735812|Wingate by Wyndham - Columbia|Columbia, MO| 103|38.95827| -92.29132|TRUE|TRUE|FALSE|TRUE
5735812|Comfort Suites Columbia - University Area|Columbia, MO|  89|38.96602| -92.35411|TRUE|TRUE|FALSE|TRUE
5735812|Courtyard by Marriott Columbia Missouri|Columbia, MO| 146|38.91432| -92.29258|FALSE|TRUE|TRUE|TRUE
5735812|SpringHill Suites by Marriott Columbia|Columbia, MO| 118|38.96508| -92.28535|FALSE|FALSE|TRUE|TRUE
5735812|Stoney Creek Hotel Columbia|Columbia, MO| 104|38.92172| -92.33819|TRUE|TRUE|FALSE|TRUE
5735812|Drury Plaza Hotel Columbia East|Columbia, MO| 133|38.96065| -92.28959|FALSE|FALSE|TRUE|TRUE
5735812|Holiday Inn Executive Center-Columbia Mall, an IHG Hotel|Columbia, MO| 118|38.96700| -92.37362|FALSE|FALSE|TRUE|TRUE
5735812|The Broadway Columbia - a DoubleTree by Hilton|Columbia, MO| 130|38.95175| -92.32465|FALSE|TRUE|TRUE|TRUE
5735812|Super 8 by Wyndham Columbia East|Columbia, MO|  63|38.96089| -92.25079|TRUE|FALSE|FALSE|TRUE
5735812|voco The Tiger Hotel, an IHG Hotel|Columbia, MO| 166|38.95087| -92.32880|FALSE|TRUE|TRUE|TRUE
5735812|Hampton Inn Columbia|Columbia, MO| 119|38.96294| -92.28750|FALSE|FALSE|TRUE|TRUE
5735812|Red Roof Inn Columbia, MO|Columbia, MO|  67|38.97044| -92.33521|TRUE|TRUE|FALSE|TRUE
5735812|Country Inn & Suites by Radisson, Columbia, MO|Columbia, MO| 106|38.95968| -92.28967|TRUE|FALSE|FALSE|TRUE
5735812|Extended Stay America Suites Columbia Stadium Blvd|Columbia, MO|  86|38.93925| -92.35196|TRUE|TRUE|FALSE|TRUE
5735812|TownePlace Suites by Marriott Columbia|Columbia, MO| 127|38.90058| -92.28693|FALSE|FALSE|TRUE|TRUE
5735812|La Quinta Inn & Suites by Wyndham Columbia|Columbia, MO|  53|38.96803| -92.37609|TRUE|FALSE|FALSE|TRUE
5735812|Residence Inn by Marriott Columbia|Columbia, MO| 106|38.96227| -92.28418|TRUE|FALSE|FALSE|TRUE
5735812|Holiday Inn Columbia East, an IHG Hotel|Columbia, MO| 132|38.95811| -92.25256|FALSE|FALSE|TRUE|TRUE
5735812|Staybridge Suites Columbia, an IHG Hotel|Columbia, MO| 128|38.95885| -92.29115|FALSE|TRUE|TRUE|TRUE
5735815|Moore House Bed and Breakfast|Manhattan, KS| 144|39.18431| -96.58524|FALSE|TRUE|TRUE|TRUE
5735815|Comfort Suites Manhattan|Manhattan, KS| 108|39.19068| -96.55642|TRUE|TRUE|TRUE|TRUE
5735815|The Bluemont Hotel|Manhattan, KS| 115|39.18713| -96.57578|TRUE|TRUE|TRUE|TRUE
5735815|Best Western Manhattan Inn|Manhattan, KS|  94|39.18655| -96.54925|TRUE|FALSE|TRUE|TRUE
5735815|Hilton Garden Inn Manhattan|Manhattan, KS| 109|39.17522| -96.56066|TRUE|TRUE|TRUE|TRUE
5735815|Four Points by Sheraton Manhattan|Manhattan, KS|  88|39.17028| -96.59746|TRUE|TRUE|TRUE|TRUE
5735815|Parkwood Inn & Suites|Manhattan, KS|  94|39.17513| -96.58270|TRUE|TRUE|TRUE|TRUE
5735815|Quality Inn & Suites|Manhattan, KS|  79|39.18052| -96.55399|TRUE|FALSE|FALSE|TRUE
5735815|Courtyard by Marriott Manhattan Aggieville|Manhattan, KS| 114|39.18634| -96.57501|TRUE|TRUE|TRUE|TRUE
5735815|Super 8 by Wyndham Manhattan KS|Manhattan, KS|  73|39.18120| -96.55578|TRUE|TRUE|FALSE|TRUE
5735815|Holiday Inn Manhattan at the Campus, an IHG Hotel|Manhattan, KS| 127|39.18551| -96.58258|TRUE|TRUE|TRUE|TRUE
5735815|Candlewood Suites Manhattan, an IHG Hotel|Manhattan, KS| 128|39.17538| -96.55936|FALSE|TRUE|TRUE|TRUE
5735816|Fairfield Inn & Suites Norman|Norman, OK| 116|35.21614| -97.48856|TRUE|TRUE|TRUE|TRUE
5735816|SureStay Plus Hotel by Best Western Norman|Norman, OK|  76|35.21569| -97.48871|TRUE|TRUE|TRUE|TRUE
5735816|Super 8 by Wyndham Norman|Norman, OK|  62|35.21752| -97.48221|TRUE|TRUE|FALSE|TRUE
5735816|Stone Hill Norman, Trademark Collection by Wyndham|Norman, OK| 112|35.25714| -97.48725|TRUE|TRUE|TRUE|TRUE
5735816|NCED Conference Center & Hotel|Norman, OK| 147|35.19124| -97.39799|FALSE|TRUE|TRUE|TRUE
5735816|Extended Stay America Select Suites - Oklahoma City - Norman|Norman, OK|  76|35.28389| -97.48361|TRUE|FALSE|TRUE|TRUE
5735816|Embassy Suites by Hilton Norman Hotel & Conference Center|Norman, OK| 145|35.24348| -97.47864|TRUE|TRUE|TRUE|TRUE
5735816|Hilton Garden Inn Norman|Norman, OK| 115|35.22621| -97.48796|TRUE|TRUE|TRUE|TRUE
5735816|Courtyard by Marriott Norman|Norman, OK| 115|35.22802| -97.48761|TRUE|TRUE|TRUE|TRUE
5735816|Americas Best Value Inn Norman at Univ of Oklahoma|Norman, OK|  74|35.21756| -97.48158|TRUE|TRUE|TRUE|TRUE
5735816|The Whispering Pines Inn Bed & Breakfast|Norman, OK| 119|35.18784| -97.32579|TRUE|TRUE|TRUE|TRUE
5735819|Americas Best Value Inn Stillwater|Stillwater, OK|  58|36.11700| -97.12849|TRUE|FALSE|FALSE|TRUE
5735819|The Atherton Hotel At OSU|Stillwater, OK| 151|36.12045| -97.06880|FALSE|TRUE|TRUE|TRUE
5735819|Best Western Plus Cimarron Hotel & Suites|Stillwater, OK| 104|36.12580| -97.06004|TRUE|TRUE|TRUE|TRUE
5735819|Microtel Inn & Suites by Wyndham Stillwater|Stillwater, OK|  78|36.12557| -97.05305|TRUE|TRUE|TRUE|TRUE
5735819|Residence Inn by Marriott Stillwater|Stillwater, OK| 150|36.11253| -97.11693|TRUE|TRUE|TRUE|TRUE
5735819|Wyndham Garden Stillwater|Stillwater, OK|  61|36.13162| -97.05018|TRUE|TRUE|TRUE|TRUE
5735819|Hampton Inn & Suites Stillwater|Stillwater, OK|  98|36.11461| -97.12177|TRUE|TRUE|TRUE|TRUE
5735819|Holiday Inn Stillwater - University West, an IHG Hotel|Stillwater, OK| 115|36.11363| -97.12223|TRUE|TRUE|TRUE|TRUE
5735819|Home2 Suites by Hilton Stillwater|Stillwater, OK| 108|36.12741| -97.05581|TRUE|TRUE|TRUE|TRUE
5735819|SpringHill Suites by Marriott Stillwater|Stillwater, OK| 101|36.11909| -97.11713|TRUE|TRUE|TRUE|TRUE
5735819|Executive Inn Stillwater|Stillwater, OK|  62|36.11739| -97.12639|TRUE|TRUE|TRUE|TRUE
5735821|Comfort Suites Starkville|Starkville, MS| 105|33.45860| -88.80038|TRUE|TRUE|TRUE|TRUE
5735821|Hampton Inn Starkville|Starkville, MS| 151|33.45375| -88.80542|TRUE|TRUE|TRUE|TRUE
5735821|Courtyard Starkville MSU at The Mill Conference Center|Starkville, MS| 157|33.45666| -88.80229|TRUE|TRUE|TRUE|TRUE
5735821|Hilton Garden Inn Starkville|Starkville, MS| 142|33.48105| -88.79710|TRUE|TRUE|TRUE|TRUE
5735821|Hotel Chester|Starkville, MS| 109|33.46408| -88.81416|TRUE|TRUE|TRUE|TRUE
5735822|Graduate Knoxville|Knoxville, TN| 169|35.95563| -83.93261|FALSE|TRUE|TRUE|TRUE
5735822|Baymont by Wyndham Knoxville I-75|Knoxville, TN|  87|36.02673| -83.99088|TRUE|FALSE|FALSE|TRUE
5735822|Rodeway Inn|Knoxville, TN|  65|36.00621| -83.77502|TRUE|FALSE|FALSE|TRUE
5735822|The Tennessean Personal Luxury Hotel|Knoxville, TN| 233|35.96245| -83.92308|FALSE|TRUE|TRUE|TRUE
5735822|Quality Inn Merchants Drive|Knoxville, TN|  69|36.01350| -83.97058|TRUE|FALSE|FALSE|TRUE
5735822|Marriott Knoxville Downtown|Knoxville, TN| 157|35.96270| -83.92267|FALSE|TRUE|TRUE|TRUE
5735822|Hilton Knoxville|Knoxville, TN| 149|35.96257| -83.92007|FALSE|TRUE|FALSE|TRUE
5735822|Microtel Inn by Wyndham Knoxville|Knoxville, TN|  70|35.91442| -84.09075|TRUE|FALSE|FALSE|TRUE
5735822|Clarion Inn & Suites Near Downtown|Knoxville, TN|  63|36.01180| -83.97177|TRUE|FALSE|FALSE|TRUE
5735822|Hilton Garden Inn Knoxville West/Cedar Bluff|Knoxville, TN| 201|35.91538| -84.09433|FALSE|FALSE|TRUE|TRUE
5735822|Hyatt Place Knoxville Downtown|Knoxville, TN| 174|35.96449| -83.91764|FALSE|TRUE|TRUE|TRUE
5735822|Days Inn by Wyndham Knoxville East|Knoxville, TN|  87|36.01047| -83.84407|TRUE|FALSE|FALSE|TRUE
5735822|OYO Hotel Knoxville TN Cedar Bluff I-40|Knoxville, TN|  70|35.92047| -84.09378|TRUE|FALSE|FALSE|TRUE
5735822|Super 8 by Wyndham Knoxville Downtown Area|Knoxville, TN|  66|36.00870| -83.97670|TRUE|FALSE|FALSE|TRUE
5735822|Home2 Suites by Hilton Knoxville West|Knoxville, TN| 158|35.91531| -84.09652|FALSE|FALSE|TRUE|TRUE
5735822|Courtyard by Marriott Knoxville Downtown|Knoxville, TN| 152|35.96333| -83.91621|FALSE|TRUE|FALSE|TRUE
5735822|Crowne Plaza Hotel Knoxville Downtown University, an IHG Hotel|Knoxville, TN| 175|35.96729| -83.92058|FALSE|TRUE|TRUE|TRUE
5735822|Embassy Suites by Hilton Knoxville Downtown|Knoxville, TN| 250|35.96485| -83.91821|FALSE|TRUE|TRUE|TRUE
5735822|Red Roof Inn Knoxville Central - Papermill Road|Knoxville, TN|  81|35.94602| -84.00024|TRUE|FALSE|FALSE|TRUE
5735822|Cumberland House Knoxville, Tapestry Collection by Hilton|Knoxville, TN| 163|35.96053| -83.92577|FALSE|TRUE|TRUE|TRUE
5735822|USA Inn|Knoxville, TN|  69|35.82326| -83.97602|TRUE|FALSE|FALSE|TRUE
5735822|The Oliver Hotel|Knoxville, TN| 233|35.96470| -83.91975|FALSE|TRUE|TRUE|TRUE
5735825|Hotel Indigo Baton Rouge Downtown, an IHG Hotel|Baton Rouge, LA| 153|30.44838| -91.18911|FALSE|TRUE|TRUE|TRUE
5735825|Super 8 by Wyndham Baton Rouge/I-10|Baton Rouge, LA|  61|30.38339| -91.06320|TRUE|FALSE|FALSE|TRUE
5735825|Courtyard by Marriott Baton Rouge Downtown|Baton Rouge, LA| 134|30.44916| -91.18783|FALSE|TRUE|FALSE|TRUE
5735825|The Stockade Bed and Breakfast|Baton Rouge, LA| 213|30.36928| -91.12412|FALSE|FALSE|TRUE|TRUE
5735825|Marriott Baton Rouge|Baton Rouge, LA| 176|30.38026| -91.06476|FALSE|FALSE|TRUE|TRUE
5735825|OYO Hotel Port Allen LA|Baton Rouge, LA|  58|30.42500| -91.21572|TRUE|TRUE|FALSE|TRUE
5735825|OYO Hotel Baton Rouge East I-12|Baton Rouge, LA|  56|30.42815| -91.07616|TRUE|FALSE|FALSE|TRUE
5735825|Hampton Inn & Suites Baton Rouge Downtown|Baton Rouge, LA| 141|30.45119| -91.18917|FALSE|TRUE|FALSE|TRUE
5735825|Courtyard by Marriott Baton Rouge Acadian Centre/LSU Area|Baton Rouge, LA| 129|30.42312| -91.14982|FALSE|TRUE|FALSE|TRUE
5735825|OYO Hotel Baton Rouge - Mead Rd|Baton Rouge, LA|  55|30.42747| -91.05926|TRUE|FALSE|FALSE|TRUE
5735825|L'Auberge Casino Hotel Baton Rouge|Baton Rouge, LA| 165|30.34549| -91.15083|FALSE|FALSE|TRUE|TRUE
5735825|Red Roof Inn Port Allen|Baton Rouge, LA|  60|30.44880| -91.24538|TRUE|FALSE|FALSE|TRUE
5735825|Econo Lodge Baton Rouge University Area|Baton Rouge, LA|  75|30.41953| -91.13766|FALSE|TRUE|FALSE|TRUE
5735825|WATERMARK Baton Rouge, Autograph Collection|Baton Rouge, LA| 191|30.44809| -91.18794|FALSE|TRUE|TRUE|TRUE
5735825|The Cook Hotel & Conference Center|Baton Rouge, LA| 173|30.41351| -91.16985|FALSE|TRUE|TRUE|TRUE
5735825|Sonesta ES Suites Baton Rouge University at Southgate|Baton Rouge, LA| 145|30.40017| -91.17942|FALSE|TRUE|TRUE|TRUE
5735825|FairBridge Inn Express Baton Rouge|Baton Rouge, LA|  59|30.43100| -91.05860|TRUE|FALSE|FALSE|TRUE
5735825|Crowne Plaza Baton Rouge, an IHG Hotel|Baton Rouge, LA| 155|30.42128| -91.13613|FALSE|FALSE|TRUE|TRUE
5735825|Renaissance Baton Rouge Hotel|Baton Rouge, LA| 211|30.38706| -91.09477|FALSE|FALSE|TRUE|TRUE
5735825|Quality Inn & Suites Baton Rouge West – Port Allen|Baton Rouge, LA|  57|30.45058| -91.24385|TRUE|FALSE|FALSE|TRUE
5735825|WoodSpring Suites Baton Rouge East I-12|Baton Rouge, LA|  61|30.43169| -91.05343|TRUE|FALSE|FALSE|TRUE
5735825|Audubon Inn|Baton Rouge, LA|  59|30.44550| -91.24499|TRUE|FALSE|FALSE|TRUE
5735825|Hilton Baton Rouge Capitol Center|Baton Rouge, LA| 152|30.44874| -91.18973|FALSE|TRUE|TRUE|TRUE
5735825|OYO Hotel Baton Rouge Mid City|Baton Rouge, LA|  62|30.42707| -91.07601|TRUE|FALSE|FALSE|TRUE
5735826|Hilton Garden Inn Morgantown|Morgantown, WV| 118|39.65385| -79.94443|FALSE|FALSE|TRUE|TRUE
5735826|Super 8 by Wyndham Morgantown|Morgantown, WV|  65|39.64894| -79.89710|TRUE|FALSE|FALSE|TRUE
5735826|Hotel M Morgantown - WVU Area|Morgantown, WV|  54|39.65435| -79.98575|TRUE|TRUE|FALSE|TRUE
5735826|Hampton Inn Morgantown|Morgantown, WV| 116|39.65351| -79.96428|FALSE|TRUE|TRUE|TRUE
5735826|Candlewood Suites Morgantown-Univ West Virginia, an IHG Hotel|Morgantown, WV| 107|39.65852| -80.01466|TRUE|TRUE|FALSE|TRUE
5735826|Residence Inn by Marriott Morgantown Medical Center Area|Morgantown, WV| 155|39.65378| -79.95244|FALSE|TRUE|TRUE|TRUE
5735826|Springhill Suites by Marriott Morgantown|Morgantown, WV| 112|39.61881| -79.92391|TRUE|FALSE|FALSE|TRUE
5735826|Hotel Morgan a Wyndham Hotel|Morgantown, WV| 123|39.62843| -79.95759|FALSE|FALSE|TRUE|TRUE
5735826|Holiday Inn Express Morgantown, an IHG Hotel|Morgantown, WV| 116|39.64914| -79.89809|FALSE|FALSE|TRUE|TRUE
5735826|Lakeview Golf Resort|Morgantown, WV| 152|39.68710| -79.87440|FALSE|FALSE|TRUE|TRUE
5735826|Courtyard Morgantown|Morgantown, WV| 133|39.64540| -79.99448|FALSE|TRUE|TRUE|TRUE
5735826|Holiday Inn Morgantown - University Area, an IHG Hotel|Morgantown, WV| 115|39.65920| -79.95375|TRUE|TRUE|FALSE|TRUE
5735826|SureStay Plus Hotel by Best Western Morgantown|Morgantown, WV|  94|39.62673| -79.99184|TRUE|TRUE|FALSE|TRUE
5735826|Scholar Morgantown, Tapestry Collection by Hilton|Morgantown, WV| 153|39.63104| -79.95635|FALSE|TRUE|TRUE|TRUE
5735826|Econo Lodge|Morgantown, WV|  53|39.65574| -79.98542|TRUE|TRUE|FALSE|TRUE
5735826|The Cranberry, Ascend Hotel Collection|Morgantown, WV| 123|39.67114| -79.85656|FALSE|FALSE|TRUE|TRUE
5735826|Suburban Studios|Morgantown, WV|  96|39.62797| -79.92684|TRUE|FALSE|FALSE|TRUE
5735826|Quality Inn|Morgantown, WV|  82|39.58631| -79.95282|TRUE|FALSE|FALSE|TRUE
5735826|Lakeview Golf Resort, Trademark Collection by Wyndham|Morgantown, WV|  85|39.66646| -79.85385|TRUE|FALSE|FALSE|TRUE
5735826|Morgantown Marriott at Waterfront Place|Morgantown, WV| 157|39.62397| -79.96379|FALSE|FALSE|TRUE|TRUE
5735826|Euro Suites Hotel|Morgantown, WV| 127|39.65841| -79.96225|FALSE|TRUE|TRUE|TRUE
5739595|Hampton Inn Manhattan/Times Square South|Newark, NJ| 100|40.75619| -73.99290|TRUE|FALSE|FALSE|TRUE
5739595|Howard Johnson by Wyndham Clifton NJ|Newark, NJ|  96|40.83551| -74.14954|TRUE|FALSE|FALSE|TRUE
5739595|Fairfield Inn & Suites Newark Liberty International Airport|Newark, NJ| 130|40.70958| -74.17089|FALSE|TRUE|FALSE|TRUE
5739595|St Marks Hotel|Newark, NJ| 100|40.72928| -73.98965|TRUE|FALSE|FALSE|TRUE
5739595|The Ritz-Carlton New York, NoMad|Newark, NJ| 916|40.74554| -73.98884|FALSE|FALSE|TRUE|TRUE
5739595|DoubleTree by Hilton New York Times Square West|Newark, NJ|  94|40.75664| -73.99307|TRUE|FALSE|FALSE|TRUE
5739595|The Bowery Hotel|Newark, NJ| 549|40.72604| -73.99168|FALSE|FALSE|TRUE|TRUE
5739595|The Langham, New York, Fifth Avenue|Newark, NJ| 723|40.75014| -73.98353|FALSE|FALSE|TRUE|TRUE
5739595|Element Harrison - Newark, a Marriott Hotel|Newark, NJ| 195|40.74045| -74.15638|FALSE|TRUE|FALSE|TRUE
5739595|Rodeway Inn Meadowlands|Newark, NJ|  94|40.79292| -74.05712|TRUE|FALSE|FALSE|TRUE
5739595|Comfort Inn Manhattan - Midtown West|Newark, NJ| 100|40.76415| -73.99496|TRUE|FALSE|FALSE|TRUE
5739595|Four Seasons Hotel New York Downtown|Newark, NJ| 876|40.71263| -74.00919|FALSE|FALSE|TRUE|TRUE
5739595|Holiday Inn Newark International Airport, an IHG Hotel|Newark, NJ| 128|40.71291| -74.16644|FALSE|TRUE|FALSE|TRUE
5739595|TRYP by Wyndham Newark Downtown|Newark, NJ| 114|40.73831| -74.16799|FALSE|TRUE|FALSE|TRUE
5739595|DoubleTree by Hilton Hotel Newark Airport|Newark, NJ| 200|40.71284| -74.16429|FALSE|TRUE|FALSE|TRUE
5739595|The Knickerbocker Hotel|Newark, NJ| 485|40.73566| -74.17237|FALSE|TRUE|FALSE|TRUE
5739595|Canal Loft Hotel|Newark, NJ|  97|40.71530| -73.99388|TRUE|FALSE|FALSE|TRUE
5739595|Americana Inn|Newark, NJ|  96|40.75229| -73.98555|TRUE|FALSE|FALSE|TRUE
5739595|Pendry Manhattan West|Newark, NJ| 682|40.75339| -73.99859|FALSE|FALSE|TRUE|TRUE
5739595|Robert Treat Hotel, BW Premier Collection|Newark, NJ| 117|40.73920| -74.16831|FALSE|TRUE|FALSE|TRUE
5739595|Comfort Suites Newark - Harrison|Newark, NJ| 119|40.75496| -74.16660|FALSE|TRUE|FALSE|TRUE
5739595|Hudson River Hotel|Newark, NJ|  99|40.75537| -73.99735|TRUE|FALSE|FALSE|TRUE
5739595|The Mercer|Newark, NJ| 801|40.72494| -73.99852|FALSE|FALSE|TRUE|TRUE
5739595|DoubleTree by Hilton Newark Penn Station|Newark, NJ| 175|40.73542| -74.16537|FALSE|TRUE|FALSE|TRUE
5739595|Courtyard by Marriott Newark Downtown|Newark, NJ| 156|40.73352| -74.17293|FALSE|TRUE|FALSE|TRUE
5739595|The New York EDITION|Newark, NJ| 808|40.74129| -73.98736|FALSE|FALSE|TRUE|TRUE
5739595|Red Carpet Inn Newark Irvington, NJ|Newark, NJ|  83|40.72317| -74.23132|TRUE|FALSE|FALSE|TRUE
5739595|Casa Cipriani New York|Newark, NJ| 864|40.70110| -74.01188|FALSE|FALSE|TRUE|TRUE
5739595|Equinox Hotel New York|Newark, NJ| 722|40.75465| -74.00221|FALSE|FALSE|TRUE|TRUE
5739595|Doxie Hotel|Newark, NJ|  95|40.75469| -73.99111|TRUE|FALSE|FALSE|TRUE
5739595|Hotel Barriere Fouquets New York|Newark, NJ| 896|40.72362| -74.00975|FALSE|FALSE|TRUE|TRUE
5739598|St Marks Hotel|Newark, NJ| 100|40.72928| -73.98965|TRUE|FALSE|FALSE|TRUE
5739598|Courtyard by Marriott Newark Downtown|Newark, NJ| 156|40.73352| -74.17293|FALSE|TRUE|FALSE|TRUE
5739598|Rodeway Inn Meadowlands|Newark, NJ|  94|40.79292| -74.05712|TRUE|FALSE|FALSE|TRUE
5739598|The Bowery Hotel|Newark, NJ| 549|40.72604| -73.99168|FALSE|FALSE|TRUE|TRUE
5739598|Robert Treat Hotel, BW Premier Collection|Newark, NJ| 117|40.73920| -74.16831|FALSE|TRUE|FALSE|TRUE
5739598|The New York EDITION|Newark, NJ| 808|40.74129| -73.98736|FALSE|FALSE|TRUE|TRUE
5739598|The Mercer|Newark, NJ| 801|40.72494| -73.99852|FALSE|FALSE|TRUE|TRUE
5739598|Comfort Suites Newark - Harrison|Newark, NJ| 119|40.75496| -74.16660|FALSE|TRUE|FALSE|TRUE
5739598|DoubleTree by Hilton New York Times Square West|Newark, NJ|  94|40.75664| -73.99307|TRUE|FALSE|FALSE|TRUE
5739598|The Ritz-Carlton New York, NoMad|Newark, NJ| 916|40.74554| -73.98884|FALSE|FALSE|TRUE|TRUE
5739598|Hampton Inn Manhattan/Times Square South|Newark, NJ| 100|40.75619| -73.99290|TRUE|FALSE|FALSE|TRUE
5739598|Red Carpet Inn Newark Irvington, NJ|Newark, NJ|  83|40.72317| -74.23132|TRUE|FALSE|FALSE|TRUE
5739598|Element Harrison - Newark, a Marriott Hotel|Newark, NJ| 195|40.74045| -74.15638|FALSE|TRUE|FALSE|TRUE
5739598|DoubleTree by Hilton Newark Penn Station|Newark, NJ| 175|40.73542| -74.16537|FALSE|TRUE|FALSE|TRUE
5739598|Fairfield Inn & Suites Newark Liberty International Airport|Newark, NJ| 130|40.70958| -74.17089|FALSE|TRUE|FALSE|TRUE
5739598|Doxie Hotel|Newark, NJ|  95|40.75469| -73.99111|TRUE|FALSE|FALSE|TRUE
5739598|Hotel Barriere Fouquets New York|Newark, NJ| 896|40.72362| -74.00975|FALSE|FALSE|TRUE|TRUE
5739598|Four Seasons Hotel New York Downtown|Newark, NJ| 876|40.71263| -74.00919|FALSE|FALSE|TRUE|TRUE
5739598|Hudson River Hotel|Newark, NJ|  99|40.75537| -73.99735|TRUE|FALSE|FALSE|TRUE
5739598|The Knickerbocker Hotel|Newark, NJ| 485|40.73566| -74.17237|FALSE|TRUE|FALSE|TRUE
5739598|Pendry Manhattan West|Newark, NJ| 682|40.75339| -73.99859|FALSE|FALSE|TRUE|TRUE
5739598|TRYP by Wyndham Newark Downtown|Newark, NJ| 114|40.73831| -74.16799|FALSE|TRUE|FALSE|TRUE
5739598|Howard Johnson by Wyndham Clifton NJ|Newark, NJ|  96|40.83551| -74.14954|TRUE|FALSE|FALSE|TRUE
5739598|Canal Loft Hotel|Newark, NJ|  97|40.71530| -73.99388|TRUE|FALSE|FALSE|TRUE
5739598|DoubleTree by Hilton Hotel Newark Airport|Newark, NJ| 200|40.71284| -74.16429|FALSE|TRUE|FALSE|TRUE
5739598|Casa Cipriani New York|Newark, NJ| 864|40.70110| -74.01188|FALSE|FALSE|TRUE|TRUE
5739598|Comfort Inn Manhattan - Midtown West|Newark, NJ| 100|40.76415| -73.99496|TRUE|FALSE|FALSE|TRUE
5739598|Holiday Inn Newark International Airport, an IHG Hotel|Newark, NJ| 128|40.71291| -74.16644|FALSE|TRUE|FALSE|TRUE
5739598|Equinox Hotel New York|Newark, NJ| 722|40.75465| -74.00221|FALSE|FALSE|TRUE|TRUE
5739598|Americana Inn|Newark, NJ|  96|40.75229| -73.98555|TRUE|FALSE|FALSE|TRUE
5739598|The Langham, New York, Fifth Avenue|Newark, NJ| 723|40.75014| -73.98353|FALSE|FALSE|TRUE|TRUE
5739599|Fairfield Inn & Suites Newark Liberty International Airport|Newark, NJ| 130|40.70958| -74.17089|FALSE|TRUE|FALSE|TRUE
5739599|Hampton Inn Manhattan/Times Square South|Newark, NJ| 100|40.75619| -73.99290|TRUE|FALSE|FALSE|TRUE
5739599|St Marks Hotel|Newark, NJ| 100|40.72928| -73.98965|TRUE|FALSE|FALSE|TRUE
5739599|DoubleTree by Hilton Hotel Newark Airport|Newark, NJ| 200|40.71284| -74.16429|FALSE|TRUE|FALSE|TRUE
5739599|Hudson River Hotel|Newark, NJ|  99|40.75537| -73.99735|TRUE|FALSE|FALSE|TRUE
5739599|The Bowery Hotel|Newark, NJ| 549|40.72604| -73.99168|FALSE|FALSE|TRUE|TRUE
5739599|Element Harrison - Newark, a Marriott Hotel|Newark, NJ| 195|40.74045| -74.15638|FALSE|TRUE|FALSE|TRUE
5739599|Robert Treat Hotel, BW Premier Collection|Newark, NJ| 117|40.73920| -74.16831|FALSE|TRUE|FALSE|TRUE
5739599|The Knickerbocker Hotel|Newark, NJ| 485|40.73566| -74.17237|FALSE|TRUE|FALSE|TRUE
5739599|DoubleTree by Hilton New York Times Square West|Newark, NJ|  94|40.75664| -73.99307|TRUE|FALSE|FALSE|TRUE
5739599|Red Carpet Inn Newark Irvington, NJ|Newark, NJ|  83|40.72317| -74.23132|TRUE|FALSE|FALSE|TRUE
5739599|Pendry Manhattan West|Newark, NJ| 682|40.75339| -73.99859|FALSE|FALSE|TRUE|TRUE
5739599|Comfort Suites Newark - Harrison|Newark, NJ| 119|40.75496| -74.16660|FALSE|TRUE|FALSE|TRUE
5739599|Holiday Inn Newark International Airport, an IHG Hotel|Newark, NJ| 128|40.71291| -74.16644|FALSE|TRUE|FALSE|TRUE
5739599|Courtyard by Marriott Newark Downtown|Newark, NJ| 156|40.73352| -74.17293|FALSE|TRUE|FALSE|TRUE
5739599|DoubleTree by Hilton Newark Penn Station|Newark, NJ| 175|40.73542| -74.16537|FALSE|TRUE|FALSE|TRUE
5739599|Americana Inn|Newark, NJ|  96|40.75229| -73.98555|TRUE|FALSE|FALSE|TRUE
5739599|Comfort Inn Manhattan - Midtown West|Newark, NJ| 100|40.76415| -73.99496|TRUE|FALSE|FALSE|TRUE
5739599|Equinox Hotel New York|Newark, NJ| 722|40.75465| -74.00221|FALSE|FALSE|TRUE|TRUE
5739599|Hotel Barriere Fouquets New York|Newark, NJ| 896|40.72362| -74.00975|FALSE|FALSE|TRUE|TRUE
5739599|Howard Johnson by Wyndham Clifton NJ|Newark, NJ|  96|40.83551| -74.14954|TRUE|FALSE|FALSE|TRUE
5739599|TRYP by Wyndham Newark Downtown|Newark, NJ| 114|40.73831| -74.16799|FALSE|TRUE|FALSE|TRUE
5739599|The Ritz-Carlton New York, NoMad|Newark, NJ| 916|40.74554| -73.98884|FALSE|FALSE|TRUE|TRUE
5739599|The Langham, New York, Fifth Avenue|Newark, NJ| 723|40.75014| -73.98353|FALSE|FALSE|TRUE|TRUE
5739599|Casa Cipriani New York|Newark, NJ| 864|40.70110| -74.01188|FALSE|FALSE|TRUE|TRUE
5739599|Four Seasons Hotel New York Downtown|Newark, NJ| 876|40.71263| -74.00919|FALSE|FALSE|TRUE|TRUE
5739599|Doxie Hotel|Newark, NJ|  95|40.75469| -73.99111|TRUE|FALSE|FALSE|TRUE
5739599|Rodeway Inn Meadowlands|Newark, NJ|  94|40.79292| -74.05712|TRUE|FALSE|FALSE|TRUE
5739599|Canal Loft Hotel|Newark, NJ|  97|40.71530| -73.99388|TRUE|FALSE|FALSE|TRUE
5739599|The Mercer|Newark, NJ| 801|40.72494| -73.99852|FALSE|FALSE|TRUE|TRUE
5739599|The New York EDITION|Newark, NJ| 808|40.74129| -73.98736|FALSE|FALSE|TRUE|TRUE
5739602|Rodeway Inn Meadowlands|Newark, NJ|  94|40.79292| -74.05712|TRUE|FALSE|FALSE|TRUE
5739602|The Mercer|Newark, NJ| 801|40.72494| -73.99852|FALSE|FALSE|TRUE|TRUE
5739602|Comfort Suites Newark - Harrison|Newark, NJ| 119|40.75496| -74.16660|FALSE|TRUE|FALSE|TRUE
5739602|DoubleTree by Hilton Hotel Newark Airport|Newark, NJ| 200|40.71284| -74.16429|FALSE|TRUE|FALSE|TRUE
5739602|St Marks Hotel|Newark, NJ| 100|40.72928| -73.98965|TRUE|FALSE|FALSE|TRUE
5739602|Pendry Manhattan West|Newark, NJ| 682|40.75339| -73.99859|FALSE|FALSE|TRUE|TRUE
5739602|Holiday Inn Newark International Airport, an IHG Hotel|Newark, NJ| 128|40.71291| -74.16644|FALSE|TRUE|FALSE|TRUE
5739602|The Bowery Hotel|Newark, NJ| 549|40.72604| -73.99168|FALSE|FALSE|TRUE|TRUE
5739602|Fairfield Inn & Suites Newark Liberty International Airport|Newark, NJ| 130|40.70958| -74.17089|FALSE|TRUE|FALSE|TRUE
5739602|Robert Treat Hotel, BW Premier Collection|Newark, NJ| 117|40.73920| -74.16831|FALSE|TRUE|FALSE|TRUE
5739602|The Ritz-Carlton New York, NoMad|Newark, NJ| 916|40.74554| -73.98884|FALSE|FALSE|TRUE|TRUE
5739602|Equinox Hotel New York|Newark, NJ| 722|40.75465| -74.00221|FALSE|FALSE|TRUE|TRUE
5739602|Hudson River Hotel|Newark, NJ|  99|40.75537| -73.99735|TRUE|FALSE|FALSE|TRUE
5739602|Comfort Inn Manhattan - Midtown West|Newark, NJ| 100|40.76415| -73.99496|TRUE|FALSE|FALSE|TRUE
5739602|Red Carpet Inn Newark Irvington, NJ|Newark, NJ|  83|40.72317| -74.23132|TRUE|FALSE|FALSE|TRUE
5739602|DoubleTree by Hilton Newark Penn Station|Newark, NJ| 175|40.73542| -74.16537|FALSE|TRUE|FALSE|TRUE
5739602|Four Seasons Hotel New York Downtown|Newark, NJ| 876|40.71263| -74.00919|FALSE|FALSE|TRUE|TRUE
5739602|TRYP by Wyndham Newark Downtown|Newark, NJ| 114|40.73831| -74.16799|FALSE|TRUE|FALSE|TRUE
5739602|Doxie Hotel|Newark, NJ|  95|40.75469| -73.99111|TRUE|FALSE|FALSE|TRUE
5739602|The Knickerbocker Hotel|Newark, NJ| 485|40.73566| -74.17237|FALSE|TRUE|FALSE|TRUE
5739602|DoubleTree by Hilton New York Times Square West|Newark, NJ|  94|40.75664| -73.99307|TRUE|FALSE|FALSE|TRUE
5739602|Americana Inn|Newark, NJ|  96|40.75229| -73.98555|TRUE|FALSE|FALSE|TRUE
5739602|Hampton Inn Manhattan/Times Square South|Newark, NJ| 100|40.75619| -73.99290|TRUE|FALSE|FALSE|TRUE
5739602|The New York EDITION|Newark, NJ| 808|40.74129| -73.98736|FALSE|FALSE|TRUE|TRUE
5739602|Element Harrison - Newark, a Marriott Hotel|Newark, NJ| 195|40.74045| -74.15638|FALSE|TRUE|FALSE|TRUE
5739602|Howard Johnson by Wyndham Clifton NJ|Newark, NJ|  96|40.83551| -74.14954|TRUE|FALSE|FALSE|TRUE
5739602|The Langham, New York, Fifth Avenue|Newark, NJ| 723|40.75014| -73.98353|FALSE|FALSE|TRUE|TRUE
5739602|Courtyard by Marriott Newark Downtown|Newark, NJ| 156|40.73352| -74.17293|FALSE|TRUE|FALSE|TRUE
5739602|Hotel Barriere Fouquets New York|Newark, NJ| 896|40.72362| -74.00975|FALSE|FALSE|TRUE|TRUE
5739602|Casa Cipriani New York|Newark, NJ| 864|40.70110| -74.01188|FALSE|FALSE|TRUE|TRUE
5739602|Canal Loft Hotel|Newark, NJ|  97|40.71530| -73.99388|TRUE|FALSE|FALSE|TRUE
5739778|XV Beacon|Boston, MA| 576|42.35832| -71.06193|FALSE|TRUE|TRUE|TRUE
5739778|Residence Inn by Marriott Boston Downtown/Seaport|Boston, MA| 437|42.35018| -71.04786|FALSE|FALSE|TRUE|TRUE
5739778|citizenM Boston North Station|Boston, MA| 162|42.36556| -71.06185|FALSE|TRUE|FALSE|TRUE
5739778|Four Points by Sheraton Boston Logan Airport Revere|Boston, MA| 106|42.42940| -71.01504|TRUE|FALSE|FALSE|TRUE
5739778|Comfort Inn Woburn - Boston|Boston, MA|  89|42.47895| -71.11530|TRUE|FALSE|FALSE|TRUE
5739778|The Newbury Boston|Boston, MA| 618|42.35293| -71.07149|FALSE|FALSE|TRUE|TRUE
5739778|Boston Omni Parker House Hotel|Boston, MA| 204|42.35776| -71.06011|FALSE|TRUE|FALSE|TRUE
5739778|DoubleTree by Hilton Hotel Boston Bayside|Boston, MA|  96|42.32028| -71.04789|TRUE|FALSE|FALSE|TRUE
5739778|Boston Harbor Hotel|Boston, MA| 641|42.35666| -71.05032|FALSE|FALSE|TRUE|TRUE
5739778|Best Western Plus New Englander|Boston, MA| 110|42.48082| -71.11883|TRUE|FALSE|FALSE|TRUE
5739778|Courtyard by Marriott Boston Downtown/North Station|Boston, MA| 187|42.36587| -71.05964|FALSE|TRUE|FALSE|TRUE
5739778|Canopy By Hilton Boston Downtown|Boston, MA| 177|42.36176| -71.05611|FALSE|TRUE|FALSE|TRUE
5739778|Four Seasons Hotel One Dalton Street, Boston|Boston, MA| 769|42.34571| -71.08394|FALSE|FALSE|TRUE|TRUE
5739778|The Ritz-Carlton, Boston|Boston, MA| 751|42.35317| -71.06369|FALSE|FALSE|TRUE|TRUE
5739778|Red Roof Inn PLUS+ Boston - Logan|Boston, MA| 101|42.36561| -71.00956|TRUE|FALSE|FALSE|TRUE
5739778|The Liberty, a Marriott Luxury Collection Hotel, Boston|Boston, MA| 275|42.36207| -71.07009|FALSE|TRUE|FALSE|TRUE
5739778|Howard Johnson by Wyndham Quincy/Boston|Boston, MA|  94|42.26248| -71.01213|TRUE|FALSE|FALSE|TRUE
5739778|The Whitney Hotel|Boston, MA| 395|42.36064| -71.07107|FALSE|TRUE|FALSE|TRUE
5739778|The Charles Hotel|Boston, MA| 416|42.37229| -71.12298|FALSE|FALSE|TRUE|TRUE
5739778|Harborside Inn Of Boston|Boston, MA| 185|42.35927| -71.05283|FALSE|TRUE|FALSE|TRUE
5739778|Encore Boston Harbor|Boston, MA| 412|42.39553| -71.06933|FALSE|FALSE|TRUE|TRUE
5739778|The Langham, Boston|Boston, MA| 519|42.35648| -71.05450|FALSE|FALSE|TRUE|TRUE
5739778|Four Points by Sheraton Boston Newton|Boston, MA| 105|42.35677| -71.18701|TRUE|FALSE|FALSE|TRUE
5739778|Extended Stay America Suites - Boston - Saugus|Boston, MA| 111|42.46514| -71.01105|TRUE|FALSE|FALSE|TRUE
5739778|Mandarin Oriental Boston|Boston, MA| 751|42.34869| -71.08160|FALSE|FALSE|TRUE|TRUE
5739778|avid hotel Boston Logan Airport - Revere, an IHG Hotel|Boston, MA| 111|42.42011| -71.00184|TRUE|FALSE|FALSE|TRUE
5739778|The Farrington Inn|Boston, MA|  80|42.35426| -71.13089|TRUE|FALSE|FALSE|TRUE
5739778|Best Western Adams Inn Quincy-Boston|Boston, MA| 110|42.28224| -71.03855|TRUE|FALSE|FALSE|TRUE
5739778|The Bostonian Boston|Boston, MA| 188|42.36106| -71.05591|FALSE|TRUE|FALSE|TRUE
5739778|The Boxer|Boston, MA| 172|42.36388| -71.06252|FALSE|TRUE|FALSE|TRUE
5739782|The Bostonian Boston|Boston, MA| 188|42.36106| -71.05591|FALSE|TRUE|FALSE|TRUE
5739782|Harborside Inn Of Boston|Boston, MA| 185|42.35927| -71.05283|FALSE|TRUE|FALSE|TRUE
5739782|The Whitney Hotel|Boston, MA| 395|42.36064| -71.07107|FALSE|TRUE|TRUE|TRUE
5739782|Boston Harbor Hotel|Boston, MA| 641|42.35666| -71.05032|FALSE|FALSE|TRUE|TRUE
5739782|The Boxer|Boston, MA| 172|42.36388| -71.06252|FALSE|TRUE|FALSE|TRUE
5739782|Canopy By Hilton Boston Downtown|Boston, MA| 177|42.36176| -71.05611|FALSE|TRUE|FALSE|TRUE
5739782|Boston Omni Parker House Hotel|Boston, MA| 204|42.35776| -71.06011|FALSE|TRUE|FALSE|TRUE
5739782|Four Points by Sheraton Boston Newton|Boston, MA| 105|42.35677| -71.18701|TRUE|FALSE|FALSE|TRUE
5739782|Encore Boston Harbor|Boston, MA| 412|42.39553| -71.06933|FALSE|FALSE|TRUE|TRUE
5739782|Extended Stay America Suites - Boston - Saugus|Boston, MA| 111|42.46514| -71.01105|TRUE|FALSE|FALSE|TRUE
5739782|Courtyard by Marriott Boston Downtown/North Station|Boston, MA| 187|42.36587| -71.05964|FALSE|TRUE|FALSE|TRUE
5739782|The Ritz-Carlton, Boston|Boston, MA| 751|42.35317| -71.06369|FALSE|FALSE|TRUE|TRUE
5739782|Red Roof Inn PLUS+ Boston - Logan|Boston, MA| 101|42.36561| -71.00956|TRUE|FALSE|FALSE|TRUE
5739782|Best Western Adams Inn Quincy-Boston|Boston, MA| 110|42.28224| -71.03855|TRUE|FALSE|FALSE|TRUE
5739782|The Farrington Inn|Boston, MA|  80|42.35426| -71.13089|TRUE|FALSE|FALSE|TRUE
5739782|Howard Johnson by Wyndham Quincy/Boston|Boston, MA|  94|42.26248| -71.01213|TRUE|FALSE|FALSE|TRUE
5739782|Comfort Inn Woburn - Boston|Boston, MA|  89|42.47895| -71.11530|TRUE|FALSE|FALSE|TRUE
5739782|Four Seasons Hotel One Dalton Street, Boston|Boston, MA| 769|42.34571| -71.08394|FALSE|FALSE|TRUE|TRUE
5739782|The Charles Hotel|Boston, MA| 416|42.37229| -71.12298|FALSE|FALSE|TRUE|TRUE
5739782|citizenM Boston North Station|Boston, MA| 162|42.36556| -71.06185|FALSE|TRUE|FALSE|TRUE
5739782|The Newbury Boston|Boston, MA| 618|42.35293| -71.07149|FALSE|FALSE|TRUE|TRUE
5739782|XV Beacon|Boston, MA| 576|42.35832| -71.06193|FALSE|TRUE|TRUE|TRUE
5739782|The Langham, Boston|Boston, MA| 519|42.35648| -71.05450|FALSE|FALSE|TRUE|TRUE
5739782|The Liberty, a Marriott Luxury Collection Hotel, Boston|Boston, MA| 275|42.36207| -71.07009|FALSE|TRUE|FALSE|TRUE
5739782|avid hotel Boston Logan Airport - Revere, an IHG Hotel|Boston, MA| 111|42.42011| -71.00184|TRUE|FALSE|FALSE|TRUE
5739782|DoubleTree by Hilton Hotel Boston Bayside|Boston, MA|  96|42.32028| -71.04789|TRUE|FALSE|FALSE|TRUE
5739782|Four Points by Sheraton Boston Logan Airport Revere|Boston, MA| 106|42.42940| -71.01504|TRUE|FALSE|FALSE|TRUE
5739782|Best Western Plus New Englander|Boston, MA| 110|42.48082| -71.11883|TRUE|FALSE|FALSE|TRUE
5739782|Mandarin Oriental Boston|Boston, MA| 751|42.34869| -71.08160|FALSE|FALSE|TRUE|TRUE
5739789|Boston Omni Parker House Hotel|Boston, MA| 204|42.35776| -71.06011|FALSE|TRUE|FALSE|TRUE
5739789|Four Seasons Hotel One Dalton Street, Boston|Boston, MA| 769|42.34571| -71.08394|FALSE|FALSE|TRUE|TRUE
5739789|Courtyard by Marriott Boston Downtown/North Station|Boston, MA| 187|42.36587| -71.05964|FALSE|TRUE|FALSE|TRUE
5739789|avid hotel Boston Logan Airport - Revere, an IHG Hotel|Boston, MA| 111|42.42011| -71.00184|TRUE|FALSE|FALSE|TRUE
5739789|citizenM Boston North Station|Boston, MA| 162|42.36556| -71.06185|FALSE|TRUE|FALSE|TRUE
5739789|The Farrington Inn|Boston, MA|  80|42.35426| -71.13089|TRUE|FALSE|FALSE|TRUE
5739789|Red Roof Inn PLUS+ Boston - Logan|Boston, MA| 101|42.36561| -71.00956|TRUE|FALSE|FALSE|TRUE
5739789|The Liberty, a Marriott Luxury Collection Hotel, Boston|Boston, MA| 275|42.36207| -71.07009|FALSE|TRUE|FALSE|TRUE
5739789|Best Western Plus New Englander|Boston, MA| 110|42.48082| -71.11883|TRUE|FALSE|FALSE|TRUE
5739789|Comfort Inn Woburn - Boston|Boston, MA|  89|42.47895| -71.11530|TRUE|FALSE|FALSE|TRUE
5739789|Harborside Inn Of Boston|Boston, MA| 185|42.35927| -71.05283|FALSE|TRUE|FALSE|TRUE
5739789|Best Western Adams Inn Quincy-Boston|Boston, MA| 110|42.28224| -71.03855|TRUE|FALSE|FALSE|TRUE
5739789|XV Beacon|Boston, MA| 576|42.35832| -71.06193|FALSE|TRUE|TRUE|TRUE
5739789|Howard Johnson by Wyndham Quincy/Boston|Boston, MA|  94|42.26248| -71.01213|TRUE|FALSE|FALSE|TRUE
5739789|Canopy By Hilton Boston Downtown|Boston, MA| 177|42.36176| -71.05611|FALSE|TRUE|FALSE|TRUE
5739789|Extended Stay America Suites - Boston - Saugus|Boston, MA| 111|42.46514| -71.01105|TRUE|FALSE|FALSE|TRUE
5739789|The Ritz-Carlton, Boston|Boston, MA| 751|42.35317| -71.06369|FALSE|FALSE|TRUE|TRUE
5739789|The Charles Hotel|Boston, MA| 416|42.37229| -71.12298|FALSE|FALSE|TRUE|TRUE
5739789|Residence Inn by Marriott Boston Downtown/Seaport|Boston, MA| 437|42.35018| -71.04786|FALSE|FALSE|TRUE|TRUE
5739789|The Langham, Boston|Boston, MA| 519|42.35648| -71.05450|FALSE|FALSE|TRUE|TRUE
5739789|The Boxer|Boston, MA| 172|42.36388| -71.06252|FALSE|TRUE|FALSE|TRUE
5739789|The Bostonian Boston|Boston, MA| 188|42.36106| -71.05591|FALSE|TRUE|FALSE|TRUE
5739789|Boston Harbor Hotel|Boston, MA| 641|42.35666| -71.05032|FALSE|FALSE|TRUE|TRUE
5739789|Four Points by Sheraton Boston Logan Airport Revere|Boston, MA| 106|42.42940| -71.01504|TRUE|FALSE|FALSE|TRUE
5739789|The Newbury Boston|Boston, MA| 618|42.35293| -71.07149|FALSE|FALSE|TRUE|TRUE
5739789|Encore Boston Harbor|Boston, MA| 412|42.39553| -71.06933|FALSE|FALSE|TRUE|TRUE
5739789|Mandarin Oriental Boston|Boston, MA| 751|42.34869| -71.08160|FALSE|FALSE|TRUE|TRUE
5739789|DoubleTree by Hilton Hotel Boston Bayside|Boston, MA|  96|42.32028| -71.04789|TRUE|FALSE|FALSE|TRUE
5739789|Four Points by Sheraton Boston Newton|Boston, MA| 105|42.35677| -71.18701|TRUE|FALSE|FALSE|TRUE
5739789|The Whitney Hotel|Boston, MA| 395|42.36064| -71.07107|FALSE|TRUE|FALSE|TRUE
5739799|The Bostonian Boston|Boston, MA| 188|42.36106| -71.05591|FALSE|TRUE|FALSE|TRUE
5739799|Extended Stay America Suites - Boston - Saugus|Boston, MA| 111|42.46514| -71.01105|TRUE|FALSE|FALSE|TRUE
5739799|Canopy By Hilton Boston Downtown|Boston, MA| 177|42.36176| -71.05611|FALSE|TRUE|FALSE|TRUE
5739799|Boston Harbor Hotel|Boston, MA| 641|42.35666| -71.05032|FALSE|FALSE|TRUE|TRUE
5739799|DoubleTree by Hilton Hotel Boston Bayside|Boston, MA|  96|42.32028| -71.04789|TRUE|FALSE|FALSE|TRUE
5739799|Courtyard by Marriott Boston Downtown/North Station|Boston, MA| 187|42.36587| -71.05964|FALSE|TRUE|FALSE|TRUE
5739799|The Liberty, a Marriott Luxury Collection Hotel, Boston|Boston, MA| 275|42.36207| -71.07009|FALSE|TRUE|FALSE|TRUE
5739799|Howard Johnson by Wyndham Quincy/Boston|Boston, MA|  94|42.26248| -71.01213|TRUE|FALSE|FALSE|TRUE
5739799|The Langham, Boston|Boston, MA| 519|42.35648| -71.05450|FALSE|FALSE|TRUE|TRUE
5739799|Four Seasons Hotel One Dalton Street, Boston|Boston, MA| 769|42.34571| -71.08394|FALSE|FALSE|TRUE|TRUE
5739799|Encore Boston Harbor|Boston, MA| 412|42.39553| -71.06933|FALSE|FALSE|TRUE|TRUE
5739799|Red Roof Inn PLUS+ Boston - Logan|Boston, MA| 101|42.36561| -71.00956|TRUE|FALSE|FALSE|TRUE
5739799|Comfort Inn Woburn - Boston|Boston, MA|  89|42.47895| -71.11530|TRUE|FALSE|FALSE|TRUE
5739799|The Boxer|Boston, MA| 172|42.36388| -71.06252|FALSE|TRUE|FALSE|TRUE
5739799|Harborside Inn Of Boston|Boston, MA| 185|42.35927| -71.05283|FALSE|TRUE|FALSE|TRUE
5739799|Four Points by Sheraton Boston Logan Airport Revere|Boston, MA| 106|42.42940| -71.01504|TRUE|FALSE|FALSE|TRUE
5739799|Four Points by Sheraton Boston Newton|Boston, MA| 105|42.35677| -71.18701|TRUE|FALSE|FALSE|TRUE
5739799|The Newbury Boston|Boston, MA| 618|42.35293| -71.07149|FALSE|FALSE|TRUE|TRUE
5739799|XV Beacon|Boston, MA| 576|42.35832| -71.06193|FALSE|TRUE|TRUE|TRUE
5739799|The Whitney Hotel|Boston, MA| 395|42.36064| -71.07107|FALSE|TRUE|TRUE|TRUE
5739799|Mandarin Oriental Boston|Boston, MA| 751|42.34869| -71.08160|FALSE|FALSE|TRUE|TRUE
5739799|The Farrington Inn|Boston, MA|  80|42.35426| -71.13089|TRUE|FALSE|FALSE|TRUE
5739799|Best Western Adams Inn Quincy-Boston|Boston, MA| 110|42.28224| -71.03855|TRUE|FALSE|FALSE|TRUE
5739799|Boston Omni Parker House Hotel|Boston, MA| 204|42.35776| -71.06011|FALSE|TRUE|FALSE|TRUE
5739799|citizenM Boston North Station|Boston, MA| 162|42.36556| -71.06185|FALSE|TRUE|FALSE|TRUE
5739799|Best Western Plus New Englander|Boston, MA| 110|42.48082| -71.11883|TRUE|FALSE|FALSE|TRUE
5739799|avid hotel Boston Logan Airport - Revere, an IHG Hotel|Boston, MA| 111|42.42011| -71.00184|TRUE|FALSE|FALSE|TRUE
5739799|The Ritz-Carlton, Boston|Boston, MA| 751|42.35317| -71.06369|FALSE|FALSE|TRUE|TRUE
5739799|The Charles Hotel|Boston, MA| 416|42.37229| -71.12298|FALSE|FALSE|TRUE|TRUE
5739809|The Langham, Boston|Boston, MA| 519|42.35648| -71.05450|FALSE|FALSE|TRUE|TRUE
5739809|Best Western Adams Inn Quincy-Boston|Boston, MA| 110|42.28224| -71.03855|TRUE|FALSE|FALSE|TRUE
5739809|The Charles Hotel|Boston, MA| 416|42.37229| -71.12298|FALSE|FALSE|TRUE|TRUE
5739809|Boston Harbor Hotel|Boston, MA| 641|42.35666| -71.05032|FALSE|FALSE|TRUE|TRUE
5739809|Residence Inn by Marriott Boston Downtown/Seaport|Boston, MA| 437|42.35018| -71.04786|FALSE|FALSE|TRUE|TRUE
5739809|The Boxer|Boston, MA| 172|42.36388| -71.06252|FALSE|TRUE|FALSE|TRUE
5739809|The Bostonian Boston|Boston, MA| 188|42.36106| -71.05591|FALSE|TRUE|FALSE|TRUE
5739809|The Liberty, a Marriott Luxury Collection Hotel, Boston|Boston, MA| 275|42.36207| -71.07009|FALSE|TRUE|FALSE|TRUE
5739809|Mandarin Oriental Boston|Boston, MA| 751|42.34869| -71.08160|FALSE|FALSE|TRUE|TRUE
5739809|Howard Johnson by Wyndham Quincy/Boston|Boston, MA|  94|42.26248| -71.01213|TRUE|FALSE|FALSE|TRUE
5739809|Harborside Inn Of Boston|Boston, MA| 185|42.35927| -71.05283|FALSE|TRUE|FALSE|TRUE
5739809|Four Points by Sheraton Boston Logan Airport Revere|Boston, MA| 106|42.42940| -71.01504|TRUE|FALSE|FALSE|TRUE
5739809|Extended Stay America Suites - Boston - Saugus|Boston, MA| 111|42.46514| -71.01105|TRUE|FALSE|FALSE|TRUE
5739809|The Newbury Boston|Boston, MA| 618|42.35293| -71.07149|FALSE|FALSE|TRUE|TRUE
5739809|Comfort Inn Woburn - Boston|Boston, MA|  89|42.47895| -71.11530|TRUE|FALSE|FALSE|TRUE
5739809|citizenM Boston North Station|Boston, MA| 162|42.36556| -71.06185|FALSE|TRUE|FALSE|TRUE
5739809|Courtyard by Marriott Boston Downtown/North Station|Boston, MA| 187|42.36587| -71.05964|FALSE|TRUE|FALSE|TRUE
5739809|Canopy By Hilton Boston Downtown|Boston, MA| 177|42.36176| -71.05611|FALSE|TRUE|FALSE|TRUE
5739809|The Farrington Inn|Boston, MA|  80|42.35426| -71.13089|TRUE|FALSE|FALSE|TRUE
5739809|Four Seasons Hotel One Dalton Street, Boston|Boston, MA| 769|42.34571| -71.08394|FALSE|FALSE|TRUE|TRUE
5739809|The Whitney Hotel|Boston, MA| 395|42.36064| -71.07107|FALSE|TRUE|FALSE|TRUE
5739809|Encore Boston Harbor|Boston, MA| 412|42.39553| -71.06933|FALSE|FALSE|TRUE|TRUE
5739809|Boston Omni Parker House Hotel|Boston, MA| 204|42.35776| -71.06011|FALSE|TRUE|FALSE|TRUE
5739809|Red Roof Inn PLUS+ Boston - Logan|Boston, MA| 101|42.36561| -71.00956|TRUE|FALSE|FALSE|TRUE
5739809|DoubleTree by Hilton Hotel Boston Bayside|Boston, MA|  96|42.32028| -71.04789|TRUE|FALSE|FALSE|TRUE
5739809|Best Western Plus New Englander|Boston, MA| 110|42.48082| -71.11883|TRUE|FALSE|FALSE|TRUE
5739809|avid hotel Boston Logan Airport - Revere, an IHG Hotel|Boston, MA| 111|42.42011| -71.00184|TRUE|FALSE|FALSE|TRUE
5739809|The Ritz-Carlton, Boston|Boston, MA| 751|42.35317| -71.06369|FALSE|FALSE|TRUE|TRUE
5739809|XV Beacon|Boston, MA| 576|42.35832| -71.06193|FALSE|TRUE|TRUE|TRUE
5739809|Four Points by Sheraton Boston Newton|Boston, MA| 105|42.35677| -71.18701|TRUE|FALSE|FALSE|TRUE
5739851|DoubleTree by Hilton New York City - Chelsea|New York, NY| 120|40.74699| -73.99138|FALSE|TRUE|FALSE|TRUE
5739851|Doubletree by Hilton New York Times Square South|New York, NY| 125|40.75380| -73.99272|FALSE|TRUE|FALSE|TRUE
5739851|Voyage Hotel|New York, NY|  88|40.75973| -73.94108|TRUE|FALSE|FALSE|TRUE
5739851|Quality Inn near Sunset Park|New York, NY|  90|40.65099| -74.01178|TRUE|FALSE|FALSE|TRUE
5739851|The Langham, New York, Fifth Avenue|New York, NY| 723|40.75014| -73.98353|FALSE|FALSE|TRUE|TRUE
5739851|Hotel 21 Nyc|New York, NY|  87|40.75367| -73.94228|TRUE|FALSE|FALSE|TRUE
5739851|Best Western Plus Plaza Hotel|New York, NY|  90|40.75583| -73.94106|TRUE|FALSE|FALSE|TRUE
5739851|Flushing Hotel|New York, NY|  64|40.76208| -73.83163|TRUE|FALSE|FALSE|TRUE
5739851|Super 8 by Wyndham Long Island City LGA Hotel|New York, NY|  91|40.76657| -73.93365|TRUE|FALSE|FALSE|TRUE
5739851|Midtown West Hotel|New York, NY| 105|40.74992| -73.99559|FALSE|TRUE|FALSE|TRUE
5739851|The Central Park North|New York, NY|  94|40.79975| -73.95360|TRUE|FALSE|FALSE|TRUE
5739851|The Towers at Lotte New York Palace|New York, NY| 922|40.75797| -73.97487|FALSE|FALSE|TRUE|TRUE
5739851|Equinox Hotel New York|New York, NY| 722|40.75465| -74.00221|FALSE|FALSE|TRUE|TRUE
5739851|Hilton Garden Inn New York Times Square South|New York, NY| 129|40.75448| -73.99360|FALSE|TRUE|FALSE|TRUE
5739851|Hilton Garden Inn New York/West 35th Street|New York, NY| 129|40.75037| -73.98651|FALSE|TRUE|FALSE|TRUE
5739851|1 Hotel Central Park|New York, NY| 496|40.76471| -73.97651|FALSE|FALSE|TRUE|TRUE
5739851|Truss Hotel Times Square |New York, NY| 104|40.75650| -73.99449|FALSE|TRUE|FALSE|TRUE
5739851|The Carlyle, A Rosewood Hotel|New York, NY|1042|40.77445| -73.96307|FALSE|FALSE|TRUE|TRUE
5739851|The Peninsula New York|New York, NY| 973|40.76166| -73.97534|FALSE|FALSE|TRUE|TRUE
5739851|Hyatt Place New York City/Times Square|New York, NY| 129|40.75616| -73.99341|FALSE|TRUE|FALSE|TRUE
5739851|The Mark|New York, NY|1145|40.77533| -73.96326|FALSE|FALSE|TRUE|TRUE
5739851|Queens Hotel|New York, NY|  95|40.74128| -73.89991|TRUE|FALSE|FALSE|TRUE
5739851|voco Times Square South, an IHG Hotel|New York, NY| 131|40.75445| -73.99410|FALSE|TRUE|FALSE|TRUE
5739851|The Dominick|New York, NY| 543|40.72532| -74.00550|FALSE|FALSE|TRUE|TRUE
5739851|DoubleTree by Hilton New York Times Square West|New York, NY|  94|40.75664| -73.99307|TRUE|TRUE|FALSE|TRUE
5739851|Hotel Barriere Fouquets New York|New York, NY| 896|40.72362| -74.00975|FALSE|FALSE|TRUE|TRUE
5739851|Mandarin Oriental, New York|New York, NY|1013|40.76901| -73.98291|FALSE|FALSE|TRUE|TRUE
5739851|TRYP by Wyndham New York City Times Square / Midtown|New York, NY| 136|40.75378| -73.99462|FALSE|TRUE|FALSE|TRUE
5739851|Americana Inn|New York, NY|  96|40.75229| -73.98555|TRUE|FALSE|FALSE|TRUE
5739858|Quality Inn near Sunset Park|New York, NY|  90|40.65099| -74.01178|TRUE|FALSE|FALSE|TRUE
5739858|Hilton Garden Inn New York Times Square South|New York, NY| 129|40.75448| -73.99360|FALSE|TRUE|FALSE|TRUE
5739858|Voyage Hotel|New York, NY|  88|40.75973| -73.94108|TRUE|FALSE|FALSE|TRUE
5739858|Truss Hotel Times Square |New York, NY| 104|40.75650| -73.99449|FALSE|TRUE|FALSE|TRUE
5739858|Hilton Garden Inn New York/West 35th Street|New York, NY| 129|40.75037| -73.98651|FALSE|TRUE|FALSE|TRUE
5739858|Hotel 21 Nyc|New York, NY|  87|40.75367| -73.94228|TRUE|FALSE|FALSE|TRUE
5739858|Mandarin Oriental, New York|New York, NY|1013|40.76901| -73.98291|FALSE|FALSE|TRUE|TRUE
5739858|Americana Inn|New York, NY|  96|40.75229| -73.98555|TRUE|FALSE|FALSE|TRUE
5739858|Super 8 by Wyndham Long Island City LGA Hotel|New York, NY|  91|40.76657| -73.93365|TRUE|FALSE|FALSE|TRUE
5739858|Doubletree by Hilton New York Times Square South|New York, NY| 125|40.75380| -73.99272|FALSE|TRUE|FALSE|TRUE
5739858|DoubleTree by Hilton New York City - Chelsea|New York, NY| 120|40.74699| -73.99138|FALSE|TRUE|FALSE|TRUE
5739858|The Mark|New York, NY|1145|40.77533| -73.96326|FALSE|FALSE|TRUE|TRUE
5739858|Equinox Hotel New York|New York, NY| 722|40.75465| -74.00221|FALSE|FALSE|TRUE|TRUE
5739858|TRYP by Wyndham New York City Times Square / Midtown|New York, NY| 136|40.75378| -73.99462|FALSE|TRUE|FALSE|TRUE
5739858|The Langham, New York, Fifth Avenue|New York, NY| 723|40.75014| -73.98353|FALSE|FALSE|TRUE|TRUE
5739858|Queens Hotel|New York, NY|  95|40.74128| -73.89991|TRUE|FALSE|FALSE|TRUE
5739858|The Carlyle, A Rosewood Hotel|New York, NY|1042|40.77445| -73.96307|FALSE|FALSE|TRUE|TRUE
5739858|voco Times Square South, an IHG Hotel|New York, NY| 131|40.75445| -73.99410|FALSE|TRUE|FALSE|TRUE
5739858|The Dominick|New York, NY| 543|40.72532| -74.00550|FALSE|FALSE|TRUE|TRUE
5739858|Flushing Hotel|New York, NY|  64|40.76208| -73.83163|TRUE|FALSE|FALSE|TRUE
5739858|Hotel Barriere Fouquets New York|New York, NY| 896|40.72362| -74.00975|FALSE|FALSE|TRUE|TRUE
5739858|DoubleTree by Hilton New York Times Square West|New York, NY|  94|40.75664| -73.99307|TRUE|TRUE|FALSE|TRUE
5739858|1 Hotel Central Park|New York, NY| 496|40.76471| -73.97651|FALSE|FALSE|TRUE|TRUE
5739858|Hyatt Place New York City/Times Square|New York, NY| 129|40.75616| -73.99341|FALSE|TRUE|FALSE|TRUE
5739858|Best Western Plus Plaza Hotel|New York, NY|  90|40.75583| -73.94106|TRUE|FALSE|FALSE|TRUE
5739858|The Towers at Lotte New York Palace|New York, NY| 922|40.75797| -73.97487|FALSE|FALSE|TRUE|TRUE
5739858|The Central Park North|New York, NY|  94|40.79975| -73.95360|TRUE|FALSE|FALSE|TRUE
5739858|Midtown West Hotel|New York, NY| 105|40.74992| -73.99559|FALSE|TRUE|FALSE|TRUE
5739858|The Peninsula New York|New York, NY| 973|40.76166| -73.97534|FALSE|FALSE|TRUE|TRUE
5739859|The Ritz-Carlton, Denver|Denver, CO| 579|39.75014|-104.99188|FALSE|TRUE|TRUE|TRUE
5739859|Sheraton Denver Downtown Hotel|Denver, CO| 166|39.74242|-104.98958|FALSE|FALSE|TRUE|TRUE
5739859|HomeTowne Studios by Red Roof Denver - Lakewood West|Denver, CO|  83|39.72818|-105.11027|TRUE|FALSE|FALSE|TRUE
5739859|Super 8 by Wyndham Henderson North East Denver|Denver, CO|  69|39.86165|-104.91073|TRUE|FALSE|FALSE|TRUE
5739859|The Curtis Denver - a DoubleTree by Hilton Hotel|Denver, CO| 149|39.74573|-104.99707|FALSE|TRUE|FALSE|TRUE
5739859|Days Inn by Wyndham Denver Downtown|Denver, CO|  78|39.73973|-104.97571|TRUE|FALSE|FALSE|TRUE
5739859|Americas Best Value Inn Denver|Denver, CO|  84|39.77242|-104.84902|TRUE|FALSE|FALSE|TRUE
5739859|HomeTowne Studios by Red Roof Denver - Thornton|Denver, CO|  84|39.91235|-104.98863|TRUE|FALSE|FALSE|TRUE
5739859|HomeTowne Studios by Red Roof Denver - Glendale/Cherry Creek|Denver, CO|  74|39.70810|-104.93090|TRUE|FALSE|FALSE|TRUE
5739859|Hyatt Regency Denver at Colorado Convention Center|Denver, CO| 153|39.74340|-104.99365|FALSE|TRUE|FALSE|TRUE
5739859|Hilton Denver City Center|Denver, CO| 173|39.74720|-104.99052|FALSE|FALSE|TRUE|TRUE
5739859|Hilton Garden Inn Denver Union Station, CO|Denver, CO| 156|39.75754|-104.99931|FALSE|TRUE|TRUE|TRUE
5739859|Hotel Indigo Denver Downtown, an IHG Hotel|Denver, CO| 180|39.75556|-105.00010|FALSE|TRUE|TRUE|TRUE
5739859|Extended Stay America Suites Denver Lakewood South|Denver, CO|  84|39.65060|-105.07935|TRUE|FALSE|FALSE|TRUE
5739859|Life House, Lower Highlands|Denver, CO| 649|39.76758|-105.00375|FALSE|FALSE|TRUE|TRUE
5739859|La Quinta Inn by Wyndham Denver Golden|Denver, CO|  81|39.76414|-105.14435|TRUE|FALSE|FALSE|TRUE
5739859|Super 8 by Wyndham Denver Central|Denver, CO|  78|39.80329|-104.98653|TRUE|FALSE|FALSE|TRUE
5739859|Quality Inn Denver Westminster|Denver, CO|  79|39.85124|-105.04978|TRUE|FALSE|FALSE|TRUE
5739859|SpringHill Suites by Marriott Denver Downtown|Denver, CO| 150|39.74729|-105.00414|FALSE|TRUE|FALSE|TRUE
5739859|Grand Hyatt Denver|Denver, CO| 175|39.74582|-104.98920|FALSE|FALSE|TRUE|TRUE
5739859|Magnolia Hotel Denver, A Tribute Portfolio Hotel|Denver, CO| 129|39.74670|-104.99220|FALSE|TRUE|FALSE|TRUE
5739859|Embassy Suites Denver-Downtown/Convention Center|Denver, CO| 156|39.74410|-104.99482|FALSE|TRUE|TRUE|TRUE
5739859|Kimpton Hotel Born, an IHG Hotel|Denver, CO| 348|39.75327|-105.00203|FALSE|TRUE|TRUE|TRUE
5739859|Four Seasons Hotel Denver|Denver, CO| 804|39.74648|-104.99819|FALSE|TRUE|TRUE|TRUE
5739864|Voyage Hotel|New York, NY|  88|40.75973| -73.94108|TRUE|FALSE|FALSE|TRUE
5739864|DoubleTree by Hilton New York City - Chelsea|New York, NY| 120|40.74699| -73.99138|FALSE|TRUE|FALSE|TRUE
5739864|Hotel Barriere Fouquets New York|New York, NY| 896|40.72362| -74.00975|FALSE|FALSE|TRUE|TRUE
5739864|Hotel 21 Nyc|New York, NY|  87|40.75367| -73.94228|TRUE|FALSE|FALSE|TRUE
5739864|The Towers at Lotte New York Palace|New York, NY| 922|40.75797| -73.97487|FALSE|FALSE|TRUE|TRUE
5739864|The Langham, New York, Fifth Avenue|New York, NY| 723|40.75014| -73.98353|FALSE|FALSE|TRUE|TRUE
5739864|Hilton Garden Inn New York Times Square South|New York, NY| 129|40.75448| -73.99360|FALSE|TRUE|FALSE|TRUE
5739864|The Peninsula New York|New York, NY| 973|40.76166| -73.97534|FALSE|FALSE|TRUE|TRUE
5739864|The Central Park North|New York, NY|  94|40.79975| -73.95360|TRUE|FALSE|FALSE|TRUE
5739864|The Carlyle, A Rosewood Hotel|New York, NY|1042|40.77445| -73.96307|FALSE|FALSE|TRUE|TRUE
5739864|Midtown West Hotel|New York, NY| 105|40.74992| -73.99559|FALSE|TRUE|FALSE|TRUE
5739864|Best Western Plus Plaza Hotel|New York, NY|  90|40.75583| -73.94106|TRUE|FALSE|FALSE|TRUE
5739864|The Dominick|New York, NY| 543|40.72532| -74.00550|FALSE|FALSE|TRUE|TRUE
5739864|Flushing Hotel|New York, NY|  64|40.76208| -73.83163|TRUE|FALSE|FALSE|TRUE
5739864|Americana Inn|New York, NY|  96|40.75229| -73.98555|TRUE|FALSE|FALSE|TRUE
5739864|Queens Hotel|New York, NY|  95|40.74128| -73.89991|TRUE|FALSE|FALSE|TRUE
5739864|Super 8 by Wyndham Long Island City LGA Hotel|New York, NY|  91|40.76657| -73.93365|TRUE|FALSE|FALSE|TRUE
5739864|1 Hotel Central Park|New York, NY| 496|40.76471| -73.97651|FALSE|FALSE|TRUE|TRUE
5739864|Quality Inn near Sunset Park|New York, NY|  90|40.65099| -74.01178|TRUE|FALSE|FALSE|TRUE
5739864|voco Times Square South, an IHG Hotel|New York, NY| 131|40.75445| -73.99410|FALSE|TRUE|FALSE|TRUE
5739864|DoubleTree by Hilton New York Times Square West|New York, NY|  94|40.75664| -73.99307|TRUE|TRUE|FALSE|TRUE
5739864|Doubletree by Hilton New York Times Square South|New York, NY| 125|40.75380| -73.99272|FALSE|TRUE|FALSE|TRUE
5739864|TRYP by Wyndham New York City Times Square / Midtown|New York, NY| 136|40.75378| -73.99462|FALSE|TRUE|FALSE|TRUE
5739864|The Mark|New York, NY|1145|40.77533| -73.96326|FALSE|FALSE|TRUE|TRUE
5739864|Hyatt Place New York City/Times Square|New York, NY| 129|40.75616| -73.99341|FALSE|TRUE|FALSE|TRUE
5739864|Hilton Garden Inn New York/West 35th Street|New York, NY| 129|40.75037| -73.98651|FALSE|TRUE|FALSE|TRUE
5739864|Mandarin Oriental, New York|New York, NY|1013|40.76901| -73.98291|FALSE|FALSE|TRUE|TRUE
5739864|Equinox Hotel New York|New York, NY| 722|40.75465| -74.00221|FALSE|FALSE|TRUE|TRUE
5739864|Truss Hotel Times Square |New York, NY| 104|40.75650| -73.99449|FALSE|TRUE|FALSE|TRUE
5739875|Mandarin Oriental, New York|New York, NY|1013|40.76901| -73.98291|FALSE|FALSE|TRUE|TRUE
5739875|Hilton Garden Inn New York Times Square South|New York, NY| 129|40.75448| -73.99360|FALSE|TRUE|FALSE|TRUE
5739875|The Peninsula New York|New York, NY| 973|40.76166| -73.97534|FALSE|FALSE|TRUE|TRUE
5739875|Equinox Hotel New York|New York, NY| 722|40.75465| -74.00221|FALSE|FALSE|TRUE|TRUE
5739875|Doubletree by Hilton New York Times Square South|New York, NY| 125|40.75380| -73.99272|FALSE|TRUE|FALSE|TRUE
5739875|voco Times Square South, an IHG Hotel|New York, NY| 131|40.75445| -73.99410|FALSE|TRUE|FALSE|TRUE
5739875|The Dominick|New York, NY| 543|40.72532| -74.00550|FALSE|FALSE|TRUE|TRUE
5739875|Flushing Hotel|New York, NY|  64|40.76208| -73.83163|TRUE|FALSE|FALSE|TRUE
5739875|Hotel 21 Nyc|New York, NY|  87|40.75367| -73.94228|TRUE|FALSE|FALSE|TRUE
5739875|The Mark|New York, NY|1145|40.77533| -73.96326|FALSE|FALSE|TRUE|TRUE
5739875|Hyatt Place New York City/Times Square|New York, NY| 129|40.75616| -73.99341|FALSE|TRUE|FALSE|TRUE
5739875|Truss Hotel Times Square |New York, NY| 104|40.75650| -73.99449|FALSE|TRUE|FALSE|TRUE
5739875|The Towers at Lotte New York Palace|New York, NY| 922|40.75797| -73.97487|FALSE|FALSE|TRUE|TRUE
5739875|Best Western Plus Plaza Hotel|New York, NY|  90|40.75583| -73.94106|TRUE|FALSE|FALSE|TRUE
5739875|Super 8 by Wyndham Long Island City LGA Hotel|New York, NY|  91|40.76657| -73.93365|TRUE|FALSE|FALSE|TRUE
5739875|Hilton Garden Inn New York/West 35th Street|New York, NY| 129|40.75037| -73.98651|FALSE|TRUE|FALSE|TRUE
5739875|Hotel Barriere Fouquets New York|New York, NY| 896|40.72362| -74.00975|FALSE|FALSE|TRUE|TRUE
