id|name|city|price|lat|long|p|t|l|fresh
5655669|HomeTowne Studios by Red Roof Fort Lauderdale|Sunrise, FL|  93|26.18739| -80.18639|TRUE|FALSE|FALSE|TRUE
5655669|Sheraton Suites Fort Lauderdale Plantation|Sunrise, FL| 233|26.12410| -80.25664|FALSE|TRUE|FALSE|TRUE
5655669|Hampton Inn Ft. Lauderdale-West/Pembroke Pines|Sunrise, FL| 166|26.02546| -80.34768|TRUE|FALSE|FALSE|TRUE
5655669|Staybridge Suites Fort Lauderdale Airport - West, an IHG Hotel|Sunrise, FL| 273|26.06453| -80.21240|FALSE|FALSE|TRUE|TRUE
5655669|Extended Stay America Suites Fort Lauderdale Davie|Sunrise, FL| 150|26.20169| -80.15288|TRUE|FALSE|FALSE|TRUE
5655669|Chateau Mar Golf Resort, Trademark Collection by Wyndham|Sunrise, FL| 241|26.16978| -80.23631|FALSE|FALSE|TRUE|TRUE
5655669|Hyatt Place Ft. Lauderdale/Plantation|Sunrise, FL| 259|26.11894| -80.26284|FALSE|TRUE|TRUE|TRUE
5655669|Sonesta ES Suites Fort Lauderdale Plantation|Sunrise, FL| 236|26.12592| -80.26149|FALSE|TRUE|TRUE|TRUE
5655669|Extended Stay America Suites Fort Lauderdale Tamarac|Sunrise, FL| 113|26.20169| -80.15288|TRUE|FALSE|FALSE|TRUE
5655669|Extended Stay America Suites Fort Lauderdale Plantation|Sunrise, FL| 156|26.20169| -80.15288|TRUE|FALSE|FALSE|TRUE
5655669|AC Hotel Fort Lauderdale Sawgrass Mills / Sunrise|Sunrise, FL| 247|26.15016| -80.31874|FALSE|TRUE|TRUE|TRUE
5655669|La Quinta Inn & Suites by Wyndham Sunrise Sawgrass Mills|Sunrise, FL| 171|26.12446| -80.33143|FALSE|TRUE|FALSE|TRUE
5655669|Courtyard by Marriott Fort Lauderdale Weston|Sunrise, FL| 262|26.09226| -80.36518|FALSE|TRUE|TRUE|TRUE
5655669|Holiday Inn Express Pembroke Pines-Sheridan Street, an IHG Hotel|Sunrise, FL| 162|26.02784| -80.34487|TRUE|FALSE|FALSE|TRUE
5655669|Comfort Suites Sawgrass|Sunrise, FL| 178|26.19431| -80.26127|FALSE|TRUE|FALSE|TRUE
5655669|DoubleTree by Hilton Hotel Sunrise - Sawgrass Mills|Sunrise, FL| 254|26.14457| -80.32544|FALSE|TRUE|TRUE|TRUE
5655669|Residence Inn By Marriott Fort Lauderdale Plantation|Sunrise, FL| 247|26.12256| -80.25156|FALSE|FALSE|TRUE|TRUE
5655669|Renaissance Fort Lauderdale West Hotel|Sunrise, FL| 258|26.10388| -80.26272|FALSE|FALSE|TRUE|TRUE
5655669|Plaza Hotel Fort Lauderdale|Sunrise, FL| 139|26.18931| -80.20270|TRUE|FALSE|FALSE|TRUE
5655669|La Quinta Inn by Wyndham Ft. Lauderdale Tamarac East|Sunrise, FL| 122|26.18564| -80.19984|TRUE|FALSE|FALSE|TRUE
5655669|Residence Inn By Marriott Fort Lauderdale Weston|Sunrise, FL| 238|26.08613| -80.37267|FALSE|FALSE|TRUE|TRUE
5655669|La Quinta Inn & Suites by Wyndham Sunrise|Sunrise, FL| 149|26.12339| -80.33189|TRUE|TRUE|FALSE|TRUE
5655669|WoodSpring Suites Tamarac|Sunrise, FL| 113|26.19447| -80.29301|TRUE|TRUE|FALSE|TRUE
5655671|Renaissance Fort Lauderdale West Hotel|Sunrise, FL| 258|26.10388| -80.26272|FALSE|FALSE|TRUE|TRUE
5655671|Residence Inn By Marriott Fort Lauderdale Plantation|Sunrise, FL| 247|26.12256| -80.25156|FALSE|FALSE|TRUE|TRUE
5655671|Courtyard by Marriott Fort Lauderdale Weston|Sunrise, FL| 262|26.09226| -80.36518|FALSE|TRUE|TRUE|TRUE
5655671|Extended Stay America Suites Fort Lauderdale Plantation|Sunrise, FL| 156|26.20169| -80.15288|TRUE|FALSE|FALSE|TRUE
5655671|Comfort Suites Sawgrass|Sunrise, FL| 178|26.19431| -80.26127|FALSE|TRUE|FALSE|TRUE
5655671|La Quinta Inn by Wyndham Ft. Lauderdale Tamarac East|Sunrise, FL| 122|26.18564| -80.19984|TRUE|FALSE|FALSE|TRUE
5655671|Extended Stay America Suites Fort Lauderdale Davie|Sunrise, FL| 150|26.20169| -80.15288|TRUE|FALSE|FALSE|TRUE
5655671|Residence Inn By Marriott Fort Lauderdale Weston|Sunrise, FL| 238|26.08613| -80.37267|FALSE|FALSE|TRUE|TRUE
5655671|Staybridge Suites Fort Lauderdale Airport - West, an IHG Hotel|Sunrise, FL| 273|26.06453| -80.21240|FALSE|FALSE|TRUE|TRUE
5655671|Holiday Inn Express Pembroke Pines-Sheridan Street, an IHG Hotel|Sunrise, FL| 162|26.02784| -80.34487|TRUE|FALSE|FALSE|TRUE
5655671|Extended Stay America Suites Fort Lauderdale Tamarac|Sunrise, FL| 113|26.20169| -80.15288|TRUE|FALSE|FALSE|TRUE
5655671|Chateau Mar Golf Resort, Trademark Collection by Wyndham|Sunrise, FL| 241|26.16978| -80.23631|FALSE|FALSE|TRUE|TRUE
5655671|HomeTowne Studios by Red Roof Fort Lauderdale|Sunrise, FL|  93|26.18739| -80.18639|TRUE|FALSE|FALSE|TRUE
5655671|Hyatt Place Ft. Lauderdale/Plantation|Sunrise, FL| 259|26.11894| -80.26284|FALSE|TRUE|TRUE|TRUE
5655671|WoodSpring Suites Tamarac|Sunrise, FL| 113|26.19447| -80.29301|TRUE|TRUE|FALSE|TRUE
5655671|DoubleTree by Hilton Hotel Sunrise - Sawgrass Mills|Sunrise, FL| 254|26.14457| -80.32544|FALSE|TRUE|TRUE|TRUE
5655671|Sonesta ES Suites Fort Lauderdale Plantation|Sunrise, FL| 236|26.12592| -80.26149|FALSE|TRUE|TRUE|TRUE
5655671|Plaza Hotel Fort Lauderdale|Sunrise, FL| 139|26.18931| -80.20270|TRUE|FALSE|FALSE|TRUE
5655671|La Quinta Inn & Suites by Wyndham Sunrise Sawgrass Mills|Sunrise, FL| 171|26.12446| -80.33143|FALSE|TRUE|FALSE|TRUE
5655671|Hampton Inn Ft. Lauderdale-West/Pembroke Pines|Sunrise, FL| 166|26.02546| -80.34768|TRUE|FALSE|FALSE|TRUE
5655671|AC Hotel Fort Lauderdale Sawgrass Mills / Sunrise|Sunrise, FL| 247|26.15016| -80.31874|FALSE|TRUE|TRUE|TRUE
5655671|La Quinta Inn & Suites by Wyndham Sunrise|Sunrise, FL| 149|26.12339| -80.33189|TRUE|TRUE|FALSE|TRUE
5655671|Sheraton Suites Fort Lauderdale Plantation|Sunrise, FL| 233|26.12410| -80.25664|FALSE|TRUE|FALSE|TRUE
5685266|Maison Saint Charles by Hotel RL|New Orleans, LA| 110|29.94029| -90.07522|TRUE|FALSE|FALSE|TRUE
5685266|Comfort Inn Marrero - New Orleans West|New Orleans, LA|  91|29.89219| -90.12282|TRUE|FALSE|FALSE|TRUE
5685266|Hyatt Regency New Orleans|New Orleans, LA| 207|29.94955| -90.07727|FALSE|TRUE|FALSE|TRUE
5685266|Selina Catahoula New Orleans|New Orleans, LA| 108|29.95185| -90.07321|TRUE|TRUE|FALSE|TRUE
5685266|The Ritz-Carlton, New Orleans|New Orleans, LA| 398|29.95496| -90.07097|FALSE|FALSE|TRUE|TRUE
5685266|Homewood Suites by Hilton New Orleans French Quarter|New Orleans, LA| 158|29.95075| -90.07313|FALSE|TRUE|FALSE|TRUE
5685266|The Windsor Court|New Orleans, LA| 399|29.94984| -90.06644|FALSE|FALSE|TRUE|TRUE
5685266|La Quinta Inn by Wyndham New Orleans Veterans / Metairie|New Orleans, LA|  91|30.00483| -90.20567|TRUE|FALSE|FALSE|TRUE
5685266|Le Méridien New Orleans|New Orleans, LA|2490|29.94909| -90.06671|FALSE|FALSE|TRUE|TRUE
5685266|Holiday Inn Express New Orleans Downtown, an IHG Hotel|New Orleans, LA| 143|29.95175| -90.07368|FALSE|TRUE|FALSE|TRUE
5685266|Riverside Hotel|New Orleans, LA| 110|29.85646| -89.98640|TRUE|FALSE|FALSE|TRUE
5685266|Prince Conti Hotel|New Orleans, LA| 407|29.95666| -90.06841|FALSE|FALSE|TRUE|TRUE
5685266|Holiday Inn New Orleans - Downtown Superdome, an IHG Hotel|New Orleans, LA| 158|29.95299| -90.07497|FALSE|TRUE|FALSE|TRUE
5685266|Ace Hotel New Orleans|New Orleans, LA| 204|29.94840| -90.07217|FALSE|TRUE|FALSE|TRUE
5685266|Federal City Inn & Suites|New Orleans, LA| 107|29.94753| -90.03280|TRUE|FALSE|FALSE|TRUE
5685266|Four Seasons Hotel New Orleans|New Orleans, LA| 449|29.94888| -90.06389|FALSE|FALSE|TRUE|TRUE
5685266|Aloft New Orleans Downtown, a Marriott Hotel|New Orleans, LA| 146|29.95266| -90.07246|FALSE|TRUE|FALSE|TRUE
5685266|Hilton Garden Inn New Orleans French Quarter/CBD|New Orleans, LA| 128|29.95246| -90.07180|FALSE|TRUE|FALSE|TRUE
5685266|The Roosevelt New Orleans, A Waldorf Astoria Hotel|New Orleans, LA| 362|29.95434| -90.07230|FALSE|FALSE|TRUE|TRUE
5685266|Olde Town Inn|New Orleans, LA| 103|29.96776| -90.05529|TRUE|FALSE|FALSE|TRUE
5685266|Quality Inn New Orleans I-10 East|New Orleans, LA|  64|30.03715| -89.97409|TRUE|FALSE|FALSE|TRUE
5685266|Dauphine Orleans Hotel|New Orleans, LA| 383|29.95735| -90.06842|FALSE|FALSE|TRUE|TRUE
5685266|Days Inn by Wyndham New Orleans Pontchartrain|New Orleans, LA|  85|30.00213| -90.03978|TRUE|FALSE|FALSE|TRUE
5685266|Sonesta ES Suites New Orleans|New Orleans, LA| 146|29.95409| -90.07462|FALSE|TRUE|FALSE|TRUE
5685266|Maison de la Luz|New Orleans, LA| 376|29.94879| -90.07202|FALSE|TRUE|TRUE|TRUE
5685266|The Lola by Sextant|New Orleans, LA| 375|29.93943| -90.06526|FALSE|FALSE|TRUE|TRUE
5685266|The Natchez|New Orleans, LA| 888|29.94974| -90.06870|FALSE|FALSE|TRUE|TRUE
5685266|Suburban Studios|New Orleans, LA| 100|29.90910| -90.20646|TRUE|FALSE|FALSE|TRUE
5695225|Diplomat Beach Resort Hollywood, Curio Collection by Hilton|Miami Gardens, FL| 591|25.99191| -80.11828|FALSE|FALSE|TRUE|TRUE
5695225|Stadium Hotel|Miami Gardens, FL| 150|25.95790| -80.23885|FALSE|TRUE|FALSE|TRUE
5695225|Hollywood Beach Suites, a South Beach Group Hotel|Miami Gardens, FL| 119|25.77903| -80.13172|TRUE|FALSE|FALSE|TRUE
5695225|Acqualina Resort & Residences On The Beach|Miami Gardens, FL|1509|25.94082| -80.12092|FALSE|FALSE|TRUE|TRUE
5695225|May-Dee Suites|Miami Gardens, FL| 156|26.01073| -80.19495|FALSE|TRUE|FALSE|TRUE
5695225|Red Carpet Inn Airport/Cruiseport|Miami Gardens, FL| 113|26.08635| -80.17466|TRUE|FALSE|FALSE|TRUE
5695225|Trump International Beach Resort|Miami Gardens, FL| 776|25.94320| -80.12061|FALSE|FALSE|TRUE|TRUE
5695225|The Harrison Hotel Downtown Hollywood|Miami Gardens, FL| 125|26.01073| -80.14622|TRUE|FALSE|FALSE|TRUE
5695225|Miami Gardens Inn & Suites|Miami Gardens, FL| 222|25.94204| -80.24560|FALSE|TRUE|FALSE|TRUE
5695225|Hilton Aventura Miami|Miami Gardens, FL| 346|25.95325| -80.14345|FALSE|TRUE|FALSE|TRUE
5695225|Beach Place Hotel|Miami Gardens, FL| 132|25.87125| -80.12220|TRUE|FALSE|FALSE|TRUE
5695225|Casa Pellegrino|Miami Gardens, FL| 114|26.02446| -80.11617|TRUE|FALSE|FALSE|TRUE
5695225|The Ritz-Carlton Bal Harbour, Miami|Miami Gardens, FL|1396|25.89900| -80.12330|FALSE|FALSE|TRUE|TRUE
5695225|Miami Lakes Hotel|Miami Gardens, FL| 164|25.91206| -80.31126|FALSE|TRUE|FALSE|TRUE
5695225|Four Seasons Hotel at The Surf Club|Miami Gardens, FL|3252|25.87772| -80.12142|FALSE|FALSE|TRUE|TRUE
5695225|Grand Palms Spa & Golf Resort|Miami Gardens, FL| 101|26.00016| -80.35079|TRUE|FALSE|FALSE|TRUE
5695225|Hyde Beach House|Miami Gardens, FL| 697|25.98685| -80.12071|FALSE|FALSE|TRUE|TRUE
5695225|The Clevelander|Miami Gardens, FL| 101|25.78078| -80.13098|TRUE|FALSE|FALSE|TRUE
5695225|SpringHill Suites by Marriott Fort Lauderdale Miramar|Miami Gardens, FL| 214|25.97424| -80.29263|FALSE|TRUE|FALSE|TRUE
5695225|Baltic Boutique|Miami Gardens, FL| 133|25.94204| -80.24560|FALSE|TRUE|FALSE|TRUE
5695225|Greniers|Miami Gardens, FL| 116|26.02505| -80.11578|TRUE|FALSE|FALSE|TRUE
5695225|Hollywood Beach Hotels|Miami Gardens, FL| 106|25.94204| -80.24560|TRUE|TRUE|FALSE|TRUE
5695225|Seminole Hard Rock Hotel and Casino|Miami Gardens, FL| 599|26.05082| -80.21155|FALSE|FALSE|TRUE|TRUE
5695225|Private Ocean Condos at Marenas Beach|Miami Gardens, FL| 690|25.94916| -80.11988|FALSE|FALSE|TRUE|TRUE
5695225|Extended Stay America Suites Fort Lauderdale Davie|Miami Gardens, FL| 150|25.94204| -80.24560|FALSE|TRUE|FALSE|TRUE
5695225|The St. Regis Bal Harbour Resort|Miami Gardens, FL|1676|25.88909| -80.12241|FALSE|FALSE|TRUE|TRUE
5695225|Villa Europa Hotel|Miami Gardens, FL| 121|26.02341| -80.11549|TRUE|FALSE|FALSE|TRUE
5695225|WoodSpring Suites Miramar|Miami Gardens, FL| 158|25.97539| -80.29685|FALSE|TRUE|FALSE|TRUE
5695225|Grand Beach Hotel Surfside|Miami Gardens, FL| 625|25.88445| -80.12222|FALSE|FALSE|TRUE|TRUE
5695243|The Peninsula Chicago|Chicago, IL| 558|41.89620| -87.62515|FALSE|FALSE|TRUE|TRUE
5695243|The Chicago Hotel Collection - Wrigleyville|Chicago, IL| 167|41.94553| -87.65487|FALSE|FALSE|TRUE|TRUE
5695243|Swissotel - Chicago|Chicago, IL| 160|41.88717| -87.61949|FALSE|TRUE|FALSE|TRUE
5695243|Trump International Hotel & Tower Chicago|Chicago, IL| 464|41.88890| -87.62643|FALSE|TRUE|TRUE|TRUE
5695243|Millennium Knickerbocker Chicago|Chicago, IL| 100|41.89977| -87.62270|TRUE|FALSE|FALSE|TRUE
5695243|Nobu Hotel Chicago|Chicago, IL| 452|41.88473| -87.64949|FALSE|FALSE|TRUE|TRUE
5695243|Congress Plaza Hotel|Chicago, IL| 115|41.87491| -87.62482|FALSE|TRUE|FALSE|TRUE
5695243|The Langham, Chicago|Chicago, IL| 450|41.88842| -87.62751|FALSE|TRUE|TRUE|TRUE
5695243|The Whitehall Hotel|Chicago, IL|  95|41.89891| -87.62571|TRUE|FALSE|FALSE|TRUE
5695243|Hampton Inn Chicago Downtown/Magnificent Mile|Chicago, IL| 102|41.89519| -87.62305|TRUE|FALSE|FALSE|TRUE
5695243|Park Hyatt Chicago|Chicago, IL| 499|41.89724| -87.62527|FALSE|FALSE|TRUE|TRUE
5695243|Hilton Garden Inn Chicago Downtown Riverwalk|Chicago, IL| 116|41.88701| -87.62549|FALSE|TRUE|FALSE|TRUE
5695243|Hilton Garden Inn Chicago Downtown South Loop|Chicago, IL|  99|41.86909| -87.62566|TRUE|TRUE|FALSE|TRUE
5695243|Warwick Allerton - Chicago|Chicago, IL| 103|41.89509| -87.62375|TRUE|FALSE|FALSE|TRUE
5695243|Hotel Versey Days Inn by Wyndham Chicago|Chicago, IL|  94|41.93294| -87.64557|TRUE|FALSE|FALSE|TRUE
5695243|Waldorf Astoria Chicago|Chicago, IL| 438|41.89974| -87.62748|FALSE|FALSE|TRUE|TRUE
5695243|Freehand Chicago|Chicago, IL| 102|41.89238| -87.62732|TRUE|FALSE|FALSE|TRUE
5695243|Hotel BnB-2|Chicago, IL|  92|41.89585| -87.63797|TRUE|FALSE|FALSE|TRUE
5695243|Club Quarters Hotel, Central Loop, Chicago|Chicago, IL| 141|41.87927| -87.63119|FALSE|TRUE|FALSE|TRUE
5695243|Four Seasons Hotel Chicago|Chicago, IL| 417|41.89961| -87.62488|FALSE|FALSE|TRUE|TRUE
5695243|Hyatt Regency Chicago|Chicago, IL| 169|41.88745| -87.62284|FALSE|TRUE|TRUE|TRUE
5695243|Found Hotel Chicago River North|Chicago, IL|  82|41.89287| -87.63377|TRUE|FALSE|FALSE|TRUE
5695243|Best Western Grant Park Hotel|Chicago, IL|  90|41.86909| -87.62468|TRUE|TRUE|FALSE|TRUE
5695243|The Ritz-Carlton, Chicago|Chicago, IL| 492|41.89782| -87.62228|FALSE|FALSE|TRUE|TRUE
5695243|Hotel Chicago Downtown, Autograph Collection by Marriott|Chicago, IL| 116|41.88862| -87.62887|FALSE|TRUE|FALSE|TRUE
5695261|Red Roof Inn PLUS+ Boston - Mansfield/ Foxboro|Foxborough, MA|  77|42.03411| -71.23668|TRUE|FALSE|FALSE|TRUE
5695261|Courtyard by Marriott Boston Norwood/Canton|Foxborough, MA| 180|42.17532| -71.19010|FALSE|FALSE|TRUE|TRUE
5695261|Sonesta Select Boston Foxborough Mansfield|Foxborough, MA| 135|42.03978| -71.23689|FALSE|FALSE|TRUE|TRUE
5695261|Comfort Inn Foxboro – Mansfield|Foxborough, MA| 121|42.03943| -71.23985|TRUE|TRUE|FALSE|TRUE
5695261|Home2 Suites by Hilton Walpole Foxboro|Foxborough, MA| 141|42.10473| -71.25585|FALSE|TRUE|TRUE|TRUE
5695261|Econo Lodge Sharon|Foxborough, MA|  85|42.12519| -71.23042|TRUE|TRUE|FALSE|TRUE
5695261|Hilton Garden Inn Foxborough Patriot Place|Foxborough, MA| 157|42.09150| -71.26865|FALSE|TRUE|TRUE|TRUE
5695261|Residence Inn by Marriott Boston Norwood|Foxborough, MA| 120|42.16943| -71.20033|TRUE|FALSE|FALSE|TRUE
5695261|Residence Inn by Marriott Boston-Franklin|Foxborough, MA| 170|42.06538| -71.24783|FALSE|TRUE|TRUE|TRUE
5695261|Four Points By Sheraton Norwood|Foxborough, MA| 303|42.17541| -71.19446|FALSE|FALSE|TRUE|TRUE
5695261|Americas Best Value Inn Foxboro|Foxborough, MA|  89|42.08196| -71.28072|TRUE|TRUE|FALSE|TRUE
5695261|Best Western Plus The Inn at Sharon/Foxboro|Foxborough, MA|  99|42.12324| -71.23031|TRUE|TRUE|FALSE|TRUE
5695261|TownePlace Suites by Marriott Wrentham Plainville|Foxborough, MA| 151|42.03856| -71.31183|FALSE|FALSE|TRUE|TRUE
5695261|SpringHill Suites by Marriott Wrentham Plainville|Foxborough, MA| 128|42.03871| -71.31233|TRUE|FALSE|FALSE|TRUE
5695261|Best Western North Attleboro / Providence Beltway|Foxborough, MA| 121|41.95922| -71.34274|TRUE|FALSE|FALSE|TRUE
5695261|Hampton Inn Boston - Norwood|Foxborough, MA| 122|42.19696| -71.18431|TRUE|FALSE|FALSE|TRUE
5695261|Best Western Plus Executive Residency Franklin|Foxborough, MA| 110|42.06149| -71.39714|TRUE|FALSE|FALSE|TRUE
5695261|The Proctor Mansion Inn|Foxborough, MA| 767|42.06550| -71.32757|FALSE|TRUE|TRUE|TRUE
5695261|Residence Inn by Marriott Foxborough|Foxborough, MA| 135|42.04473| -71.23833|FALSE|TRUE|TRUE|TRUE
5695261|Renaissance by Marriott Boston Patriot Place Hotel|Foxborough, MA| 178|42.09045| -71.26853|FALSE|TRUE|TRUE|TRUE
5695261|Hampton Inn Franklin/Milford|Foxborough, MA| 161|42.06515| -71.39754|FALSE|FALSE|TRUE|TRUE
5695279|Super 8 by Wyndham Camp Springs/Andrews AFB DC Area|Landover, MD|  80|38.81399| -76.89603|TRUE|FALSE|FALSE|TRUE
5695279|Conrad Washington, DC|Landover, MD| 431|38.90137| -77.02528|FALSE|FALSE|TRUE|TRUE
5695279|The Hay-Adams|Landover, MD| 459|38.90040| -77.03693|FALSE|FALSE|TRUE|TRUE
5695279|Generator Hotel Washington DC|Landover, MD| 107|38.92562| -76.88939|FALSE|TRUE|FALSE|TRUE
5695279|Courtyard Largo Medical Center Drive|Landover, MD| 134|38.90692| -76.84692|FALSE|TRUE|TRUE|TRUE
5695279|DoubleTree by Hilton Largo/Washington DC|Landover, MD| 139|38.91566| -76.84879|FALSE|TRUE|TRUE|TRUE
5695279|Hampton Inn Bowie|Landover, MD|  84|38.95076| -76.73825|TRUE|FALSE|FALSE|TRUE
5695279|Courtyard by Marriott New Carrollton|Landover, MD| 153|38.94771| -76.86331|FALSE|TRUE|TRUE|TRUE
5695279|Pendry Washington DC - The Wharf|Landover, MD| 454|38.87756| -77.02241|FALSE|FALSE|TRUE|TRUE
5695279|Homewood Suites by Hilton Largo/Washington, D.C.|Landover, MD| 172|38.91444| -76.84935|FALSE|TRUE|TRUE|TRUE
5695279|Days Inn by Wyndham Lanham Washington D.C|Landover, MD|  86|38.96226| -76.86088|TRUE|FALSE|FALSE|TRUE
5695279|Comfort Inn Largo-Washington DC East|Landover, MD| 105|38.89449| -76.84227|FALSE|TRUE|FALSE|TRUE
5695279|WoodSpring Suites Washington DC East Arena Drive|Landover, MD|  89|38.90793| -76.85133|TRUE|TRUE|FALSE|TRUE
5695279|Extended Stay America Suites Washington DC Landover|Landover, MD|  97|38.93400| -76.89664|FALSE|TRUE|FALSE|TRUE
5695279|Red Roof Inn Washington DC - Lanham|Landover, MD|  88|38.96478| -76.85962|TRUE|FALSE|FALSE|TRUE
5695279|Salamander Washington DC|Landover, MD| 369|38.88366| -77.03032|FALSE|FALSE|TRUE|TRUE
5695279|Metro Points Hotel|Landover, MD|  89|38.95892| -76.86889|TRUE|FALSE|FALSE|TRUE
5695279|Waldorf Astoria Washington DC|Landover, MD| 506|38.89411| -77.02758|FALSE|FALSE|TRUE|TRUE
5695279|Quality Inn Takoma Park|Landover, MD|  89|38.98395| -76.98675|TRUE|FALSE|FALSE|TRUE
5695279|Days Inn by Wyndham Camp Springs/Andrews AFB DC Area|Landover, MD|  72|38.81392| -76.89562|TRUE|FALSE|FALSE|TRUE
5695279|Quality Inn Near Joint Base Andrews - Washington Area|Landover, MD|  85|38.82076| -76.88784|TRUE|FALSE|FALSE|TRUE
5695279|Econo Lodge Andrews Air Force Base|Landover, MD|  70|38.78201| -76.89081|TRUE|FALSE|FALSE|TRUE
5695279|Holiday Inn Express I-95 Capitol Beltway-Largo, an IHG Hotel|Landover, MD| 105|38.91377| -76.84897|FALSE|TRUE|FALSE|TRUE
5695279|Staybridge Suites Washington DC East - Largo, an IHG Hotel|Landover, MD| 155|38.90699| -76.84066|FALSE|TRUE|TRUE|TRUE
5695281|Conrad Washington, DC|Landover, MD| 431|38.90137| -77.02528|FALSE|FALSE|TRUE|TRUE
5695281|Hampton Inn Bowie|Landover, MD|  84|38.95076| -76.73825|TRUE|FALSE|FALSE|TRUE
5695281|Econo Lodge Andrews Air Force Base|Landover, MD|  70|38.78201| -76.89081|TRUE|FALSE|FALSE|TRUE
5695281|Generator Hotel Washington DC|Landover, MD| 107|38.92562| -76.88939|FALSE|TRUE|FALSE|TRUE
5695281|Super 8 by Wyndham Camp Springs/Andrews AFB DC Area|Landover, MD|  80|38.81399| -76.89603|TRUE|FALSE|FALSE|TRUE
5695281|Pendry Washington DC - The Wharf|Landover, MD| 454|38.87756| -77.02241|FALSE|FALSE|TRUE|TRUE
5695281|Days Inn by Wyndham Lanham Washington D.C|Landover, MD|  86|38.96226| -76.86088|TRUE|FALSE|FALSE|TRUE
5695281|The Hay-Adams|Landover, MD| 459|38.90040| -77.03693|FALSE|FALSE|TRUE|TRUE
5695281|DoubleTree by Hilton Largo/Washington DC|Landover, MD| 139|38.91566| -76.84879|FALSE|TRUE|TRUE|TRUE
5695281|Courtyard Largo Medical Center Drive|Landover, MD| 134|38.90692| -76.84692|FALSE|TRUE|TRUE|TRUE
5695281|Holiday Inn Express I-95 Capitol Beltway-Largo, an IHG Hotel|Landover, MD| 105|38.91377| -76.84897|FALSE|TRUE|FALSE|TRUE
5695281|Days Inn by Wyndham Camp Springs/Andrews AFB DC Area|Landover, MD|  72|38.81392| -76.89562|TRUE|FALSE|FALSE|TRUE
5695281|Comfort Inn Largo-Washington DC East|Landover, MD| 105|38.89449| -76.84227|FALSE|TRUE|FALSE|TRUE
5695281|Metro Points Hotel|Landover, MD|  89|38.95892| -76.86889|TRUE|FALSE|FALSE|TRUE
5695281|Extended Stay America Suites Washington DC Landover|Landover, MD|  97|38.93400| -76.89664|FALSE|TRUE|FALSE|TRUE
5695281|Homewood Suites by Hilton Largo/Washington, D.C.|Landover, MD| 172|38.91444| -76.84935|FALSE|TRUE|TRUE|TRUE
5695281|Waldorf Astoria Washington DC|Landover, MD| 506|38.89411| -77.02758|FALSE|FALSE|TRUE|TRUE
5695281|WoodSpring Suites Washington DC East Arena Drive|Landover, MD|  89|38.90793| -76.85133|TRUE|TRUE|FALSE|TRUE
5695281|Courtyard by Marriott New Carrollton|Landover, MD| 153|38.94771| -76.86331|FALSE|TRUE|TRUE|TRUE
5695281|Salamander Washington DC|Landover, MD| 369|38.88366| -77.03032|FALSE|FALSE|TRUE|TRUE
5695281|Quality Inn Takoma Park|Landover, MD|  89|38.98395| -76.98675|TRUE|FALSE|FALSE|TRUE
5695281|Red Roof Inn Washington DC - Lanham|Landover, MD|  88|38.96478| -76.85962|TRUE|FALSE|FALSE|TRUE
5695281|Quality Inn Near Joint Base Andrews - Washington Area|Landover, MD|  85|38.82076| -76.88784|TRUE|FALSE|FALSE|TRUE
5695281|Staybridge Suites Washington DC East - Largo, an IHG Hotel|Landover, MD| 155|38.90699| -76.84066|FALSE|TRUE|TRUE|TRUE
5695297|Extended Stay America Suites Tampa North Airport|Tampa, FL| 119|27.99748| -82.54671|TRUE|FALSE|FALSE|TRUE
5695297|Old West Studio Lofts|Tampa, FL| 207|27.95955| -82.48310|FALSE|TRUE|FALSE|TRUE
5695297|Value Lodge Busch Gardens Tampa|Tampa, FL|  82|28.03707| -82.41946|TRUE|FALSE|FALSE|TRUE
5695297|La Quinta Inn & Suites by Wyndham Tampa Fairgrounds - Casino|Tampa, FL| 124|27.98951| -82.35775|TRUE|FALSE|FALSE|TRUE
5695297|WoodSpring Suites Tampa Airport North Veterans Expressway|Tampa, FL| 112|28.03423| -82.54336|TRUE|FALSE|FALSE|TRUE
5695297|Hampton Inn Tampa-International Airport/Westshore|Tampa, FL| 202|27.95648| -82.52591|FALSE|TRUE|FALSE|TRUE
5695297|Tampa Marriott Water Street|Tampa, FL| 489|27.94091| -82.45387|FALSE|FALSE|TRUE|TRUE
5695297|Seminole Hard Rock Hotel & Casino Tampa|Tampa, FL| 453|27.99338| -82.37198|FALSE|FALSE|TRUE|TRUE
5695297|Extended Stay America Suites Tampa Airport Memorial Hwy|Tampa, FL| 124|28.00674| -82.59229|TRUE|FALSE|FALSE|TRUE
5695297|Quality Inn & Suites Near Fairgrounds Ybor City|Tampa, FL| 118|27.96827| -82.40370|TRUE|FALSE|FALSE|TRUE
5695297|Econo Lodge Airport at RJ Stadium|Tampa, FL| 100|27.97587| -82.50333|TRUE|TRUE|FALSE|TRUE
5695297|JW Marriott Tampa Water Street|Tampa, FL| 553|27.94191| -82.45367|FALSE|FALSE|TRUE|TRUE
5695297|The Tampa EDITION|Tampa, FL| 680|27.94369| -82.45085|FALSE|FALSE|TRUE|TRUE
5695297|Epicurean Hotel, Autograph Collection|Tampa, FL| 557|27.93072| -82.48342|FALSE|FALSE|TRUE|TRUE
5695297|Element Tampa Midtown, a Marriott Hotel|Tampa, FL| 359|27.95289| -82.50297|FALSE|TRUE|FALSE|TRUE
5695297|La Quinta Inn by Wyndham Tampa Near Busch Gardens|Tampa, FL| 124|28.03364| -82.42705|TRUE|FALSE|FALSE|TRUE
5695297|La Quinta Inn by Wyndham Tampa Bay Airport|Tampa, FL| 150|27.95908| -82.52582|FALSE|TRUE|FALSE|TRUE
5695297|Econo Lodge Busch Gardens|Tampa, FL| 104|28.03202| -82.44045|TRUE|FALSE|FALSE|TRUE
5695297|AC Hotel by Marriott Tampa Airport|Tampa, FL| 566|27.96522| -82.51125|FALSE|TRUE|TRUE|TRUE
5695297|Renaissance Tampa International Plaza Hotel|Tampa, FL| 544|27.96584| -82.51992|FALSE|TRUE|TRUE|TRUE
5695297|Extended Stay America Suites Tampa Airport Spruce Street|Tampa, FL| 129|27.95890| -82.51729|FALSE|TRUE|FALSE|TRUE
5695297|Courtyard by Marriott Tampa Westshore/Airport|Tampa, FL| 407|27.95280| -82.50695|FALSE|TRUE|TRUE|TRUE
5695297|Rodeway Inn Near Ybor City - Casino|Tampa, FL| 104|27.96992| -82.40352|TRUE|FALSE|FALSE|TRUE
5695297|Extended Stay America Suites Tampa Airport N Westshore Blvd|Tampa, FL| 140|27.95563| -82.52407|FALSE|TRUE|FALSE|TRUE
5695297|Tampa Airport Marriott|Tampa, FL| 442|27.98187| -82.53461|FALSE|FALSE|TRUE|TRUE
5695297|Grand Hyatt Tampa Bay|Tampa, FL| 541|27.96532| -82.55006|FALSE|FALSE|TRUE|TRUE
5695313|Hilton Garden Inn Houston Medical Center, TX|Houston, TX| 138|29.70455| -95.38559|FALSE|TRUE|TRUE|TRUE
5695313|Extended Stay America Suites Houston Galleria Westheimer|Houston, TX|  78|29.74064| -95.45628|TRUE|FALSE|FALSE|TRUE
5695313|The Post Oak Hotel at Uptown Houston|Houston, TX| 550|29.75218| -95.45701|FALSE|FALSE|TRUE|TRUE
5695313|Summit Inn|Houston, TX|  76|29.70020| -95.37769|TRUE|FALSE|FALSE|TRUE
5695313|Romana Hotel|Houston, TX|  70|29.71082| -95.50405|TRUE|FALSE|FALSE|TRUE
5695313|Wingate Houston near NRG Park/Medical Center|Houston, TX| 104|29.68090| -95.41281|FALSE|TRUE|TRUE|TRUE
5695313|La Colombe d'Or Hotel|Houston, TX| 597|29.74164| -95.39162|FALSE|FALSE|TRUE|TRUE
5695313|MainStay Suites Texas Medical Center/Reliant Park|Houston, TX|  95|29.69987| -95.37829|FALSE|TRUE|FALSE|TRUE
5695313|InterContinental Houston Medical Center, an IHG Hotel|Houston, TX| 192|29.70753| -95.40466|FALSE|TRUE|TRUE|TRUE
5695313|Travelodge by Wyndham Houston Hobby Airport|Houston, TX|  53|29.65237| -95.26050|TRUE|FALSE|FALSE|TRUE
5695313|America's Inn Sugarland Stafford|Houston, TX|  55|29.66489| -95.55532|TRUE|FALSE|FALSE|TRUE
5695313|Extended Stay America Suites Houston Med Ctr Braeswood Bl|Houston, TX| 100|29.70196| -95.40047|FALSE|TRUE|FALSE|TRUE
5695313|The Westin Houston Medical Center|Houston, TX| 221|29.70970| -95.40158|FALSE|TRUE|TRUE|TRUE
5695313|Extended Stay America Suites Houston Med Ctr Greenway Plaza|Houston, TX|  83|29.73165| -95.41454|TRUE|FALSE|FALSE|TRUE
5695313|Holiday Inn Express Houston - Galleria Area, an IHG Hotel|Houston, TX| 124|29.74278| -95.45675|FALSE|FALSE|TRUE|TRUE
5695313|Candlewood Suites Houston Medical Center, an IHG Hotel|Houston, TX|  99|29.67581| -95.42636|FALSE|TRUE|FALSE|TRUE
5695313|Days Inn & Suites by Wyndham Downtown/University of Houston|Houston, TX|  69|29.71069| -95.31080|TRUE|FALSE|FALSE|TRUE
5695313|Extended Stay America Suites Houston Westchase Richmond|Houston, TX|  73|29.72879| -95.55845|TRUE|FALSE|FALSE|TRUE
5695313|Howard Johnson by Wyndham Houston|Houston, TX|  55|29.77823| -95.40776|TRUE|FALSE|FALSE|TRUE
5695313|Comfort Suites near Texas Medical Center - NRG Stadium|Houston, TX| 104|29.68975| -95.41665|FALSE|TRUE|TRUE|TRUE
5695313|Blossom Hotel Houston|Houston, TX| 225|29.69952| -95.39943|FALSE|TRUE|TRUE|TRUE
5695313|Courtyard by Marriott Houston Medical Center/NRG Park|Houston, TX| 136|29.69663| -95.41361|FALSE|TRUE|TRUE|TRUE
5695313|Extended Stay America Suites Houston Galleria Uptown|Houston, TX|  78|29.73920| -95.46447|TRUE|FALSE|FALSE|TRUE
5695331|Extended Stay America Suites Philadelphia Cherry Hill|Philadelphia, PA|  98|39.88385| -75.24823|TRUE|FALSE|FALSE|TRUE
5695331|Philadelphia Marriott Old City|Philadelphia, PA| 204|39.94621| -75.14342|FALSE|TRUE|TRUE|TRUE
5695331|The Ritz-Carlton, Philadelphia|Philadelphia, PA| 398|39.95128| -75.16427|FALSE|FALSE|TRUE|TRUE
5695331|Courtyard Philadelphia South at The Navy Yard|Philadelphia, PA| 232|39.89545| -75.17173|FALSE|TRUE|TRUE|TRUE
5695331|BnB Philadelphia - Boutique Hotel|Philadelphia, PA| 621|39.97993| -75.12262|FALSE|FALSE|TRUE|TRUE
5695331|Wyndham Garden Philadelphia Airport|Philadelphia, PA| 101|39.86764| -75.30377|TRUE|FALSE|FALSE|TRUE
5695331|Holiday Inn Express Philadelphia-Midtown, an IHG Hotel|Philadelphia, PA| 147|39.94936| -75.16238|FALSE|TRUE|FALSE|TRUE
5695331|Four Seasons Hotel Philadelphia at Comcast Center|Philadelphia, PA| 879|39.95509| -75.17090|FALSE|FALSE|TRUE|TRUE
5695331|Howard Johnson by Wyndham Blackwood Near Philadelphia|Philadelphia, PA|  99|39.81340| -75.06928|TRUE|FALSE|FALSE|TRUE
5695331|Fitler Club|Philadelphia, PA| 352|39.95349| -75.17914|FALSE|FALSE|TRUE|TRUE
5695331|The Rittenhouse Philadelphia|Philadelphia, PA| 618|39.94966| -75.16482|FALSE|TRUE|TRUE|TRUE
5695331|Days Inn by Wyndham Springfield/Phil.Intl Airport|Philadelphia, PA|  84|39.91948| -75.32802|TRUE|FALSE|FALSE|TRUE
5695331|Parkway Inn|Philadelphia, PA|  62|39.91875| -75.32845|TRUE|FALSE|FALSE|TRUE
5695331|Travelodge by Wyndham Bellmawr|Philadelphia, PA|  82|39.86208| -75.07705|TRUE|FALSE|FALSE|TRUE
5695331|Red Roof Inn PLUS+ Philadelphia Airport|Philadelphia, PA|  98|39.86820| -75.30609|TRUE|FALSE|FALSE|TRUE
5695331|Hyatt Centric Center City Philadelphia|Philadelphia, PA| 197|39.94931| -75.16894|FALSE|TRUE|TRUE|TRUE
5695331|Sheraton Suites Philadelphia Airport|Philadelphia, PA| 150|39.89052| -75.23154|FALSE|TRUE|FALSE|TRUE
5695331|Club Quarters Hotel Rittenhouse Square, Philadelphia|Philadelphia, PA| 134|39.95122| -75.16840|FALSE|TRUE|FALSE|TRUE
5695331|Days Inn by Wyndham Runnemede Philadelphia Area|Philadelphia, PA|  80|39.85779| -75.07254|TRUE|FALSE|FALSE|TRUE
5695331|Radisson Hotel Philadelphia, PA|Philadelphia, PA| 117|39.94917| -75.16954|FALSE|TRUE|FALSE|TRUE
5695331|Live Casino & Hotel - Philadelphia|Philadelphia, PA| 218|39.90919| -75.16466|FALSE|TRUE|TRUE|TRUE
5695331|W Philadelphia|Philadelphia, PA| 271|39.95124| -75.16490|FALSE|FALSE|TRUE|TRUE
5695331|DoubleTree by Hilton Philadelphia Center City|Philadelphia, PA| 167|39.94792| -75.16413|FALSE|TRUE|FALSE|TRUE
5695331|Red Carpet Inn Philadelphia Airport|Philadelphia, PA|  76|39.87242| -75.28119|TRUE|FALSE|FALSE|TRUE
5695331|Sleep Inn Center City|Philadelphia, PA| 113|39.95438| -75.15711|TRUE|FALSE|FALSE|TRUE
5695333|Club Quarters Hotel Rittenhouse Square, Philadelphia|Philadelphia, PA| 134|39.95122| -75.16840|FALSE|TRUE|FALSE|TRUE
5695333|Travelodge by Wyndham Bellmawr|Philadelphia, PA|  82|39.86208| -75.07705|TRUE|FALSE|FALSE|TRUE
5695333|Howard Johnson by Wyndham Blackwood Near Philadelphia|Philadelphia, PA|  99|39.81340| -75.06928|TRUE|FALSE|FALSE|TRUE
5695333|Days Inn by Wyndham Springfield/Phil.Intl Airport|Philadelphia, PA|  84|39.91948| -75.32802|TRUE|FALSE|FALSE|TRUE
5695333|Radisson Hotel Philadelphia, PA|Philadelphia, PA| 117|39.94917| -75.16954|FALSE|TRUE|FALSE|TRUE
5695333|Hyatt Centric Center City Philadelphia|Philadelphia, PA| 197|39.94931| -75.16894|FALSE|TRUE|TRUE|TRUE
5695333|Sleep Inn Center City|Philadelphia, PA| 113|39.95438| -75.15711|TRUE|FALSE|FALSE|TRUE
5695333|Holiday Inn Express Philadelphia-Midtown, an IHG Hotel|Philadelphia, PA| 147|39.94936| -75.16238|FALSE|TRUE|FALSE|TRUE
5695333|The Rittenhouse Philadelphia|Philadelphia, PA| 618|39.94966| -75.16482|FALSE|TRUE|TRUE|TRUE
5695333|DoubleTree by Hilton Philadelphia Center City|Philadelphia, PA| 167|39.94792| -75.16413|FALSE|TRUE|FALSE|TRUE
5695333|Extended Stay America Suites Philadelphia Cherry Hill|Philadelphia, PA|  98|39.88385| -75.24823|TRUE|FALSE|FALSE|TRUE
5695333|Live Casino & Hotel - Philadelphia|Philadelphia, PA| 218|39.90919| -75.16466|FALSE|TRUE|TRUE|TRUE
5695333|Fitler Club|Philadelphia, PA| 352|39.95349| -75.17914|FALSE|FALSE|TRUE|TRUE
5695333|W Philadelphia|Philadelphia, PA| 271|39.95124| -75.16490|FALSE|FALSE|TRUE|TRUE
5695333|Parkway Inn|Philadelphia, PA|  62|39.91875| -75.32845|TRUE|FALSE|FALSE|TRUE
5695333|Courtyard Philadelphia South at The Navy Yard|Philadelphia, PA| 232|39.89545| -75.17173|FALSE|TRUE|TRUE|TRUE
5695333|BnB Philadelphia - Boutique Hotel|Philadelphia, PA| 621|39.97993| -75.12262|FALSE|FALSE|TRUE|TRUE
5695333|Wyndham Garden Philadelphia Airport|Philadelphia, PA| 101|39.86764| -75.30377|TRUE|FALSE|FALSE|TRUE
5695333|Philadelphia Marriott Old City|Philadelphia, PA| 204|39.94621| -75.14342|FALSE|TRUE|TRUE|TRUE
5695333|The Ritz-Carlton, Philadelphia|Philadelphia, PA| 398|39.95128| -75.16427|FALSE|FALSE|TRUE|TRUE
5695333|Red Roof Inn PLUS+ Philadelphia Airport|Philadelphia, PA|  98|39.86820| -75.30609|TRUE|FALSE|FALSE|TRUE
5695333|Sheraton Suites Philadelphia Airport|Philadelphia, PA| 150|39.89052| -75.23154|FALSE|TRUE|FALSE|TRUE
5695333|Red Carpet Inn Philadelphia Airport|Philadelphia, PA|  76|39.87242| -75.28119|TRUE|FALSE|FALSE|TRUE
5695333|Four Seasons Hotel Philadelphia at Comcast Center|Philadelphia, PA| 879|39.95509| -75.17090|FALSE|FALSE|TRUE|TRUE
5695333|Days Inn by Wyndham Runnemede Philadelphia Area|Philadelphia, PA|  80|39.85779| -75.07254|TRUE|FALSE|FALSE|TRUE
5695349|Fairmont Olympic Hotel|Seattle, WA| 343|47.60806|-122.33393|FALSE|TRUE|TRUE|TRUE
5695349|Hotel 1000, LXR Hotels & Resorts|Seattle, WA| 416|47.60505|-122.33612|FALSE|TRUE|TRUE|TRUE
5695349|Extended Stay America Suites Seattle Tukwila|Seattle, WA| 104|47.47484|-122.27262|TRUE|FALSE|FALSE|TRUE
5695349|Four Seasons Hotel Seattle|Seattle, WA| 854|47.60738|-122.33916|FALSE|TRUE|TRUE|TRUE
5695349|Extended Stay America Suites Seattle Redmond|Seattle, WA| 109|47.63458|-122.13137|TRUE|FALSE|FALSE|TRUE
5695349|Travelodge by Wyndham Seattle By The Space Needle|Seattle, WA| 106|47.62041|-122.34467|TRUE|FALSE|FALSE|TRUE
5695349|Hyatt At Olive 8|Seattle, WA| 223|47.61371|-122.33417|FALSE|FALSE|TRUE|TRUE
5695349|Seattle Marriott Waterfront|Seattle, WA| 242|47.61070|-122.34649|FALSE|FALSE|TRUE|TRUE
5695349|Hotel Hotel Hostel|Seattle, WA| 113|47.65120|-122.35013|TRUE|FALSE|FALSE|TRUE
5695349|Courtyard Seattle Downtown Pioneer Square|Seattle, WA| 180|47.60289|-122.33277|FALSE|TRUE|FALSE|TRUE
5695349|Extended Stay America Suites Seattle Bellevue Factoria|Seattle, WA| 103|47.63458|-122.13137|TRUE|FALSE|FALSE|TRUE
5695349|citizenM Seattle Pioneer Square|Seattle, WA| 155|47.60196|-122.33582|FALSE|TRUE|FALSE|TRUE
5695349|Quality Inn Bellevue|Seattle, WA| 110|47.58134|-122.13688|TRUE|FALSE|FALSE|TRUE
5695349|Bellevue Club Hotel|Seattle, WA| 358|47.60535|-122.18956|FALSE|FALSE|TRUE|TRUE
5695349|Ramada by Wyndham Seatac Airport North|Seattle, WA|  83|47.47926|-122.28351|TRUE|FALSE|FALSE|TRUE
5695349|Extended Stay America Premier Suites Seattle Bellevue Downtown|Seattle, WA| 114|47.61071|-122.18764|TRUE|FALSE|FALSE|TRUE
5695349|Lotte Hotel Seattle|Seattle, WA| 492|47.60525|-122.33084|FALSE|TRUE|TRUE|TRUE
5695349|The Westin Seattle|Seattle, WA| 201|47.61369|-122.33827|FALSE|FALSE|TRUE|TRUE
5695349|Ramada by Wyndham SeaTac Airport|Seattle, WA|  92|47.45269|-122.29469|TRUE|FALSE|FALSE|TRUE
5695349|Ramada by Wyndham SeaTac Airport North|Seattle, WA|  80|47.47926|-122.28351|TRUE|FALSE|FALSE|TRUE
5695349|Motif Seattle, a Destination by Hyatt Hotel|Seattle, WA| 211|47.61000|-122.33557|FALSE|TRUE|TRUE|TRUE
5695349|Hotel Ballard|Seattle, WA| 636|47.66623|-122.38256|FALSE|FALSE|TRUE|TRUE
5695349|Renaissance Seattle Hotel|Seattle, WA| 188|47.60667|-122.33068|FALSE|TRUE|FALSE|TRUE
5695349|Sheraton Grand Seattle|Seattle, WA| 201|47.61083|-122.33400|FALSE|TRUE|TRUE|TRUE
5695349|Executive Hotel Pacific|Seattle, WA| 142|47.60702|-122.33344|FALSE|TRUE|FALSE|TRUE
5695351|The Westin Seattle|Seattle, WA| 201|47.61369|-122.33827|FALSE|FALSE|TRUE|TRUE
5695351|Bellevue Club Hotel|Seattle, WA| 358|47.60535|-122.18956|FALSE|FALSE|TRUE|TRUE
5695351|Sheraton Grand Seattle|Seattle, WA| 201|47.61083|-122.33400|FALSE|TRUE|TRUE|TRUE
5695351|Fairmont Olympic Hotel|Seattle, WA| 343|47.60806|-122.33393|FALSE|TRUE|TRUE|TRUE
5695351|Extended Stay America Suites Seattle Bellevue Factoria|Seattle, WA| 103|47.63458|-122.13137|TRUE|FALSE|FALSE|TRUE
5695351|Lotte Hotel Seattle|Seattle, WA| 492|47.60525|-122.33084|FALSE|TRUE|TRUE|TRUE
5695351|Four Seasons Hotel Seattle|Seattle, WA| 854|47.60738|-122.33916|FALSE|TRUE|TRUE|TRUE
5695351|Seattle Marriott Waterfront|Seattle, WA| 242|47.61070|-122.34649|FALSE|FALSE|TRUE|TRUE
5695351|Hotel 1000, LXR Hotels & Resorts|Seattle, WA| 416|47.60505|-122.33612|FALSE|TRUE|TRUE|TRUE
5695351|Extended Stay America Suites Seattle Redmond|Seattle, WA| 109|47.63458|-122.13137|TRUE|FALSE|FALSE|TRUE
5695351|Travelodge by Wyndham Seattle By The Space Needle|Seattle, WA| 106|47.62041|-122.34467|TRUE|FALSE|FALSE|TRUE
5695351|Hotel Hotel Hostel|Seattle, WA| 113|47.65120|-122.35013|TRUE|FALSE|FALSE|TRUE
5695351|Motif Seattle, a Destination by Hyatt Hotel|Seattle, WA| 211|47.61000|-122.33557|FALSE|TRUE|TRUE|TRUE
5695351|Executive Hotel Pacific|Seattle, WA| 142|47.60702|-122.33344|FALSE|TRUE|FALSE|TRUE
5695351|Hyatt At Olive 8|Seattle, WA| 223|47.61371|-122.33417|FALSE|FALSE|TRUE|TRUE
5695351|Extended Stay America Premier Suites Seattle Bellevue Downtown|Seattle, WA| 114|47.61071|-122.18764|TRUE|FALSE|FALSE|TRUE
5695351|Ramada by Wyndham SeaTac Airport|Seattle, WA|  92|47.45269|-122.29469|TRUE|FALSE|FALSE|TRUE
5695351|Ramada by Wyndham Seatac Airport North|Seattle, WA|  83|47.47926|-122.28351|TRUE|FALSE|FALSE|TRUE
5695351|Extended Stay America Suites Seattle Tukwila|Seattle, WA| 104|47.47484|-122.27262|TRUE|FALSE|FALSE|TRUE
5695351|Renaissance Seattle Hotel|Seattle, WA| 188|47.60667|-122.33068|FALSE|TRUE|FALSE|TRUE
5695351|Quality Inn Bellevue|Seattle, WA| 110|47.58134|-122.13688|TRUE|FALSE|FALSE|TRUE
5695351|citizenM Seattle Pioneer Square|Seattle, WA| 155|47.60196|-122.33582|FALSE|TRUE|FALSE|TRUE
5695351|Hotel Ballard|Seattle, WA| 636|47.66623|-122.38256|FALSE|FALSE|TRUE|TRUE
5695351|Ramada by Wyndham SeaTac Airport North|Seattle, WA|  80|47.47926|-122.28351|TRUE|FALSE|FALSE|TRUE
5695351|Courtyard Seattle Downtown Pioneer Square|Seattle, WA| 180|47.60289|-122.33277|FALSE|TRUE|FALSE|TRUE
5695382|NoMad Las Vegas|Las Vegas, NV| 722|36.10474|-115.17651|FALSE|TRUE|TRUE|TRUE
5695382|Residence Inn by Marriott Las Vegas Hughes Center|Las Vegas, NV| 438|36.11576|-115.15594|FALSE|FALSE|TRUE|TRUE
5695382|Oasis at Gold Spike - Adults Only|Las Vegas, NV| 166|36.17095|-115.13982|TRUE|FALSE|FALSE|TRUE
5695382|Sunrise Inn Hotel|Las Vegas, NV| 138|36.21813|-115.12921|TRUE|FALSE|FALSE|TRUE
5695382|The Signature at MGM Grand (All Suites)|Las Vegas, NV| 383|36.10607|-115.16678|FALSE|TRUE|FALSE|TRUE
5695382|Howard Johnson by Wyndham Las Vegas near the Strip|Las Vegas, NV|  95|36.09948|-115.16580|TRUE|TRUE|FALSE|TRUE
5695382|Tropicana Las Vegas - a DoubleTree by Hilton Hotel|Las Vegas, NV| 303|36.09963|-115.17136|FALSE|TRUE|FALSE|TRUE
5695382|The Palazzo at The Venetian|Las Vegas, NV| 504|36.12400|-115.16796|FALSE|FALSE|TRUE|TRUE
5695382|Arizona Charlie's Boulder|Las Vegas, NV| 118|36.12406|-115.07554|TRUE|FALSE|FALSE|TRUE
5695382|Conrad Las Vegas at Resorts World|Las Vegas, NV| 468|36.13448|-115.16566|FALSE|FALSE|TRUE|TRUE
5695382|Holiday Inn Club Vacations at Desert Club Resort, an IHG Hotel|Las Vegas, NV| 417|36.11820|-115.16331|FALSE|FALSE|TRUE|TRUE
5695382|The Venetian Prestige Club Lounge|Las Vegas, NV| 721|36.12117|-115.16965|FALSE|FALSE|TRUE|TRUE
5695382|Extended Stay America Suites Las Vegas Valley View|Las Vegas, NV| 135|36.11248|-115.18932|TRUE|TRUE|FALSE|TRUE
5695382|Siegel Select Las Vegas Blvd.|Las Vegas, NV| 166|36.05740|-115.17087|TRUE|FALSE|FALSE|TRUE
5695382|Super 8 by Wyndham Las Vegas North Strip/Fremont St. Area|Las Vegas, NV|  98|36.15606|-115.14829|TRUE|FALSE|FALSE|TRUE
5695382|Nobu Hotel at Caesars Palace|Las Vegas, NV| 731|36.11671|-115.17519|FALSE|TRUE|TRUE|TRUE
5695382|Bellagio|Las Vegas, NV|1088|36.11311|-115.17701|FALSE|TRUE|TRUE|TRUE
5695382|Mardi Gras Hotel & Casino|Las Vegas, NV| 141|36.12549|-115.15446|TRUE|FALSE|FALSE|TRUE
5695382|Alexis Park All Suite Resort|Las Vegas, NV| 214|36.10762|-115.15554|FALSE|TRUE|FALSE|TRUE
5695382|Courtyard by Marriott Las Vegas South|Las Vegas, NV| 418|36.08382|-115.18304|FALSE|TRUE|TRUE|TRUE
5695382|OYO Hotel and Casino Las Vegas|Las Vegas, NV| 249|36.10039|-115.16772|FALSE|TRUE|FALSE|TRUE
5695382|Longhorn Casino & Hotel|Las Vegas, NV| 155|36.10704|-115.05916|TRUE|FALSE|FALSE|TRUE
5695382|Shalimar Hotel of Las Vegas|Las Vegas, NV|  81|36.15492|-115.14970|TRUE|FALSE|FALSE|TRUE
5695382|Crockfords Las Vegas, LXR Hotels & Resorts at Resorts World|Las Vegas, NV| 629|36.13492|-115.16582|FALSE|FALSE|TRUE|TRUE
5695383|Crockfords Las Vegas, LXR Hotels & Resorts at Resorts World|Las Vegas, NV| 629|36.13492|-115.16582|FALSE|FALSE|TRUE|TRUE
5695383|NoMad Las Vegas|Las Vegas, NV| 722|36.10474|-115.17651|FALSE|TRUE|TRUE|TRUE
5695383|Arizona Charlie's Boulder|Las Vegas, NV| 118|36.12406|-115.07554|TRUE|FALSE|FALSE|TRUE
5695383|Super 8 by Wyndham Las Vegas North Strip/Fremont St. Area|Las Vegas, NV|  98|36.15606|-115.14829|TRUE|FALSE|FALSE|TRUE
5695383|The Palazzo at The Venetian|Las Vegas, NV| 504|36.12400|-115.16796|FALSE|FALSE|TRUE|TRUE
5695383|Oasis at Gold Spike - Adults Only|Las Vegas, NV| 166|36.17095|-115.13982|TRUE|FALSE|FALSE|TRUE
5695383|Mardi Gras Hotel & Casino|Las Vegas, NV| 141|36.12549|-115.15446|TRUE|FALSE|FALSE|TRUE
5695383|Shalimar Hotel of Las Vegas|Las Vegas, NV|  81|36.15492|-115.14970|TRUE|FALSE|FALSE|TRUE
5695383|Siegel Select Las Vegas Blvd.|Las Vegas, NV| 166|36.05740|-115.17087|TRUE|FALSE|FALSE|TRUE
5695383|Howard Johnson by Wyndham Las Vegas near the Strip|Las Vegas, NV|  95|36.09948|-115.16580|TRUE|TRUE|FALSE|TRUE
5695383|Alexis Park All Suite Resort|Las Vegas, NV| 214|36.10762|-115.15554|FALSE|TRUE|FALSE|TRUE
5695383|The Signature at MGM Grand (All Suites)|Las Vegas, NV| 383|36.10607|-115.16678|FALSE|TRUE|FALSE|TRUE
5695383|Extended Stay America Suites Las Vegas Valley View|Las Vegas, NV| 135|36.11248|-115.18932|TRUE|TRUE|FALSE|TRUE
5695383|Longhorn Casino & Hotel|Las Vegas, NV| 155|36.10704|-115.05916|TRUE|FALSE|FALSE|TRUE
5695383|Sunrise Inn Hotel|Las Vegas, NV| 138|36.21813|-115.12921|TRUE|FALSE|FALSE|TRUE
5695383|Tropicana Las Vegas - a DoubleTree by Hilton Hotel|Las Vegas, NV| 303|36.09963|-115.17136|FALSE|TRUE|FALSE|TRUE
5695383|Residence Inn by Marriott Las Vegas Hughes Center|Las Vegas, NV| 438|36.11576|-115.15594|FALSE|FALSE|TRUE|TRUE
5695383|Bellagio|Las Vegas, NV|1088|36.11311|-115.17701|FALSE|TRUE|TRUE|TRUE
5695383|Nobu Hotel at Caesars Palace|Las Vegas, NV| 731|36.11671|-115.17519|FALSE|TRUE|TRUE|TRUE
5695383|Holiday Inn Club Vacations at Desert Club Resort, an IHG Hotel|Las Vegas, NV| 417|36.11820|-115.16331|FALSE|FALSE|TRUE|TRUE
5695383|The Venetian Prestige Club Lounge|Las Vegas, NV| 721|36.12117|-115.16965|FALSE|FALSE|TRUE|TRUE
5695383|Courtyard by Marriott Las Vegas South|Las Vegas, NV| 418|36.08382|-115.18304|FALSE|TRUE|TRUE|TRUE
5695383|OYO Hotel and Casino Las Vegas|Las Vegas, NV| 249|36.10039|-115.16772|FALSE|TRUE|FALSE|TRUE
5695383|Conrad Las Vegas at Resorts World|Las Vegas, NV| 468|36.13448|-115.16566|FALSE|FALSE|TRUE|TRUE
5695418|Best Western Plus Suites Hotel - Los Angeles LAX Airport|Inglewood, CA| 181|33.94579|-118.36570|FALSE|TRUE|FALSE|TRUE
5695418|Casa Del Mar|Inglewood, CA| 880|34.00627|-118.49147|FALSE|FALSE|TRUE|TRUE
5695418|Central Inn Motel|Inglewood, CA|  98|34.00935|-118.25629|TRUE|FALSE|FALSE|TRUE
5695418|4 Star Motel|Inglewood, CA| 103|33.97261|-118.28232|TRUE|FALSE|FALSE|TRUE
5695418|Four Seasons Los Angeles at Beverly Hills|Inglewood, CA|1110|34.07305|-118.38934|FALSE|FALSE|TRUE|TRUE
5695418|American Hotel Los Angeles|Inglewood, CA| 113|33.96168|-118.35313|FALSE|TRUE|FALSE|TRUE
5695418|Shutters on the Beach|Inglewood, CA| 940|34.00692|-118.49169|FALSE|FALSE|TRUE|TRUE
5695418|1 Hotel West Hollywood|Inglewood, CA| 728|34.09407|-118.37570|FALSE|FALSE|TRUE|TRUE
5695418|Crenshaw Inn Motel|Inglewood, CA| 107|33.98272|-118.33132|TRUE|FALSE|FALSE|TRUE
5695418|The Maybourne Beverly Hills|Inglewood, CA|1274|34.06797|-118.39875|FALSE|FALSE|TRUE|TRUE
5695418|LAX Stadium Inn - El Segundo/Inglewood|Inglewood, CA|  97|33.93112|-118.35535|TRUE|TRUE|FALSE|TRUE
5695418|Gardena Terrace Inn|Inglewood, CA| 105|33.88616|-118.30890|TRUE|FALSE|FALSE|TRUE
5695418|Holiday Inn Los Angeles - LAX Airport, an IHG Hotel|Inglewood, CA| 174|33.94620|-118.37092|FALSE|TRUE|FALSE|TRUE
5695418|Cloud 9 Inn LAX|Inglewood, CA| 110|33.96197|-118.36567|FALSE|TRUE|FALSE|TRUE
5695418|The Peninsula Beverly Hills|Inglewood, CA|1169|34.06576|-118.41072|FALSE|FALSE|TRUE|TRUE
5695418|Park Motel|Inglewood, CA|  89|34.00815|-118.28303|TRUE|FALSE|FALSE|TRUE
5695418|Hollywood Inn Suites Hotel|Inglewood, CA|  90|33.91615|-118.29309|TRUE|FALSE|FALSE|TRUE
5695418|The Beverly Hills Hotel|Inglewood, CA|1571|33.96168|-118.35313|FALSE|TRUE|TRUE|TRUE
5695418|H3 Inn & Suites - LAX Airport - Los Angeles|Inglewood, CA| 119|33.94569|-118.36044|FALSE|TRUE|FALSE|TRUE
5695418|Antonio Hotel|Inglewood, CA|  97|33.96168|-118.35313|TRUE|TRUE|FALSE|TRUE
5695418|Wingate by Wyndham Los Angeles International Airport LAX|Inglewood, CA| 139|33.94273|-118.36961|FALSE|TRUE|FALSE|TRUE
5695418|Beverly Wilshire - Beverly Hills, A Four Seasons Hotel|Inglewood, CA|1116|34.06674|-118.40077|FALSE|FALSE|TRUE|TRUE
5695418|The London West Hollywood at Beverly Hills|Inglewood, CA| 728|34.08996|-118.38507|FALSE|FALSE|TRUE|TRUE
5695418|Royal Century Hotel|Inglewood, CA|  92|33.94491|-118.35159|TRUE|TRUE|FALSE|TRUE
5695418|L'Ermitage Beverly Hills|Inglewood, CA| 898|34.07254|-118.39540|FALSE|FALSE|TRUE|TRUE
5695418|Eastsider Motel|Inglewood, CA| 100|34.02232|-118.25272|TRUE|FALSE|FALSE|TRUE
5695418|Fairmont Century Plaza|Inglewood, CA| 755|34.05754|-118.41580|FALSE|FALSE|TRUE|TRUE
5695426|Travelodge by Wyndham Windsor|Detroit, MI|  74|42.26241| -82.97094|TRUE|FALSE|FALSE|TRUE
5695426|Baymont by Wyndham Downtown Detroit|Detroit, MI| 114|42.34123| -83.01435|TRUE|FALSE|FALSE|TRUE
5695426|Comfort Inn Windsor|Detroit, MI| 116|42.27391| -83.01523|TRUE|FALSE|FALSE|TRUE
5695426|Detroit Foundation Hotel|Detroit, MI| 256|42.32833| -83.04836|FALSE|TRUE|TRUE|TRUE
5695426|Holiday Inn Express Windsor Waterfront, an IHG Hotel|Detroit, MI| 110|42.31947| -83.03937|TRUE|FALSE|FALSE|TRUE
5695426|Hotel Chataura|Detroit, MI|  88|42.32265| -83.17231|TRUE|FALSE|FALSE|TRUE
5695426|MotorCity Casino Hotel|Detroit, MI| 240|42.33889| -83.06778|FALSE|FALSE|TRUE|TRUE
5695426|The Siren Hotel|Detroit, MI| 189|42.33574| -83.04859|FALSE|TRUE|FALSE|TRUE
5695426|Shinola Hotel|Detroit, MI| 252|42.33439| -83.04858|FALSE|TRUE|TRUE|TRUE
5695426|Hotel Indigo Detroit Downtown, an IHG Hotel|Detroit, MI| 196|42.33140| -83.05056|FALSE|TRUE|FALSE|TRUE
5695426|The Westin Book Cadillac Detroit|Detroit, MI| 278|42.33211| -83.05021|FALSE|TRUE|TRUE|TRUE
5695426|The Henry Hotel, Autograph Collection|Detroit, MI| 245|42.32036| -83.21697|FALSE|FALSE|TRUE|TRUE
5695426|TownePlace Suites by Marriott Detroit Dearborn|Detroit, MI| 116|42.33371| -83.21274|TRUE|FALSE|FALSE|TRUE
5695426|Hollywood Casino at Greektown|Detroit, MI| 184|42.33476| -83.04111|FALSE|TRUE|FALSE|TRUE
5695426|Best Western Plus Waterfront Hotel|Detroit, MI| 108|42.31881| -83.04286|TRUE|FALSE|FALSE|TRUE
5695426|Howard Johnson Plaza Hotel by Wyndham Windsor|Detroit, MI|  58|42.28575| -83.01772|TRUE|FALSE|FALSE|TRUE
5695426|Hilton Garden Inn Detroit Downtown|Detroit, MI| 194|42.33591| -83.04504|FALSE|TRUE|FALSE|TRUE
5695426|Mint House Detroit - Times Square|Detroit, MI| 198|42.33458| -83.05246|FALSE|TRUE|TRUE|TRUE
5695426|MGM Grand Detroit|Detroit, MI| 317|42.33326| -83.06006|FALSE|FALSE|TRUE|TRUE
5695426|Atheneum Suite Hotel|Detroit, MI| 194|42.33409| -83.04267|FALSE|TRUE|FALSE|TRUE
5695426|The Inn at 97 Winder|Detroit, MI| 231|42.34159| -83.05194|FALSE|TRUE|TRUE|TRUE
5695426|DoubleTree by Hilton Detroit - Dearborn|Detroit, MI| 221|42.33158| -83.21756|FALSE|FALSE|TRUE|TRUE
5695426|Detroit Marriott at the Renaissance Center|Detroit, MI| 258|42.32854| -83.04073|FALSE|FALSE|TRUE|TRUE
5695426|Stonecroft Inn|Detroit, MI| 100|42.27279| -83.01288|TRUE|FALSE|FALSE|TRUE
5695426|Comfort Inn Near Greenfield Village|Detroit, MI| 102|42.30758| -83.23197|TRUE|FALSE|FALSE|TRUE
5695436|Bellyard, West Midtown Atlanta, a Tribute Portfolio Hotel|Atlanta, GA| 227|33.78520| -84.41098|FALSE|FALSE|TRUE|TRUE
5695436|SpringHill Suites by Marriott Atlanta Downtown|Atlanta, GA| 153|33.76497| -84.39502|FALSE|TRUE|FALSE|TRUE
5695436|Econo Lodge|Atlanta, GA|  82|33.65881| -84.43356|TRUE|FALSE|FALSE|TRUE
5695436|Thompson Buckhead|Atlanta, GA| 369|33.83833| -84.37435|FALSE|FALSE|TRUE|TRUE
5695436|Wingate by Wyndham - Atlanta at Six Flags|Atlanta, GA|  72|33.84257| -84.31486|TRUE|FALSE|FALSE|TRUE
5695436|The American Hotel Atlanta Downtown - a DoubleTree by Hilton|Atlanta, GA| 144|33.75931| -84.38992|FALSE|TRUE|FALSE|TRUE
5695436|OYO Hotel Decatur I-285 The Perimeter|Atlanta, GA|  72|33.73786| -84.23582|TRUE|FALSE|FALSE|TRUE
5695436|Hyatt Place Atlanta Centennial Park|Atlanta, GA| 193|33.76254| -84.39597|FALSE|TRUE|FALSE|TRUE
5695436|Econo Lodge At Six Flags|Atlanta, GA|  89|33.77361| -84.55028|TRUE|FALSE|FALSE|TRUE
5695436|Clarion Inn & Suites Atlanta Downtown|Atlanta, GA| 148|33.74900| -84.40337|FALSE|TRUE|FALSE|TRUE
5695436|Stonehurst Place Bed & Breakfast|Atlanta, GA| 396|33.77986| -84.38057|FALSE|FALSE|TRUE|TRUE
5695436|Microtel Inn by Wyndham Atlanta Airport|Atlanta, GA|  82|33.62339| -84.45537|TRUE|FALSE|FALSE|TRUE
5695436|Renaissance Atlanta Waverly Hotel & Convention Center|Atlanta, GA| 612|33.88501| -84.46437|FALSE|FALSE|TRUE|TRUE
5695436|Omni Atlanta Hotel at CNN Center|Atlanta, GA| 252|33.75915| -84.39494|FALSE|TRUE|TRUE|TRUE
5695436|W Atlanta Downtown|Atlanta, GA| 362|33.76491| -84.38954|FALSE|TRUE|TRUE|TRUE
5695436|Quality Suites Atlanta Airport East|Atlanta, GA|  89|33.61301| -84.40140|TRUE|FALSE|FALSE|TRUE
5695436|Days Inn by Wyndham Hartsfield Jackson Atlanta Airport West|Atlanta, GA|  83|33.63341| -84.49180|TRUE|FALSE|FALSE|TRUE
5695436|Howard Johnson by Wyndham Atlanta Airport/College Park|Atlanta, GA|  79|33.61529| -84.43967|TRUE|FALSE|FALSE|TRUE
5695436|Rodeway Inn|Atlanta, GA|  65|33.74900| -84.38798|TRUE|TRUE|FALSE|TRUE
5695436|Home2 Suites by Hilton Atlanta Downtown|Atlanta, GA| 193|33.75698| -84.39114|FALSE|TRUE|FALSE|TRUE
5695436|Nobu Hotel Atlanta|Atlanta, GA| 467|33.85439| -84.36349|FALSE|FALSE|TRUE|TRUE
5695436|The Westin Peachtree Plaza, Atlanta|Atlanta, GA| 261|33.75941| -84.38836|FALSE|TRUE|TRUE|TRUE
5695436|Reverb by Hard Rock Atlanta Downtown|Atlanta, GA| 179|33.75348| -84.39925|FALSE|TRUE|FALSE|TRUE
5695436|Quality Inn Atlanta Airport - Central|Atlanta, GA|  87|33.62451| -84.45417|TRUE|FALSE|FALSE|TRUE
5695436|Omni Hotel At The Battery Atlanta|Atlanta, GA| 448|33.88944| -84.46768|FALSE|FALSE|TRUE|TRUE
5695436|Econo Lodge Conley|Atlanta, GA|  73|33.66714| -84.33847|TRUE|FALSE|FALSE|TRUE
5695436|Wylie Hotel|Atlanta, GA| 229|33.77346| -84.36887|FALSE|FALSE|TRUE|TRUE
5695437|Bellyard, West Midtown Atlanta, a Tribute Portfolio Hotel|Atlanta, GA| 227|33.78520| -84.41098|FALSE|FALSE|TRUE|TRUE
5695437|Thompson Buckhead|Atlanta, GA| 369|33.83833| -84.37435|FALSE|FALSE|TRUE|TRUE
5695437|Days Inn by Wyndham Hartsfield Jackson Atlanta Airport West|Atlanta, GA|  83|33.63341| -84.49180|TRUE|FALSE|FALSE|TRUE
5695437|Clarion Inn & Suites Atlanta Downtown|Atlanta, GA| 148|33.74900| -84.40337|FALSE|TRUE|FALSE|TRUE
5695437|Econo Lodge|Atlanta, GA|  82|33.65881| -84.43356|TRUE|FALSE|FALSE|TRUE
5695437|Econo Lodge At Six Flags|Atlanta, GA|  89|33.77361| -84.55028|TRUE|FALSE|FALSE|TRUE
5695437|Omni Atlanta Hotel at CNN Center|Atlanta, GA| 252|33.75915| -84.39494|FALSE|TRUE|TRUE|TRUE
5695437|Hyatt Place Atlanta Centennial Park|Atlanta, GA| 193|33.76254| -84.39597|FALSE|TRUE|FALSE|TRUE
5695437|The American Hotel Atlanta Downtown - a DoubleTree by Hilton|Atlanta, GA| 144|33.75931| -84.38992|FALSE|TRUE|FALSE|TRUE
5695437|Wylie Hotel|Atlanta, GA| 229|33.77346| -84.36887|FALSE|FALSE|TRUE|TRUE
5695437|Quality Inn Atlanta Airport - Central|Atlanta, GA|  87|33.62451| -84.45417|TRUE|FALSE|FALSE|TRUE
5695437|Quality Suites Atlanta Airport East|Atlanta, GA|  89|33.61301| -84.40140|TRUE|FALSE|FALSE|TRUE
5695437|Stonehurst Place Bed & Breakfast|Atlanta, GA| 396|33.77986| -84.38057|FALSE|FALSE|TRUE|TRUE
5695437|OYO Hotel Decatur I-285 The Perimeter|Atlanta, GA|  72|33.73786| -84.23582|TRUE|FALSE|FALSE|TRUE
5695437|W Atlanta Downtown|Atlanta, GA| 362|33.76491| -84.38954|FALSE|TRUE|TRUE|TRUE
5695437|Rodeway Inn|Atlanta, GA|  65|33.74900| -84.38798|TRUE|TRUE|FALSE|TRUE
5695437|Howard Johnson by Wyndham Atlanta Airport/College Park|Atlanta, GA|  79|33.61529| -84.43967|TRUE|FALSE|FALSE|TRUE
5695437|Wingate by Wyndham - Atlanta at Six Flags|Atlanta, GA|  72|33.84257| -84.31486|TRUE|FALSE|FALSE|TRUE
5695437|Omni Hotel At The Battery Atlanta|Atlanta, GA| 448|33.88944| -84.46768|FALSE|FALSE|TRUE|TRUE
5695437|Microtel Inn by Wyndham Atlanta Airport|Atlanta, GA|  82|33.62339| -84.45537|TRUE|FALSE|FALSE|TRUE
5695437|SpringHill Suites by Marriott Atlanta Downtown|Atlanta, GA| 153|33.76497| -84.39502|FALSE|TRUE|FALSE|TRUE
5695437|Renaissance Atlanta Waverly Hotel & Convention Center|Atlanta, GA| 612|33.88501| -84.46437|FALSE|FALSE|TRUE|TRUE
5695437|The Westin Peachtree Plaza, Atlanta|Atlanta, GA| 261|33.75941| -84.38836|FALSE|TRUE|TRUE|TRUE
5695437|Econo Lodge Conley|Atlanta, GA|  73|33.66714| -84.33847|TRUE|FALSE|FALSE|TRUE
5695437|Reverb by Hard Rock Atlanta Downtown|Atlanta, GA| 179|33.75348| -84.39925|FALSE|TRUE|FALSE|TRUE
5695437|Home2 Suites by Hilton Atlanta Downtown|Atlanta, GA| 193|33.75698| -84.39114|FALSE|TRUE|FALSE|TRUE
5695437|Nobu Hotel Atlanta|Atlanta, GA| 467|33.85439| -84.36349|FALSE|FALSE|TRUE|TRUE
5695474|Comfort Inn Sunnyvale - Silicon Valley|Santa Clara, CA| 105|37.39973|-122.02596|TRUE|TRUE|FALSE|TRUE
5695474|Quality Inn Santa Clara Convention Center|Santa Clara, CA| 104|37.40705|-121.99828|TRUE|TRUE|FALSE|TRUE
5695474|Hotel Vue|Santa Clara, CA|  93|37.38145|-122.07416|TRUE|FALSE|FALSE|TRUE
5695474|San Jose Marriott|Santa Clara, CA| 497|37.33038|-121.88829|FALSE|FALSE|TRUE|TRUE
5695474|Hotel De Anza, a Destination by Hyatt Hotel|Santa Clara, CA| 430|37.33442|-121.89505|FALSE|FALSE|TRUE|TRUE
5695474|Ramada by Wyndham Sunnyvale/Silicon Valley|Santa Clara, CA| 114|37.39124|-121.99159|FALSE|TRUE|FALSE|TRUE
5695474|Signature Inn Santa Clara|Santa Clara, CA| 100|37.34493|-121.93227|TRUE|FALSE|FALSE|TRUE
5695474|Hotel Valencia Santana Row|Santa Clara, CA| 468|37.32084|-121.94809|FALSE|FALSE|TRUE|TRUE
5695474|Hyatt House San Jose Airport|Santa Clara, CA| 201|37.37393|-121.91947|FALSE|FALSE|TRUE|TRUE
5695474|Santa Clara Marriott|Santa Clara, CA| 531|37.39068|-121.97426|FALSE|TRUE|TRUE|TRUE
5695474|Holiday Inn Express And Suites San Jose Airport, an IHG Hotel|Santa Clara, CA| 166|37.37572|-121.91927|FALSE|TRUE|FALSE|TRUE
5695474|Signia by Hilton San Jose|Santa Clara, CA| 419|37.33316|-121.88876|FALSE|FALSE|TRUE|TRUE
5695474|Comfort Suites San Jose Airport|Santa Clara, CA| 104|37.36352|-121.91064|TRUE|FALSE|FALSE|TRUE
5695474|AC Hotel by Marriott San Jose Santa Clara|Santa Clara, CA| 147|37.38548|-121.98044|FALSE|TRUE|FALSE|TRUE
5695474|Days Inn by Wyndham Fremont|Santa Clara, CA| 108|37.49370|-121.93218|TRUE|FALSE|FALSE|TRUE
5695474|Hilton Garden Inn San Jose/Milpitas|Santa Clara, CA| 118|37.42503|-121.92314|FALSE|TRUE|FALSE|TRUE
5695474|The Westin San Jose|Santa Clara, CA| 355|37.33102|-121.88736|FALSE|FALSE|TRUE|TRUE
5695474|Bayshore Inn|Santa Clara, CA| 557|37.36507|-121.89221|FALSE|FALSE|TRUE|TRUE
5695474|Radisson Hotel Sunnyvale – Silicon Valley|Santa Clara, CA| 124|37.40954|-122.00224|FALSE|TRUE|FALSE|TRUE
5695474|Quality Inn & Suites Silicon Valley|Santa Clara, CA| 105|37.35174|-121.97989|TRUE|FALSE|FALSE|TRUE
5695474|Courtyard by Marriott Sunnyvale Mountain View|Santa Clara, CA| 105|37.36941|-122.03957|TRUE|FALSE|FALSE|TRUE
5695474|Hotel Zico|Santa Clara, CA| 104|37.37969|-122.06857|TRUE|FALSE|FALSE|TRUE
5695474|AC Hotel by Marriott Sunnyvale Moffett Park|Santa Clara, CA| 133|37.41244|-122.02295|FALSE|TRUE|FALSE|TRUE
5695474|AC Hotel by Marriott San Jose Downtown|Santa Clara, CA| 370|37.33320|-121.89617|FALSE|FALSE|TRUE|TRUE
5695474|Delta Hotels by Marriott Santa Clara|Santa Clara, CA| 167|37.38366|-121.96216|FALSE|TRUE|FALSE|TRUE
5695474|Avante, a JDV by Hyatt Hotel|Santa Clara, CA| 108|37.37620|-122.06102|TRUE|FALSE|FALSE|TRUE
5695474|Hilton San Jose|Santa Clara, CA| 413|37.32930|-121.89058|FALSE|FALSE|TRUE|TRUE
5695474|Extended Studio Suites|Santa Clara, CA|  98|37.37558|-121.91870|TRUE|FALSE|FALSE|TRUE
5695491|Extended Stay America Suites Jacksonville St Johns Towne Ctr|Jacksonville, FL|  97|30.33218| -81.65565|FALSE|TRUE|FALSE|TRUE
5695491|Hampton Inn Jacksonville-Downtown-I-95|Jacksonville, FL| 149|30.31661| -81.65675|FALSE|TRUE|TRUE|TRUE
5695491|Homewood Suites by Hilton Jacksonville Downtown-Southbank|Jacksonville, FL| 178|30.31232| -81.65358|FALSE|TRUE|TRUE|TRUE
5695491|Quality Inn & Suites|Jacksonville, FL|  75|30.21781| -81.57070|TRUE|FALSE|FALSE|TRUE
5695491|Marriott Jacksonville Downtown|Jacksonville, FL| 793|30.32594| -81.66196|FALSE|TRUE|TRUE|TRUE
5695491|Wyndham Garden Jacksonville|Jacksonville, FL|  86|30.24914| -81.58999|TRUE|FALSE|FALSE|TRUE
5695491|Econo Lodge|Jacksonville, FL|  82|30.48362| -81.64882|TRUE|FALSE|FALSE|TRUE
5695491|Stayable Suites Jacksonville West|Jacksonville, FL|  77|30.33473| -81.75988|TRUE|FALSE|FALSE|TRUE
5695491|Stayable Suites Jacksonville North|Jacksonville, FL|  76|30.42883| -81.65767|TRUE|FALSE|FALSE|TRUE
5695491|Metro Inn & Suites|Jacksonville, FL|  60|30.36553| -81.67090|TRUE|TRUE|FALSE|TRUE
5695491|Baymont by Wyndham Jacksonville/Butler Blvd|Jacksonville, FL|  82|30.24634| -81.59905|TRUE|FALSE|FALSE|TRUE
5695491|Tru by Hilton Jacksonville South Mandarin|Jacksonville, FL| 129|30.18398| -81.63087|FALSE|FALSE|TRUE|TRUE
5695491|Residence Inn by Marriott Jacksonville Downtown|Jacksonville, FL| 202|30.32225| -81.67529|FALSE|TRUE|TRUE|TRUE
5695491|WoodSpring Suites Jacksonville I-295 East|Jacksonville, FL|  76|30.35487| -81.55643|TRUE|FALSE|FALSE|TRUE
5695491|Extended Stay America Suites Jacksonville Salisbury Rd|Jacksonville, FL|  86|30.25048| -81.59692|TRUE|FALSE|FALSE|TRUE
5695491|Southbank Hotel by Marriott Jacksonville Riverwalk|Jacksonville, FL| 202|30.24760| -81.58965|FALSE|FALSE|TRUE|TRUE
5695491|Hyatt Regency Jacksonville|Jacksonville, FL| 264|30.32438| -81.65595|FALSE|TRUE|TRUE|TRUE
5695491|Red Roof Inn Jacksonville - Cruise Port|Jacksonville, FL|  85|30.43278| -81.65759|TRUE|FALSE|FALSE|TRUE
5695491|DoubleTree by Hilton Hotel Jacksonville Riverfront|Jacksonville, FL| 193|30.32011| -81.65795|FALSE|TRUE|TRUE|TRUE
5695491|SpringHill Suites by Marriott Jacksonville|Jacksonville, FL| 141|30.26692| -81.55672|FALSE|FALSE|TRUE|TRUE
5695491|Extended Stay America Suites Jacksonville Riverwalk Conv Ctr|Jacksonville, FL| 129|30.31668| -81.65557|FALSE|TRUE|TRUE|TRUE
5695491|Hilton Garden Inn Jacksonville Downtown Southbank|Jacksonville, FL| 134|30.31250| -81.65355|FALSE|TRUE|TRUE|TRUE
5695530|Hilton Meadowlands|East Rutherford, NJ| 162|40.80516| -74.07849|FALSE|TRUE|FALSE|TRUE
5695530|Super 8 by Wyndham Meadowlands|East Rutherford, NJ|  98|40.81955| -74.06378|TRUE|TRUE|FALSE|TRUE
5695530|Penny Williamsburg|East Rutherford, NJ|  95|40.71551| -73.95272|TRUE|FALSE|FALSE|TRUE
5695530|Hotel Barriere Fouquets New York|East Rutherford, NJ| 870|40.72362| -74.00975|FALSE|FALSE|TRUE|TRUE
5695530|Hampton Inn Carlstadt-At The Meadowlands|East Rutherford, NJ| 126|40.82162| -74.06893|FALSE|TRUE|FALSE|TRUE
5695530|Canal Loft Hotel|East Rutherford, NJ|  97|40.71530| -73.99388|TRUE|FALSE|FALSE|TRUE
5695530|Rodeway Inn Meadowlands|East Rutherford, NJ|  94|40.79292| -74.05712|TRUE|TRUE|FALSE|TRUE
5695530|Refinery Hotel|East Rutherford, NJ| 468|40.75222| -73.98538|FALSE|FALSE|TRUE|TRUE
5695530|InterContinental New York Times Square, an IHG Hotel|East Rutherford, NJ| 579|40.75866| -73.98938|FALSE|FALSE|TRUE|TRUE
5695530|Meadowlands Plaza Hotel|East Rutherford, NJ| 163|40.79729| -74.06352|FALSE|TRUE|FALSE|TRUE
5695530|Rodeway Inn Capri|East Rutherford, NJ|  95|40.85428| -74.03318|TRUE|FALSE|FALSE|TRUE
5695530|The Knickerbocker Hotel|East Rutherford, NJ| 803|40.75558| -73.98627|FALSE|FALSE|TRUE|TRUE
5695530|Feather Factory|East Rutherford, NJ|  90|40.83399| -74.09709|TRUE|TRUE|FALSE|TRUE
5695530|Hotel 21 Nyc|East Rutherford, NJ|  94|40.75367| -73.94228|TRUE|FALSE|FALSE|TRUE
5695530|Extended Stay America Suites Meadowlands East Rutherford|East Rutherford, NJ| 156|40.80552| -74.07585|FALSE|TRUE|FALSE|TRUE
5695530|InterContinental New York Barclay, an IHG Hotel|East Rutherford, NJ| 469|40.75566| -73.97353|FALSE|FALSE|TRUE|TRUE
5695530|The Dominick|East Rutherford, NJ| 543|40.72547| -74.00533|FALSE|FALSE|TRUE|TRUE
5695530|The Times Square EDITION|East Rutherford, NJ| 530|40.75915| -73.98416|FALSE|FALSE|TRUE|TRUE
5695530|1 Hotel Central Park|East Rutherford, NJ| 473|40.76481| -73.97646|FALSE|FALSE|TRUE|TRUE
5695530|The Towers at Lotte New York Palace|East Rutherford, NJ| 904|40.75797| -73.97487|FALSE|FALSE|TRUE|TRUE
5695530|Courtyard by Marriott Lyndhurst Meadowlands|East Rutherford, NJ| 155|40.80967| -74.10461|FALSE|TRUE|FALSE|TRUE
5695530|Equinox Hotel New York|East Rutherford, NJ| 866|40.75465| -74.00221|FALSE|FALSE|TRUE|TRUE
5695530|Days Inn by Wyndham Jersey City / NYC Area|East Rutherford, NJ|  89|40.75580| -74.05475|TRUE|FALSE|FALSE|TRUE
5695530|Americana Inn|East Rutherford, NJ|  98|40.75229| -73.98555|TRUE|FALSE|FALSE|TRUE
5695530|Renaissance Meadowlands Hotel|East Rutherford, NJ| 234|40.81150| -74.10409|FALSE|TRUE|FALSE|TRUE
5695530|Voyage Hotel|East Rutherford, NJ|  88|40.75973| -73.94108|TRUE|FALSE|FALSE|TRUE
5695530|Extended Stay America Suites Meadowlands Rutherford|East Rutherford, NJ| 140|40.80552| -74.07585|FALSE|TRUE|FALSE|TRUE
5695547|Econo Lodge South|Orchard Park, NY| 142|42.79112| -78.81852|TRUE|TRUE|FALSE|TRUE
5695547|Staybridge Suites West Seneca, an IHG Hotel|Orchard Park, NY| 303|42.83590| -78.75389|FALSE|TRUE|TRUE|TRUE
5695547|Hampton Inn Buffalo-Hamburg|Orchard Park, NY| 232|42.73895| -78.84579|FALSE|TRUE|TRUE|TRUE
5695547|Baymont by Wyndham Buffalo|Orchard Park, NY| 113|42.90827| -78.75244|TRUE|FALSE|FALSE|TRUE
5695547|Hotel at the Lafayette Trademark Collection by Wyndham|Orchard Park, NY| 192|42.88496| -78.87294|FALSE|TRUE|TRUE|TRUE
5695547|Roycroft Inn|Orchard Park, NY| 184|42.76695| -78.61754|FALSE|TRUE|FALSE|TRUE
5695547|Hampton Inn East Aurora|Orchard Park, NY| 482|42.76626| -78.60822|FALSE|FALSE|TRUE|TRUE
5695547|Quality Inn Hamburg|Orchard Park, NY|  81|42.73895| -78.84579|TRUE|TRUE|FALSE|TRUE
5695547|Comfort Inn And Suites Hamburg|Orchard Park, NY| 613|42.73984| -78.85089|FALSE|TRUE|TRUE|TRUE
5695547|Hampton Inn Buffalo South/I-90|Orchard Park, NY| 223|42.82988| -78.78885|FALSE|TRUE|TRUE|TRUE
5695547|Curtiss Hotel, Ascend Hotel Collection|Orchard Park, NY| 272|42.88951| -78.87597|FALSE|FALSE|TRUE|TRUE
5695547|Holiday Inn Express Cheektowaga North East, an IHG Hotel|Orchard Park, NY| 122|42.90663| -78.77103|TRUE|FALSE|FALSE|TRUE
5695547|Best Western on the Avenue|Orchard Park, NY| 136|42.89826| -78.87487|TRUE|FALSE|FALSE|TRUE
5695547|Home2 Suites by Hilton Buffalo Airport / Galleria Mall|Orchard Park, NY| 125|42.90555| -78.76556|TRUE|FALSE|FALSE|TRUE
5695547|Buffalo Marriott at LECOM HARBORCENTER|Orchard Park, NY| 265|42.87682| -78.87707|FALSE|TRUE|TRUE|TRUE
5695547|Residence Inn by Marriott Buffalo Galleria Mall|Orchard Park, NY| 158|42.90729| -78.77037|TRUE|FALSE|FALSE|TRUE
5695547|Hyatt Regency Buffalo / Hotel and Conference Center|Orchard Park, NY| 177|42.88852| -78.87404|TRUE|FALSE|FALSE|TRUE
5695547|Hampton Inn Buffalo-Airport / Galleria Mall|Orchard Park, NY| 147|42.90747| -78.77238|TRUE|FALSE|FALSE|TRUE
5695547|M Hotel Buffalo|Orchard Park, NY| 105|42.90977| -78.76056|TRUE|FALSE|FALSE|TRUE
5695547|Courtyard Buffalo Downtown / Canalside|Orchard Park, NY| 419|42.87817| -78.87631|FALSE|TRUE|TRUE|TRUE
5695547|The Mansion On Delaware Ave|Orchard Park, NY| 200|42.89561| -78.87544|FALSE|FALSE|TRUE|TRUE
5695568|Kimpton Hotel Born, an IHG Hotel|Denver, CO| 316|39.75327|-105.00203|FALSE|TRUE|TRUE|TRUE
5695568|Grand Hyatt Denver|Denver, CO| 196|39.74582|-104.98920|FALSE|FALSE|TRUE|TRUE
5695568|Hyatt Regency Denver at Colorado Convention Center|Denver, CO| 168|39.74340|-104.99365|FALSE|FALSE|TRUE|TRUE
5695568|Hilton Denver City Center|Denver, CO| 157|39.74720|-104.99052|FALSE|FALSE|TRUE|TRUE
5695568|Thompson Denver|Denver, CO| 290|39.74987|-104.99779|FALSE|TRUE|TRUE|TRUE
5695568|The Slate Denver, Tapestry Collection By Hilton|Denver, CO| 122|39.74091|-104.99477|FALSE|TRUE|FALSE|TRUE
5695568|Hyatt Centric Downtown Denver|Denver, CO| 161|39.74803|-104.99148|FALSE|FALSE|TRUE|TRUE
5695568|Tru By Hilton Denver Downtown Convention Center|Denver, CO| 137|39.74523|-104.99427|FALSE|TRUE|FALSE|TRUE
5695568|Super 8 by Wyndham Wheat Ridge/Denver West|Denver, CO|  85|39.78234|-105.10855|TRUE|FALSE|FALSE|TRUE
5695568|Hotel Indigo Denver Downtown, an IHG Hotel|Denver, CO| 194|39.75556|-105.00010|FALSE|TRUE|TRUE|TRUE
5695568|Quality Inn Denver Westminster|Denver, CO|  83|39.85124|-105.04978|TRUE|FALSE|FALSE|TRUE
5695568|HomeTowne Studios by Red Roof Denver - Thornton|Denver, CO|  84|39.91235|-104.98863|TRUE|FALSE|FALSE|TRUE
5695568|Four Seasons Hotel Denver|Denver, CO| 793|39.74648|-104.99819|FALSE|TRUE|TRUE|TRUE
5695568|Hyatt Place Denver Downtown|Denver, CO| 157|39.74155|-104.99290|FALSE|FALSE|TRUE|TRUE
5695568|HomeTowne Studios by Red Roof Denver - Glendale/Cherry Creek|Denver, CO|  80|39.70810|-104.93090|TRUE|FALSE|FALSE|TRUE
5695568|Days Inn by Wyndham Denver Downtown|Denver, CO|  78|39.73973|-104.97571|TRUE|FALSE|FALSE|TRUE
5695568|Quality Inn Denver Downtown|Denver, CO|  97|39.75547|-105.01757|FALSE|TRUE|FALSE|TRUE
5695568|SpringHill Suites by Marriott Denver Downtown|Denver, CO| 150|39.74729|-105.00414|FALSE|TRUE|FALSE|TRUE
5695568|Rodeway Inn Denver Downtown|Denver, CO|  97|39.75575|-105.01639|FALSE|TRUE|FALSE|TRUE
5695568|Extended Stay America Suites Denver Lakewood South|Denver, CO|  84|39.65060|-105.07935|TRUE|FALSE|FALSE|TRUE
5695568|Super 8 by Wyndham Henderson North East Denver|Denver, CO|  69|39.86165|-104.91073|TRUE|FALSE|FALSE|TRUE
5695568|The Curtis Denver - a DoubleTree by Hilton Hotel|Denver, CO| 162|39.74573|-104.99707|FALSE|TRUE|TRUE|TRUE
5695568|The Ritz-Carlton, Denver|Denver, CO| 579|39.75014|-104.99188|FALSE|FALSE|TRUE|TRUE
5695568|HomeTowne Studios by Red Roof Denver - Lakewood West|Denver, CO|  83|39.72818|-105.11027|TRUE|FALSE|FALSE|TRUE
5695568|Americas Best Value Inn Denver|Denver, CO|  84|39.77242|-104.84902|TRUE|FALSE|FALSE|TRUE
5695568|Super 8 by Wyndham Denver Central|Denver, CO|  78|39.80329|-104.98653|TRUE|FALSE|FALSE|TRUE
5695586|Le Méridien Indianapolis|Indianapolis, IN| 245|39.76514| -86.15965|FALSE|TRUE|TRUE|TRUE
5695586|Holiday Inn Indianapolis Downtown, an IHG Hotel|Indianapolis, IN| 132|39.76010| -86.16702|FALSE|TRUE|FALSE|TRUE
5695586|Homewood Suites by Hilton Indianapolis-Downtown|Indianapolis, IN| 138|39.76381| -86.15772|FALSE|TRUE|FALSE|TRUE
5695586|Hotel Indy, Indianapolis, a Tribute Portfolio Hotel|Indianapolis, IN| 215|39.76633| -86.15474|FALSE|FALSE|TRUE|TRUE
5695586|Sleep Inn|Indianapolis, IN|  75|39.76840| -86.15807|TRUE|FALSE|FALSE|TRUE
5695586|Studio 6 Indianapolis, IN|Indianapolis, IN|  69|39.82268| -86.27231|TRUE|FALSE|FALSE|TRUE
5695586|Conrad Indianapolis|Indianapolis, IN| 248|39.76743| -86.15920|FALSE|FALSE|TRUE|TRUE
5695586|Comfort Inn Indianapolis South I-65|Indianapolis, IN|  78|39.71476| -86.12201|TRUE|FALSE|FALSE|TRUE
5695586|Quality Inn South|Indianapolis, IN|  74|39.69870| -86.18827|TRUE|FALSE|FALSE|TRUE
5695586|Omni Severin Hotel|Indianapolis, IN| 168|39.76381| -86.15980|FALSE|TRUE|FALSE|TRUE
5695586|Hilton Indianapolis Hotel & Suites|Indianapolis, IN| 181|39.76893| -86.16062|FALSE|FALSE|TRUE|TRUE
5695586|Extended Stay America Suites Indianapolis Airport W Southern|Indianapolis, IN|  74|39.72960| -86.25363|TRUE|FALSE|FALSE|TRUE
5695586|Hyatt Place Indianapolis Downtown|Indianapolis, IN| 164|39.76461| -86.15676|FALSE|TRUE|FALSE|TRUE
5695586|The Alexander, a Dolce by Wyndham|Indianapolis, IN| 228|39.76179| -86.15447|FALSE|FALSE|TRUE|TRUE
5695586|The Westin Indianapolis|Indianapolis, IN| 188|39.76647| -86.16359|FALSE|TRUE|TRUE|TRUE
5695586|JW Marriott Indianapolis|Indianapolis, IN| 221|39.76659| -86.16769|FALSE|FALSE|TRUE|TRUE
5695586|La Quinta Inn by Wyndham Indianapolis Airport Lynhurst|Indianapolis, IN|  77|39.72898| -86.25133|TRUE|FALSE|FALSE|TRUE
5695586|Marriott Indianapolis Downtown|Indianapolis, IN| 167|39.76663| -86.16481|FALSE|TRUE|FALSE|TRUE
5695586|Quality Inn & Suites|Indianapolis, IN|  55|39.84322| -86.25248|TRUE|FALSE|FALSE|TRUE
5695586|Hyatt Regency Indianapolis|Indianapolis, IN| 198|39.76636| -86.16082|FALSE|TRUE|TRUE|TRUE
5695586|Quality Inn East|Indianapolis, IN|  74|39.79725| -86.04365|TRUE|FALSE|FALSE|TRUE
5695586|Staybridge Suites Indianapolis Downtown - Convention Center, an IHG Hotel|Indianapolis, IN| 151|39.75950| -86.16708|FALSE|TRUE|FALSE|TRUE
5695586|Bottleworks Hotel|Indianapolis, IN| 287|39.77909| -86.14340|FALSE|FALSE|TRUE|TRUE
5695586|Tru By Hilton Indianapolis Downtown, IN|Indianapolis, IN| 128|39.75889| -86.15967|FALSE|TRUE|FALSE|TRUE
5695586|Extended Stay America Suites Indianapolis Airport|Indianapolis, IN|  73|39.72538| -86.26306|TRUE|FALSE|FALSE|TRUE
5695586|Baymont by Wyndham Indianapolis West|Indianapolis, IN|  75|39.82521| -86.27816|TRUE|FALSE|FALSE|TRUE
5695586|Speedway Charm|Indianapolis, IN| 190|39.78119| -86.24191|FALSE|FALSE|TRUE|TRUE
5695604|Arrowhead Inn|Kansas City, MO|  63|39.06911| -94.51370|TRUE|TRUE|FALSE|TRUE
5695604|Super 8 by Wyndham Kansas City|Kansas City, MO|  90|39.17290| -94.49450|TRUE|FALSE|FALSE|TRUE
5695604|Hotel Phillips Kansas City Curio Collection by Hilton|Kansas City, MO| 172|39.10014| -94.58468|FALSE|FALSE|TRUE|TRUE
5695604|Econo Lodge Kansas City Downtown North|Kansas City, MO|  69|39.14696| -94.55791|TRUE|FALSE|FALSE|TRUE
5695604|WoodSpring Suites Kansas City Mission|Kansas City, MO|  77|39.04066| -94.66719|TRUE|FALSE|FALSE|TRUE
5695604|The Westin Kansas City at Crown Center|Kansas City, MO| 296|39.08335| -94.58284|FALSE|TRUE|TRUE|TRUE
5695604|Clarion Pointe|Kansas City, MO|  74|39.04711| -94.41583|TRUE|TRUE|FALSE|TRUE
5695604|La Quinta Inn by Wyndham Kansas City North|Kansas City, MO|  66|39.14712| -94.55866|TRUE|FALSE|FALSE|TRUE
5695604|The Fontaine|Kansas City, MO| 220|39.04007| -94.59850|FALSE|FALSE|TRUE|TRUE
5695604|AC Hotel Kansas City Plaza|Kansas City, MO| 181|39.05230| -94.59354|FALSE|TRUE|TRUE|TRUE
5695604|Extended Stay America Suites Kansas City South|Kansas City, MO|  70|38.95238| -94.50793|TRUE|FALSE|FALSE|TRUE
5695604|Extended Stay America Select Suites - Kansas City - Stadium|Kansas City, MO| 107|39.05517| -94.47950|FALSE|TRUE|FALSE|TRUE
5695604|Best Western Country Inn - North|Kansas City, MO|  87|39.17105| -94.54752|TRUE|FALSE|FALSE|TRUE
5695604|The Raphael Hotel, Autograph Collection|Kansas City, MO| 634|39.03952| -94.59124|FALSE|TRUE|TRUE|TRUE
5695604|Hotel Lotus|Kansas City, MO| 419|39.05315| -94.47464|FALSE|TRUE|TRUE|TRUE
5695604|SureStay Plus Hotel by Best Western Kansas City Northeast|Kansas City, MO|  95|39.16752| -94.49565|TRUE|FALSE|FALSE|TRUE
5695604|Kansas City Marriott Downtown|Kansas City, MO| 379|39.10045| -94.58628|FALSE|FALSE|TRUE|TRUE
5695604|La Quinta Inn & Suites by Wyndham Kansas City Beacon Hill|Kansas City, MO| 160|39.08404| -94.57033|FALSE|TRUE|FALSE|TRUE
5695604|Courtyard by Marriott Kansas City Downtown/Convention Center|Kansas City, MO| 233|39.09506| -94.58421|FALSE|FALSE|TRUE|TRUE
5695604|Fairfield Inn Kansas City Downtown/Union Hill by Marriott|Kansas City, MO| 165|39.07261| -94.58462|FALSE|TRUE|TRUE|TRUE
5695604|Best Western Premier Kansas City Sports Complex Hotel|Kansas City, MO| 384|39.04947| -94.47401|FALSE|TRUE|TRUE|TRUE
5695604|Baymont by Wyndham Kansas City KU Medical Center|Kansas City, MO|  85|39.06629| -94.61417|TRUE|FALSE|FALSE|TRUE
5695636|Lodge Kohler|Green Bay, WI| 276|44.50229| -88.06497|FALSE|TRUE|TRUE|TRUE
5695636|Nuks Executive Suites|Green Bay, WI| 114|44.45023| -88.06188|TRUE|FALSE|FALSE|TRUE
5695636|Wingate by Wyndham Green Bay/Airport|Green Bay, WI|  87|44.49453| -88.12332|TRUE|FALSE|FALSE|TRUE
5695636|Aloft Green Bay, a Marriott Hotel|Green Bay, WI| 146|44.47844| -88.05245|FALSE|TRUE|TRUE|TRUE
5695636|My Place Hotel - Green Bay|Green Bay, WI| 113|44.49021| -88.05939|TRUE|TRUE|FALSE|TRUE
5695636|Hotel Northland, Autograph Collection|Green Bay, WI| 225|44.51578| -88.01287|FALSE|FALSE|TRUE|TRUE
5695636|Delta Hotels by Marriott Green Bay|Green Bay, WI| 134|44.47603| -88.07774|FALSE|TRUE|TRUE|TRUE
5695636|St. Brendan's Inn|Green Bay, WI| 119|44.51239| -88.01794|FALSE|FALSE|TRUE|TRUE
5695636|AmericInn by Wyndham Green Bay East|Green Bay, WI| 109|44.47000| -87.95382|TRUE|FALSE|FALSE|TRUE
5695636|Hawthorn Suites by Wyndham Green Bay|Green Bay, WI| 132|44.48523| -88.02414|FALSE|TRUE|TRUE|TRUE
5695636|Baymont by Wyndham Green Bay|Green Bay, WI|  73|44.47234| -88.07631|TRUE|TRUE|FALSE|TRUE
5695636|Comfort Suites|Green Bay, WI| 132|44.54140| -88.07224|FALSE|FALSE|TRUE|TRUE
5695636|AmericInn by Wyndham Green Bay Near Stadium|Green Bay, WI| 113|44.47346| -88.07673|TRUE|TRUE|FALSE|TRUE
5695636|Kress Inn, Ascend Hotel Collection|Green Bay, WI| 116|44.44574| -88.06906|TRUE|FALSE|FALSE|TRUE
5695636|Hotel J Green Bay|Green Bay, WI|  91|44.49177| -88.10755|TRUE|FALSE|FALSE|TRUE
5695636|Residence Inn by Marriott Green Bay Downtown|Green Bay, WI| 137|44.48014| -88.05150|FALSE|TRUE|TRUE|TRUE
5695636|Radisson Conference Center Green Bay|Green Bay, WI| 156|44.49726| -88.12233|FALSE|FALSE|TRUE|TRUE
5695636|Extended Stay Airport|Green Bay, WI|  75|44.49157| -88.10388|TRUE|TRUE|FALSE|TRUE
5695636|Hampton Inn Green Bay|Green Bay, WI| 120|44.47250| -88.07842|FALSE|TRUE|TRUE|TRUE
5695636|AmericInn by Wyndham Green Bay West|Green Bay, WI| 108|44.55953| -88.06557|TRUE|FALSE|FALSE|TRUE
5695637|Hampton Inn Green Bay|Green Bay, WI| 120|44.47250| -88.07842|FALSE|TRUE|TRUE|TRUE
5695637|Lodge Kohler|Green Bay, WI| 276|44.50229| -88.06497|FALSE|TRUE|TRUE|TRUE
5695637|AmericInn by Wyndham Green Bay Near Stadium|Green Bay, WI| 113|44.47346| -88.07673|TRUE|TRUE|FALSE|TRUE
5695637|Extended Stay Airport|Green Bay, WI|  75|44.49157| -88.10388|TRUE|TRUE|FALSE|TRUE
5695637|Delta Hotels by Marriott Green Bay|Green Bay, WI| 134|44.47603| -88.07774|FALSE|TRUE|TRUE|TRUE
5695637|St. Brendan's Inn|Green Bay, WI| 119|44.51239| -88.01794|FALSE|FALSE|TRUE|TRUE
5695637|Baymont by Wyndham Green Bay|Green Bay, WI|  73|44.47234| -88.07631|TRUE|TRUE|FALSE|TRUE
5695637|AmericInn by Wyndham Green Bay East|Green Bay, WI| 109|44.47000| -87.95382|TRUE|FALSE|FALSE|TRUE
5695637|Hotel J Green Bay|Green Bay, WI|  91|44.49177| -88.10755|TRUE|FALSE|FALSE|TRUE
5695637|Kress Inn, Ascend Hotel Collection|Green Bay, WI| 116|44.44574| -88.06906|TRUE|FALSE|FALSE|TRUE
5695637|Hawthorn Suites by Wyndham Green Bay|Green Bay, WI| 132|44.48523| -88.02414|FALSE|TRUE|TRUE|TRUE
5695637|Hotel Northland, Autograph Collection|Green Bay, WI| 225|44.51578| -88.01287|FALSE|FALSE|TRUE|TRUE
5695637|Comfort Suites|Green Bay, WI| 132|44.54140| -88.07224|FALSE|FALSE|TRUE|TRUE
5695637|Aloft Green Bay, a Marriott Hotel|Green Bay, WI| 146|44.47844| -88.05245|FALSE|TRUE|TRUE|TRUE
5695637|My Place Hotel - Green Bay|Green Bay, WI| 113|44.49021| -88.05939|TRUE|TRUE|FALSE|TRUE
5695637|AmericInn by Wyndham Green Bay West|Green Bay, WI| 108|44.55953| -88.06557|TRUE|FALSE|FALSE|TRUE
5695637|Wingate by Wyndham Green Bay/Airport|Green Bay, WI|  87|44.49453| -88.12332|TRUE|FALSE|FALSE|TRUE
5695637|Radisson Conference Center Green Bay|Green Bay, WI| 156|44.49726| -88.12233|FALSE|FALSE|TRUE|TRUE
5695637|Nuks Executive Suites|Green Bay, WI| 114|44.45023| -88.06188|TRUE|FALSE|FALSE|TRUE
5695637|Residence Inn by Marriott Green Bay Downtown|Green Bay, WI| 137|44.48014| -88.05150|FALSE|TRUE|TRUE|TRUE
5695654|21c Museum Hotel Cincinnati|Cincinnati, OH| 246|39.10309| -84.51211|FALSE|TRUE|TRUE|TRUE
5695654|Best Western Inn Florence|Cincinnati, OH|  74|39.00272| -84.64350|TRUE|FALSE|FALSE|TRUE
5695654|Comfort Inn Airport Turfway Road|Cincinnati, OH|  93|39.01822| -84.63518|TRUE|FALSE|FALSE|TRUE
5695654|Super 8 by Wyndham Fort Mitchell Cincinnati Area|Cincinnati, OH|  69|39.04846| -84.57065|TRUE|FALSE|FALSE|TRUE
5695654|Red Roof Inn Cincinnati Airport–Florence/ Erlanger|Cincinnati, OH|  72|39.02683| -84.61616|TRUE|FALSE|FALSE|TRUE
5695654|Cincinnati Marriott at RiverCenter|Cincinnati, OH| 180|39.08977| -84.51207|FALSE|TRUE|FALSE|TRUE
5695654|Comfort Suites Cincinnati Airport|Cincinnati, OH|  95|39.07720| -84.66093|TRUE|FALSE|FALSE|TRUE
5695654|Holiday Inn Cincinnati-Riverfront, an IHG Hotel|Cincinnati, OH| 129|39.08798| -84.52047|FALSE|TRUE|FALSE|TRUE
5695654|The Cincinnatian Hotel Curio Collection by Hilton|Cincinnati, OH| 180|39.10258| -84.51382|FALSE|TRUE|FALSE|TRUE
5695654|Extended Stay America Select Suites - Cincinnati - Florence - Airport|Cincinnati, OH|  90|39.01055| -84.63280|TRUE|FALSE|FALSE|TRUE
5695654|AC Hotel by Marriott Cincinnati at The Banks|Cincinnati, OH| 220|39.09686| -84.50870|FALSE|TRUE|TRUE|TRUE
5695654|Days Inn by Wyndham Fort Wright Cincinnati Area|Cincinnati, OH|  57|39.05662| -84.54476|TRUE|FALSE|FALSE|TRUE
5695654|Springhill Suites by Marriott Midtown Cincinnati|Cincinnati, OH| 201|39.11798| -84.49864|FALSE|FALSE|TRUE|TRUE
5695654|The Lytle Park Hotel, Autograph Collection|Cincinnati, OH| 297|39.10119| -84.50339|FALSE|FALSE|TRUE|TRUE
5695654|Wildwood Inn Tropical Dome & Theme Suites|Cincinnati, OH|  95|38.99075| -84.63626|TRUE|FALSE|FALSE|TRUE
5695654|Embassy Suites by Hilton Cincinnati RiverCenter|Cincinnati, OH| 151|39.08998| -84.51117|FALSE|TRUE|FALSE|TRUE
5695654|The Summit Hotel|Cincinnati, OH| 235|39.15853| -84.40339|FALSE|FALSE|TRUE|TRUE
5695654|Days Inn by Wyndham Florence Cincinnati Area|Cincinnati, OH|  71|39.00929| -84.63429|TRUE|FALSE|FALSE|TRUE
5695654|Symphony Hotel & Restaurant|Cincinnati, OH| 188|39.11017| -84.51921|FALSE|FALSE|TRUE|TRUE
5695654|The Westin Cincinnati|Cincinnati, OH| 200|39.10075| -84.51230|FALSE|TRUE|TRUE|TRUE
5695654|Quality Inn & Suites|Cincinnati, OH|  76|39.10357| -84.52874|TRUE|FALSE|FALSE|TRUE
5695654|Wingate by Wyndham Erlanger/Cincinnati|Cincinnati, OH|  95|39.02865| -84.61225|TRUE|FALSE|FALSE|TRUE
5695654|Holiday Inn Cincinnati Airport, an IHG Hotel|Cincinnati, OH|  88|39.05686| -84.62768|TRUE|FALSE|FALSE|TRUE
5695654|TownePlace Suites by Marriott Cincinnati Downtown|Cincinnati, OH| 186|39.10361| -84.51569|FALSE|TRUE|FALSE|TRUE
5695654|Hilton Cincinnati Netherland Plaza|Cincinnati, OH| 200|39.10074| -84.51397|FALSE|TRUE|TRUE|TRUE
5695654|Hotel Covington Cincinnati Riverfront|Cincinnati, OH| 223|39.08364| -84.50997|FALSE|FALSE|TRUE|TRUE
5695654|Kinley Cincinnati Downtown, a Tribute Portfolio Hotel|Cincinnati, OH| 276|39.10334| -84.51504|FALSE|TRUE|TRUE|TRUE
5695655|Hotel Covington Cincinnati Riverfront|Cincinnati, OH| 223|39.08364| -84.50997|FALSE|FALSE|TRUE|TRUE
5695655|Extended Stay America Select Suites - Cincinnati - Florence - Airport|Cincinnati, OH|  90|39.01055| -84.63280|TRUE|FALSE|FALSE|TRUE
5695655|Embassy Suites by Hilton Cincinnati RiverCenter|Cincinnati, OH| 151|39.08998| -84.51117|FALSE|TRUE|FALSE|TRUE
5695655|21c Museum Hotel Cincinnati|Cincinnati, OH| 246|39.10309| -84.51211|FALSE|TRUE|TRUE|TRUE
5695655|Days Inn by Wyndham Fort Wright Cincinnati Area|Cincinnati, OH|  57|39.05662| -84.54476|TRUE|FALSE|FALSE|TRUE
5695655|Super 8 by Wyndham Fort Mitchell Cincinnati Area|Cincinnati, OH|  69|39.04846| -84.57065|TRUE|FALSE|FALSE|TRUE
5695655|Comfort Inn Airport Turfway Road|Cincinnati, OH|  93|39.01822| -84.63518|TRUE|FALSE|FALSE|TRUE
5695655|Holiday Inn Cincinnati Airport, an IHG Hotel|Cincinnati, OH|  88|39.05686| -84.62768|TRUE|FALSE|FALSE|TRUE
5695655|Hilton Cincinnati Netherland Plaza|Cincinnati, OH| 200|39.10074| -84.51397|FALSE|TRUE|TRUE|TRUE
5695655|Comfort Suites Cincinnati Airport|Cincinnati, OH|  95|39.07720| -84.66093|TRUE|FALSE|FALSE|TRUE
5695655|Kinley Cincinnati Downtown, a Tribute Portfolio Hotel|Cincinnati, OH| 276|39.10334| -84.51504|FALSE|TRUE|TRUE|TRUE
5695655|Days Inn by Wyndham Florence Cincinnati Area|Cincinnati, OH|  71|39.00929| -84.63429|TRUE|FALSE|FALSE|TRUE
5695655|Wingate by Wyndham Erlanger/Cincinnati|Cincinnati, OH|  95|39.02865| -84.61225|TRUE|FALSE|FALSE|TRUE
5695655|Quality Inn & Suites|Cincinnati, OH|  76|39.10357| -84.52874|TRUE|FALSE|FALSE|TRUE
5695655|Springhill Suites by Marriott Midtown Cincinnati|Cincinnati, OH| 201|39.11798| -84.49864|FALSE|FALSE|TRUE|TRUE
5695655|The Cincinnatian Hotel Curio Collection by Hilton|Cincinnati, OH| 180|39.10258| -84.51382|FALSE|TRUE|FALSE|TRUE
5695655|TownePlace Suites by Marriott Cincinnati Downtown|Cincinnati, OH| 186|39.10361| -84.51569|FALSE|TRUE|FALSE|TRUE
5695655|AC Hotel by Marriott Cincinnati at The Banks|Cincinnati, OH| 220|39.09686| -84.50870|FALSE|TRUE|TRUE|TRUE
5695655|The Westin Cincinnati|Cincinnati, OH| 200|39.10075| -84.51230|FALSE|TRUE|TRUE|TRUE
5695655|Holiday Inn Cincinnati-Riverfront, an IHG Hotel|Cincinnati, OH| 129|39.08798| -84.52047|FALSE|TRUE|FALSE|TRUE
5695655|The Summit Hotel|Cincinnati, OH| 235|39.15853| -84.40339|FALSE|FALSE|TRUE|TRUE
5695655|The Lytle Park Hotel, Autograph Collection|Cincinnati, OH| 297|39.10119| -84.50339|FALSE|FALSE|TRUE|TRUE
5695655|Best Western Inn Florence|Cincinnati, OH|  74|39.00272| -84.64350|TRUE|FALSE|FALSE|TRUE
5695655|Red Roof Inn Cincinnati Airport–Florence/ Erlanger|Cincinnati, OH|  72|39.02683| -84.61616|TRUE|FALSE|FALSE|TRUE
5695655|Wildwood Inn Tropical Dome & Theme Suites|Cincinnati, OH|  95|38.99075| -84.63626|TRUE|FALSE|FALSE|TRUE
5695655|Cincinnati Marriott at RiverCenter|Cincinnati, OH| 180|39.08977| -84.51207|FALSE|TRUE|FALSE|TRUE
5695655|Symphony Hotel & Restaurant|Cincinnati, OH| 188|39.11017| -84.51921|FALSE|FALSE|TRUE|TRUE
5695712|Baltimore Marriott Inner Harbor at Camden Yards|Baltimore, MD| 157|39.28701| -76.62109|FALSE|TRUE|TRUE|TRUE
5695712|Kimpton Hotel Monaco Baltimore Inner Harbor, an IHG Hotel|Baltimore, MD| 158|39.28984| -76.61541|FALSE|TRUE|TRUE|TRUE
5695712|Delta Hotels by Marriott Baltimore Inner Harbor|Baltimore, MD| 115|39.28866| -76.61461|FALSE|TRUE|FALSE|TRUE
5695712|Hyatt Regency Baltimore Inner Harbor|Baltimore, MD| 150|39.28490| -76.61411|FALSE|TRUE|TRUE|TRUE
5695712|Wingate by Wyndham Baltimore BWI Airport|Baltimore, MD|  85|39.19738| -76.68675|TRUE|FALSE|FALSE|TRUE
5695712|Four Seasons Hotel Baltimore|Baltimore, MD| 664|39.28274| -76.60247|FALSE|FALSE|TRUE|TRUE
5695712|Ramada by Wyndham Baltimore West|Baltimore, MD|  69|39.28539| -76.75795|TRUE|FALSE|FALSE|TRUE
5695712|Red Roof Inn PLUS+ Baltimore - Washington DC/BWI Airport|Baltimore, MD|  79|39.19699| -76.68607|TRUE|FALSE|FALSE|TRUE
5695712|Howard Johnson by Wyndham Pikesville|Baltimore, MD|  69|39.36775| -76.71582|TRUE|FALSE|FALSE|TRUE
5695712|Baltimore Marriott Waterfront|Baltimore, MD| 159|39.28357| -76.60299|FALSE|FALSE|TRUE|TRUE
5695712|Econo Lodge|Baltimore, MD|  74|39.29039| -76.61219|TRUE|TRUE|FALSE|TRUE
5695712|Hilton Baltimore Inner Harbor|Baltimore, MD| 194|39.28377| -76.60160|FALSE|FALSE|TRUE|TRUE
5695712|Sagamore Pendry Baltimore|Baltimore, MD| 494|39.28111| -76.59191|FALSE|FALSE|TRUE|TRUE
5695712|Renaissance Baltimore Harborplace Hotel|Baltimore, MD| 139|39.28730| -76.61137|FALSE|TRUE|FALSE|TRUE
5695712|Hotel Indigo Baltimore Downtown, an IHG Hotel|Baltimore, MD| 159|39.29519| -76.61676|FALSE|FALSE|TRUE|TRUE
5695712|Red Roof Inn Baltimore|Baltimore, MD|  72|39.43815| -76.63200|TRUE|FALSE|FALSE|TRUE
5695712|Red Roof Inn PLUS+ Baltimore - Washington DC/BWI South|Baltimore, MD|  79|39.17123| -76.73662|TRUE|FALSE|FALSE|TRUE
5695712|La Quinta Inn & Suites by Wyndham Baltimore Downtown|Baltimore, MD|  94|39.29312| -76.61832|FALSE|TRUE|FALSE|TRUE
5695712|Extended Stay America Suites Baltimore BWI International Dr|Baltimore, MD|  86|39.17740| -76.66839|TRUE|FALSE|FALSE|TRUE
5695712|Clarion Hotel BWI Airport Arundel Mills|Baltimore, MD|  78|39.17290| -76.73298|TRUE|FALSE|FALSE|TRUE
5695712|Extended Stay America Suites Baltimore BWI Airport Aero Dr|Baltimore, MD|  86|39.21115| -76.67681|TRUE|FALSE|FALSE|TRUE
5695712|Days Inn by Wyndham Towson|Baltimore, MD|  78|39.39808| -76.56449|TRUE|FALSE|FALSE|TRUE
5695712|The Royal Sonesta Harbor Court Baltimore|Baltimore, MD| 178|39.28269| -76.61411|FALSE|TRUE|TRUE|TRUE
5695712|Hampton Inn Baltimore-Downtown-Convention Center|Baltimore, MD| 131|39.28547| -76.62324|FALSE|TRUE|FALSE|TRUE
5695712|Lord Baltimore Hotel|Baltimore, MD| 175|39.28970| -76.61612|FALSE|TRUE|TRUE|TRUE
5695730|Wyndham Garden Pittsburgh Airport|Pittsburgh, PA|  96|40.46570| -80.19865|TRUE|FALSE|FALSE|TRUE
5695730|Sonesta Simply Suites Pittsburgh Airport|Pittsburgh, PA|  96|40.44908| -80.18300|TRUE|FALSE|FALSE|TRUE
5695730|Extended Stay America Suites Pittsburgh West Mifflin|Pittsburgh, PA|  87|40.36340| -79.86644|TRUE|FALSE|FALSE|TRUE
5695730|Quality Inn Pittsburgh Airport|Pittsburgh, PA|  91|40.44527| -80.17221|TRUE|FALSE|FALSE|TRUE
5695730|Wyndham Grand Pittsburgh Downtown|Pittsburgh, PA| 153|40.44167| -80.00642|FALSE|TRUE|TRUE|TRUE
5695730|Wingate by Wyndham West Mifflin|Pittsburgh, PA|  99|40.34556| -79.95755|TRUE|FALSE|FALSE|TRUE
5695730|Cambria Hotel Pittsburgh - Downtown|Pittsburgh, PA| 156|40.44013| -79.98789|FALSE|FALSE|TRUE|TRUE
5695730|Renaissance Pittsburgh Hotel|Pittsburgh, PA| 222|40.44383| -80.00221|FALSE|TRUE|TRUE|TRUE
5695730|Residence Inn by Marriott Pittsburgh North Shore|Pittsburgh, PA| 145|40.44791| -80.00721|FALSE|TRUE|FALSE|TRUE
5695730|Wyndham Pittsburgh University Center|Pittsburgh, PA| 165|40.44619| -79.95485|FALSE|FALSE|TRUE|TRUE
5695730|Omni William Penn Hotel|Pittsburgh, PA| 227|40.44060| -79.99659|FALSE|TRUE|TRUE|TRUE
5695730|Hyatt Place Pittsburgh-North Shore|Pittsburgh, PA| 176|40.44669| -80.00909|FALSE|TRUE|TRUE|TRUE
5695730|Comfort Inn Conference Center|Pittsburgh, PA|  96|40.44304| -79.82635|TRUE|FALSE|FALSE|TRUE
5695730|Red Roof Inn PLUS+ Pittsburgh South - Airport|Pittsburgh, PA|  80|40.44969| -80.15721|TRUE|FALSE|FALSE|TRUE
5695730|Extended Stay America Suites Pittsburgh Carnegie|Pittsburgh, PA| 103|40.44062| -79.99589|FALSE|TRUE|FALSE|TRUE
5695730|Comfort Inn and Suites|Pittsburgh, PA|  99|40.41993| -80.03033|TRUE|FALSE|FALSE|TRUE
5695730|Sheraton Pittsburgh Hotel at Station Square|Pittsburgh, PA| 194|40.43473| -80.00598|FALSE|TRUE|TRUE|TRUE
5695730|Courtyard by Marriott Pittsburgh Downtown|Pittsburgh, PA| 148|40.44435| -79.99648|FALSE|TRUE|FALSE|TRUE
5695730|Kimpton Hotel Monaco Pittsburgh, an IHG Hotel|Pittsburgh, PA| 216|40.44141| -79.99632|FALSE|TRUE|TRUE|TRUE
5695730|Extended Stay America Suites Pittsburgh Airport|Pittsburgh, PA|  87|40.44345| -80.15972|TRUE|FALSE|FALSE|TRUE
5695730|Comfort Suites|Pittsburgh, PA|  94|40.41991| -80.03026|TRUE|FALSE|FALSE|TRUE
5695730|Springhill Suites by Marriott Pittsburgh North Shore|Pittsburgh, PA| 118|40.44859| -80.00462|FALSE|TRUE|FALSE|TRUE
5695730|DoubleTree by Hilton Hotel & Suites Pittsburgh Downtown|Pittsburgh, PA| 173|40.44047| -79.99398|FALSE|FALSE|TRUE|TRUE
5695730|Marriott Pittsburgh City Center Hotel|Pittsburgh, PA| 369|40.43987| -79.99220|FALSE|FALSE|TRUE|TRUE
5695730|Days Inn by Wyndham Pittsburgh|Pittsburgh, PA|  96|40.41923| -80.03035|TRUE|FALSE|FALSE|TRUE
5697650|Four Seasons Hotel One Dalton Street, Boston|Boston, MA| 757|42.34571| -71.08394|FALSE|TRUE|TRUE|TRUE
5697650|The Langham, Boston|Boston, MA| 519|42.35648| -71.05450|FALSE|FALSE|TRUE|TRUE
5697650|Best Western Adams Inn Quincy-Boston|Boston, MA| 110|42.28224| -71.03855|TRUE|FALSE|FALSE|TRUE
5697650|The Verb Hotel|Boston, MA| 158|42.34534| -71.09678|FALSE|TRUE|FALSE|TRUE
5697650|The Ritz-Carlton, Boston|Boston, MA| 809|42.35317| -71.06369|FALSE|FALSE|TRUE|TRUE
5697650|Best Western Plus New Englander|Boston, MA| 110|42.48082| -71.11883|TRUE|FALSE|FALSE|TRUE
5697650|Encore Boston Harbor|Boston, MA| 418|42.39553| -71.06933|FALSE|FALSE|TRUE|TRUE
5697650|Extended Stay America Suites Boston Waltham 52 4th Ave|Boston, MA| 106|42.39450| -71.25845|TRUE|FALSE|FALSE|TRUE
5697650|Residence Inn by Marriott Boston Back Bay/Fenway|Boston, MA| 208|42.34582| -71.10051|FALSE|TRUE|FALSE|TRUE
5697650|Copley Square Hotel|Boston, MA| 148|42.34835| -71.07873|FALSE|TRUE|FALSE|TRUE
5697650|Red Roof Inn PLUS+ Boston - Logan|Boston, MA| 101|42.36561| -71.00956|TRUE|FALSE|FALSE|TRUE
5697650|Fifteen Beacon|Boston, MA| 576|42.35832| -71.06193|FALSE|FALSE|TRUE|TRUE
5697650|The Newbury Boston|Boston, MA| 576|42.35293| -71.07149|FALSE|FALSE|TRUE|TRUE
5697650|Four Points by Sheraton Boston Logan Airport Revere|Boston, MA| 106|42.42940| -71.01504|TRUE|FALSE|FALSE|TRUE
5697650|Arcadian Hotel Brookline |Boston, MA| 172|42.34381| -71.11672|FALSE|TRUE|FALSE|TRUE
5697650|Comfort Inn Woburn - Boston|Boston, MA|  89|42.47895| -71.11530|TRUE|FALSE|FALSE|TRUE
5697650|Mandarin Oriental Boston|Boston, MA| 751|42.34869| -71.08160|FALSE|TRUE|TRUE|TRUE
5697650|Best Western Plus Waltham Boston|Boston, MA| 105|42.39768| -71.25780|TRUE|FALSE|FALSE|TRUE
5697650|The Westin Copley Place, Boston, a Marriott Hotel|Boston, MA| 226|42.34832| -71.07746|FALSE|TRUE|FALSE|TRUE
5697650|Hilton Boston Back Bay|Boston, MA| 196|42.34630| -71.08494|FALSE|TRUE|FALSE|TRUE
5697650|Boston Harbor Hotel|Boston, MA| 620|42.35666| -71.05032|FALSE|FALSE|TRUE|TRUE
5697650|Sheraton Boston, a Marriott Hotel|Boston, MA| 187|42.34651| -71.08392|FALSE|TRUE|FALSE|TRUE
5697650|Howard Johnson by Wyndham Quincy/Boston|Boston, MA| 103|42.26248| -71.01213|TRUE|FALSE|FALSE|TRUE
5697650|The Whitney Hotel|Boston, MA| 415|42.36064| -71.07107|FALSE|FALSE|TRUE|TRUE
5697650|Extended Stay America Suites Boston Waltham 32 4th Ave|Boston, MA| 106|42.39379| -71.25915|TRUE|FALSE|FALSE|TRUE
5697650|Boston Yacht Haven Inn & Marina|Boston, MA| 374|42.36202| -71.04837|FALSE|FALSE|TRUE|TRUE
5697650|Four Points by Sheraton Boston Newton|Boston, MA| 105|42.35677| -71.18701|TRUE|FALSE|FALSE|TRUE
5697650|Hyatt Regency Boston/Cambridge|Boston, MA| 196|42.35391| -71.10550|FALSE|TRUE|FALSE|TRUE
5714915|Starlight Inn Valley Blvd|Pasadena, CA| 108|34.06889|-118.17723|TRUE|FALSE|FALSE|TRUE
5714915|Hilton Pasadena|Pasadena, CA| 408|34.14269|-118.14091|FALSE|TRUE|TRUE|TRUE
5714915|Hollywood Inn Express North|Pasadena, CA| 111|34.10207|-118.30169|TRUE|FALSE|FALSE|TRUE
5714915|Welcome Inn on Colorado Blvd|Pasadena, CA| 107|34.13893|-118.20781|TRUE|FALSE|FALSE|TRUE
5714915|Sheraton Pasadena Hotel|Pasadena, CA| 279|34.14295|-118.14422|FALSE|TRUE|TRUE|TRUE
5714915|Langham Huntington, Pasadena, Los Angeles|Pasadena, CA| 569|34.12075|-118.13342|FALSE|FALSE|TRUE|TRUE
5714915|Hotel Heritage|Pasadena, CA|  88|34.14778|-118.14452|TRUE|TRUE|FALSE|TRUE
5714915|The Westin Pasadena|Pasadena, CA| 222|34.14913|-118.14200|FALSE|TRUE|FALSE|TRUE
5714915|Pasadena Hotel & Pool|Pasadena, CA| 225|34.14778|-118.14452|FALSE|TRUE|TRUE|TRUE
5714915|Value Inn Hollywood|Pasadena, CA| 108|34.09769|-118.30328|TRUE|FALSE|FALSE|TRUE
5714915|Downtown Los Angeles Proper Hotel, a Member of Design Hotels|Pasadena, CA| 442|34.03937|-118.25892|FALSE|FALSE|TRUE|TRUE
5714915|Pasadena Rose & Crown Hotel|Pasadena, CA| 180|34.14778|-118.14452|FALSE|TRUE|FALSE|TRUE
5714915|Antonio Hotel|Pasadena, CA|  97|34.04595|-118.20875|TRUE|FALSE|FALSE|TRUE
5714915|Hyatt Place Pasadena|Pasadena, CA| 377|34.14493|-118.14189|FALSE|TRUE|TRUE|TRUE
5714915|City Center Hotel|Pasadena, CA| 111|34.14778|-118.14452|TRUE|TRUE|FALSE|TRUE
5714915|Bokai Garden Hotel|Pasadena, CA|  95|34.07467|-118.07403|TRUE|FALSE|FALSE|TRUE
5714915|Glendale Hotel|Pasadena, CA| 108|34.14259|-118.23099|TRUE|FALSE|FALSE|TRUE
5714915|The Ritz-Carlton, Los Angeles|Pasadena, CA| 819|34.04526|-118.26662|FALSE|FALSE|TRUE|TRUE
5714915|Conrad Los Angeles|Pasadena, CA| 471|34.14980|-118.13269|FALSE|TRUE|TRUE|TRUE
5714915|Courtyard by Marriott Old Pasadena|Pasadena, CA| 279|34.14873|-118.15028|FALSE|TRUE|TRUE|TRUE
5714915|Garden Inn|Pasadena, CA| 103|34.09633|-118.07290|TRUE|FALSE|FALSE|TRUE
5714915|Starlight Inn South El Monte|Pasadena, CA|  86|34.03591|-118.03890|TRUE|FALSE|FALSE|TRUE
5714915|The Glenmark, Glendale, a Tribute Portfolio Hotel|Pasadena, CA| 373|34.16176|-118.25461|FALSE|FALSE|TRUE|TRUE
5735777|Lexington Griffin Gate Marriott Golf Resort & Spa|Lexington, KY| 142|38.09317| -84.48504|FALSE|TRUE|TRUE|TRUE
5735777|Origin Lexington a Wyndham Hotel|Lexington, KY| 142|37.97629| -84.52592|FALSE|FALSE|TRUE|TRUE
5735777|Comfort Suites Keeneland|Lexington, KY|  89|38.01295| -84.55677|TRUE|FALSE|FALSE|TRUE
5735777|21c Museum Hotel Lexington|Lexington, KY| 229|38.04715| -84.49761|FALSE|TRUE|TRUE|TRUE
5735777|Staybridge Suites Lexington S Medical Ctr Area, an IHG Hotel|Lexington, KY| 120|38.06673| -84.52880|FALSE|TRUE|FALSE|TRUE
5735777|Red Roof Inn Lexington - Hamburg|Lexington, KY|  67|38.04416| -84.42344|TRUE|FALSE|FALSE|TRUE
5735777|Extended Stay America Suites Lexington Nicholasville Road|Lexington, KY|  91|37.99367| -84.52255|TRUE|FALSE|FALSE|TRUE
5735777|Hyatt Regency Lexington|Lexington, KY| 202|38.04845| -84.50154|FALSE|TRUE|TRUE|TRUE
5735777|Elwood Hotel & Suites|Lexington, KY| 124|38.03500| -84.52312|FALSE|TRUE|FALSE|TRUE
5735777|Microtel Inn by Wyndham Lexington|Lexington, KY|  69|38.04227| -84.42691|TRUE|FALSE|FALSE|TRUE
5735777|GLō Best Western Lexington|Lexington, KY| 147|38.10218| -84.48223|FALSE|FALSE|TRUE|TRUE
5735777|The Sire Hotel Lexington, Tapestry Collection by Hilton|Lexington, KY| 143|38.04858| -84.49508|FALSE|TRUE|TRUE|TRUE
5735777|GuestHouse Lexington|Lexington, KY|  84|38.04296| -84.42383|TRUE|FALSE|FALSE|TRUE
5735777|Hilton Lexington/Downtown|Lexington, KY| 281|38.04842| -84.50009|FALSE|TRUE|TRUE|TRUE
5735777|Quality Inn Lexington|Lexington, KY|  82|38.04407| -84.42158|TRUE|FALSE|FALSE|TRUE
5735777|The Campbell House Lexington, Curio Collection by Hilton|Lexington, KY| 156|38.03482| -84.52506|FALSE|TRUE|TRUE|TRUE
5735777|Embassy Suites by Hilton Lexington Green|Lexington, KY| 169|37.99566| -84.52500|FALSE|FALSE|TRUE|TRUE
5735777|Comfort Inn Lexington Southeast|Lexington, KY|  77|37.96313| -84.38569|TRUE|FALSE|FALSE|TRUE
5735777|Super 8 by Wyndham Lexington/Hamburg Area|Lexington, KY|  75|38.04218| -84.42149|TRUE|FALSE|FALSE|TRUE
5735777|Embassy Suites by Hilton Lexington/UK Coldstream|Lexington, KY| 202|38.09506| -84.48893|FALSE|FALSE|TRUE|TRUE
5735777|Country Inn & Suites by Radisson, Lexington, KY|Lexington, KY|  89|38.04220| -84.42878|TRUE|FALSE|FALSE|TRUE
5735777|Quality Inn Lexington East/Hamburg Area|Lexington, KY|  68|38.04410| -84.42134|TRUE|FALSE|FALSE|TRUE
5735777|Lexington Marriott City Center|Lexington, KY| 211|38.04636| -84.49804|FALSE|TRUE|TRUE|TRUE
5735777|Courtyard by Marriott Lexington North|Lexington, KY|  95|38.07578| -84.49074|FALSE|TRUE|FALSE|TRUE
5735811|Days Inn by Wyndham Waco University Area|Waco, TX|  75|31.51939| -97.13451|TRUE|FALSE|FALSE|TRUE
5735811|Days Inn by Wyndham Waco|Waco, TX|  80|31.59837| -97.11001|TRUE|FALSE|FALSE|TRUE
5735811|Knights Inn Franklin Ave Waco|Waco, TX|  81|31.52858| -97.16264|TRUE|FALSE|FALSE|TRUE
5735811|Aloft Waco Baylor, a Marriott Hotel|Waco, TX| 136|31.54554| -97.12912|FALSE|TRUE|FALSE|TRUE
5735811|SpringHill Suites Waco Woodway|Waco, TX| 147|31.50399| -97.20075|FALSE|FALSE|TRUE|TRUE
5735811|1700 South 2nd|Waco, TX| 243|31.54609| -97.11277|FALSE|TRUE|TRUE|TRUE
5735811|Hotel Indigo WACO - BAYLOR, an IHG Hotel|Waco, TX| 168|31.55547| -97.12509|FALSE|TRUE|TRUE|TRUE
5735811|Sleep Inn & Suites Hewitt - South Waco|Waco, TX|  84|31.45915| -97.17309|TRUE|FALSE|FALSE|TRUE
5735811|OYO Hotel Waco University Area/ I-35|Waco, TX|  61|31.56152| -97.11770|TRUE|TRUE|FALSE|TRUE
5735811|Element Waco|Waco, TX| 160|31.52295| -97.13114|FALSE|TRUE|TRUE|TRUE
5735811|Americas Best Value Inn Waco|Waco, TX|  86|31.52699| -97.16542|TRUE|FALSE|FALSE|TRUE
5735811|Residence Inn by Marriott Waco South|Waco, TX| 178|31.50119| -97.15756|FALSE|FALSE|TRUE|TRUE
5735811|Quality Inn & Suites|Waco, TX|  77|31.50935| -97.14411|TRUE|FALSE|FALSE|TRUE
5735811|Red Roof Inn Waco|Waco, TX|  87|31.56108| -97.11830|TRUE|TRUE|FALSE|TRUE
5735811|Studio 6 Waco, TX - Downtown - Baylor|Waco, TX|  71|31.53810| -97.12757|TRUE|TRUE|FALSE|TRUE
5735811|Hilton Waco|Waco, TX| 191|31.55959| -97.12826|FALSE|TRUE|TRUE|TRUE
5735811|Extended Stay America Suites Waco Woodway|Waco, TX|  86|31.54933| -97.14667|TRUE|FALSE|FALSE|TRUE
5735811|Homewood Suites by Hilton Waco|Waco, TX| 152|31.49305| -97.16026|FALSE|FALSE|TRUE|TRUE
5735811|Courtyard by Marriott Waco|Waco, TX| 131|31.56069| -97.13021|FALSE|TRUE|FALSE|TRUE
5735811|TownePlace Suites by Marriott Waco South|Waco, TX| 152|31.49368| -97.16109|FALSE|FALSE|TRUE|TRUE
5735811|Residence Inn Waco|Waco, TX| 169|31.50136| -97.15763|FALSE|FALSE|TRUE|TRUE
5735811|Home2 Suites by Hilton Waco|Waco, TX| 140|31.52749| -97.13434|FALSE|TRUE|TRUE|TRUE
5735812|TownePlace Suites by Marriott Columbia|Columbia, MO| 127|38.90058| -92.28693|FALSE|FALSE|TRUE|TRUE
5735812|voco The Tiger Hotel, an IHG Hotel|Columbia, MO| 166|38.95087| -92.32880|FALSE|TRUE|TRUE|TRUE
5735812|Drury Plaza Hotel Columbia East|Columbia, MO| 133|38.96065| -92.28959|FALSE|FALSE|TRUE|TRUE
5735812|Red Roof Inn Columbia, MO|Columbia, MO|  64|38.97044| -92.33521|TRUE|TRUE|FALSE|TRUE
5735812|Hampton Inn Columbia|Columbia, MO| 133|38.96294| -92.28750|FALSE|FALSE|TRUE|TRUE
5735812|Stoney Creek Hotel Columbia|Columbia, MO| 104|38.92172| -92.33819|TRUE|TRUE|FALSE|TRUE
5735812|The Broadway Columbia - a DoubleTree by Hilton|Columbia, MO| 130|38.95175| -92.32465|FALSE|TRUE|TRUE|TRUE
5735812|Ramada by Wyndham Columbia|Columbia, MO|  72|38.96032| -92.29371|TRUE|TRUE|FALSE|TRUE
5735812|Comfort Suites Columbia - University Area|Columbia, MO|  81|38.96602| -92.35411|TRUE|TRUE|FALSE|TRUE
5735812|Hilton Garden Inn Columbia|Columbia, MO| 120|38.97470| -92.28922|FALSE|FALSE|TRUE|TRUE
5735812|Extended Stay America Suites Columbia Stadium Blvd|Columbia, MO|  86|38.93925| -92.35196|TRUE|TRUE|FALSE|TRUE
5735812|Country Inn & Suites by Radisson, Columbia, MO|Columbia, MO| 106|38.95968| -92.28967|TRUE|FALSE|FALSE|TRUE
5735812|Staybridge Suites Columbia, an IHG Hotel|Columbia, MO| 128|38.95885| -92.29115|FALSE|TRUE|TRUE|TRUE
5735812|Holiday Inn Columbia East, an IHG Hotel|Columbia, MO| 126|38.95811| -92.25256|FALSE|FALSE|TRUE|TRUE
5735812|Wingate by Wyndham - Columbia|Columbia, MO| 103|38.95827| -92.29132|TRUE|TRUE|FALSE|TRUE
5735812|Holiday Inn Executive Center-Columbia Mall, an IHG Hotel|Columbia, MO| 118|38.96700| -92.37362|FALSE|FALSE|TRUE|TRUE
5735812|Residence Inn by Marriott Columbia|Columbia, MO| 106|38.96227| -92.28418|TRUE|FALSE|FALSE|TRUE
5735812|Courtyard by Marriott Columbia Missouri|Columbia, MO| 134|38.91432| -92.29258|FALSE|TRUE|TRUE|TRUE
5735812|Super 8 by Wyndham Columbia East|Columbia, MO|  70|38.96089| -92.25079|TRUE|FALSE|FALSE|TRUE
5735812|La Quinta Inn & Suites by Wyndham Columbia|Columbia, MO|  58|38.96803| -92.37609|TRUE|FALSE|FALSE|TRUE
5735815|Courtyard by Marriott Manhattan Aggieville|Manhattan, KS| 108|39.18634| -96.57501|TRUE|TRUE|TRUE|TRUE
5735815|Comfort Suites Manhattan|Manhattan, KS| 108|39.19068| -96.55642|TRUE|TRUE|TRUE|TRUE
5735815|Quality Inn & Suites|Manhattan, KS|  80|39.18052| -96.55399|TRUE|FALSE|FALSE|TRUE
5735815|Best Western Manhattan Inn|Manhattan, KS|  91|39.18655| -96.54925|TRUE|FALSE|FALSE|TRUE
5735815|Candlewood Suites Manhattan, an IHG Hotel|Manhattan, KS| 116|39.17538| -96.55936|TRUE|TRUE|TRUE|TRUE
5735815|Moore House Bed and Breakfast|Manhattan, KS| 144|39.18431| -96.58524|FALSE|TRUE|TRUE|TRUE
5735815|Parkwood Inn & Suites|Manhattan, KS|  95|39.17513| -96.58270|TRUE|TRUE|TRUE|TRUE
5735815|Hilton Garden Inn Manhattan|Manhattan, KS| 121|39.17522| -96.56066|TRUE|TRUE|TRUE|TRUE
5735815|Four Points by Sheraton Manhattan|Manhattan, KS|  93|39.17028| -96.59746|TRUE|TRUE|TRUE|TRUE
5735815|The Bluemont Hotel|Manhattan, KS| 128|39.18713| -96.57578|TRUE|TRUE|TRUE|TRUE
5735815|Holiday Inn Manhattan at the Campus, an IHG Hotel|Manhattan, KS| 132|39.18551| -96.58258|FALSE|TRUE|TRUE|TRUE
5735815|Super 8 by Wyndham Manhattan KS|Manhattan, KS| 104|39.18120| -96.55578|TRUE|TRUE|TRUE|TRUE
5735816|SureStay Plus Hotel by Best Western Norman|Norman, OK|  76|35.21569| -97.48871|TRUE|TRUE|TRUE|TRUE
5735816|Thunderbird Motor Lodge, Norman, OK|Norman, OK|  77|35.20041| -97.47796|TRUE|TRUE|TRUE|TRUE
5735816|Stone Hill Norman, Trademark Collection by Wyndham|Norman, OK| 112|35.25714| -97.48725|TRUE|TRUE|TRUE|TRUE
5735816|Embassy Suites by Hilton Norman Hotel & Conference Center|Norman, OK| 145|35.24348| -97.47864|FALSE|TRUE|TRUE|TRUE
5735816|The Whispering Pines Inn Bed & Breakfast|Norman, OK| 105|35.18784| -97.32579|TRUE|FALSE|TRUE|TRUE
5735816|Fairfield Inn & Suites Norman|Norman, OK| 116|35.21614| -97.48856|TRUE|TRUE|TRUE|TRUE
5735816|Super 8 by Wyndham Norman|Norman, OK|  62|35.21752| -97.48221|TRUE|TRUE|FALSE|TRUE
5735816|Courtyard by Marriott Norman|Norman, OK| 135|35.22802| -97.48761|TRUE|TRUE|TRUE|TRUE
5735816|NCED Conference Center & Hotel|Norman, OK| 153|35.19124| -97.39799|FALSE|TRUE|TRUE|TRUE
5735816|Americas Best Value Inn Norman at Univ of Oklahoma|Norman, OK|  74|35.21756| -97.48158|TRUE|TRUE|FALSE|TRUE
5735816|Extended Stay America Select Suites - Oklahoma City - Norman|Norman, OK|  76|35.28389| -97.48361|TRUE|FALSE|TRUE|TRUE
5735816|Hilton Garden Inn Norman|Norman, OK| 115|35.22621| -97.48796|TRUE|TRUE|TRUE|TRUE
5735819|SpringHill Suites by Marriott Stillwater|Stillwater, OK|  98|36.11909| -97.11713|TRUE|TRUE|TRUE|TRUE
