id|name|city|price|lat|long|p|t|l|fresh
5679604|Monarch Motel|Pullman, WA| 128|46.73040|-117.00231|TRUE|FALSE|TRUE|TRUE
5679604|Residence Inn Pullman|Pullman, WA| 167|46.73899|-117.15119|FALSE|TRUE|TRUE|TRUE
5679604|Cougar Land Motel|Pullman, WA|  76|46.73009|-117.18242|TRUE|TRUE|TRUE|TRUE
5679604|Best Western Plus University Inn|Pullman, WA| 139|46.73341|-117.02370|TRUE|TRUE|TRUE|TRUE
5679604|Super 8 by Wyndham Moscow / Pullman|Pullman, WA|  80|46.73389|-117.01691|TRUE|FALSE|TRUE|TRUE
5679604|Courtyard by Marriott Pullman|Pullman, WA| 167|46.73995|-117.15026|FALSE|TRUE|TRUE|TRUE
5679604|Quality Inn Paradise Creek|Pullman, WA|  80|46.72054|-117.16316|TRUE|TRUE|TRUE|TRUE
5679604|FairBridge Inn - Moscow|Pullman, WA|  57|46.73389|-117.02137|TRUE|TRUE|FALSE|TRUE
5679604|Holiday Inn Express And Suites Pullman, an IHG Hotel|Pullman, WA| 135|46.71599|-117.16699|TRUE|TRUE|TRUE|TRUE
5679604|Hotel McCoy - Art, Coffee, Beer, Wine|Pullman, WA| 131|46.72914|-117.17718|TRUE|TRUE|TRUE|TRUE
5679604|Coast Hilltop Inn|Pullman, WA| 110|46.73252|-117.19249|TRUE|TRUE|TRUE|TRUE
5679604|American Travel Inn|Pullman, WA|  76|46.72611|-117.18555|TRUE|TRUE|TRUE|TRUE
5747493|Hampton Inn Bozeman|Bozeman, MT| 295|45.69609|-111.04894|TRUE|TRUE|TRUE|TRUE
5747493|Baymont by Wyndham Bozeman|Bozeman, MT| 148|45.69953|-111.05003|TRUE|FALSE|FALSE|TRUE
5747493|The Outpost|Bozeman, MT|  94|45.68147|-111.03199|TRUE|TRUE|FALSE|TRUE
5747493|Comfort Suites Airport - University|Bozeman, MT| 276|45.71512|-111.07070|TRUE|FALSE|TRUE|TRUE
5747493|Homewood Suites by Hilton Bozeman|Bozeman, MT| 341|45.69689|-111.05098|FALSE|TRUE|TRUE|TRUE
5747493|Microtel Inn & Suites by Wyndham Bozeman|Bozeman, MT| 104|45.69783|-111.04405|TRUE|TRUE|FALSE|TRUE
5747493|Quality Inn|Bozeman, MT| 111|45.68147|-111.03199|TRUE|TRUE|FALSE|TRUE
5747493|Hilton Garden Inn Bozeman|Bozeman, MT| 305|45.69950|-111.06247|TRUE|FALSE|TRUE|TRUE
5747493|My Place Hotel - Bozeman, MT|Bozeman, MT| 157|45.71762|-111.06889|TRUE|FALSE|FALSE|TRUE
5747493|Residence Inn by Marriott Bozeman|Bozeman, MT| 370|45.71326|-111.06683|FALSE|FALSE|TRUE|TRUE
5747493|Residence Inn by Marriott Bozeman Downtown|Bozeman, MT| 429|45.67955|-111.02468|FALSE|TRUE|TRUE|TRUE
5747493|SpringHill Suites by Marriott Bozeman|Bozeman, MT| 402|45.70082|-111.05841|FALSE|FALSE|TRUE|TRUE
5747493|Super 8 by Wyndham Belgrade/Bozeman Airport|Bozeman, MT|  94|45.76422|-111.18440|TRUE|FALSE|FALSE|TRUE
5747493|Kimpton Armory Hotel Bozeman, an IHG Hotel|Bozeman, MT| 381|45.68004|-111.03802|FALSE|TRUE|TRUE|TRUE
5747493|Comfort Inn Bozeman|Bozeman, MT| 258|45.69368|-111.04494|TRUE|TRUE|FALSE|TRUE
5747493|Element Bozeman|Bozeman, MT| 391|45.68069|-111.03625|FALSE|TRUE|TRUE|TRUE
5747493|The LARK Bozeman|Bozeman, MT| 313|45.67890|-111.03932|FALSE|TRUE|TRUE|TRUE
5747494|Kimpton Armory Hotel Bozeman, an IHG Hotel|Bozeman, MT| 381|45.68004|-111.03802|FALSE|TRUE|TRUE|TRUE
5747494|Microtel Inn & Suites by Wyndham Bozeman|Bozeman, MT| 104|45.69783|-111.04405|TRUE|TRUE|FALSE|TRUE
5747494|The Outpost|Bozeman, MT|  94|45.68147|-111.03199|TRUE|TRUE|FALSE|TRUE
5747494|Comfort Suites Airport - University|Bozeman, MT| 276|45.71512|-111.07070|TRUE|FALSE|TRUE|TRUE
5747494|Hilton Garden Inn Bozeman|Bozeman, MT| 305|45.69950|-111.06247|TRUE|FALSE|TRUE|TRUE
5747494|Hampton Inn Bozeman|Bozeman, MT| 295|45.69609|-111.04894|TRUE|TRUE|TRUE|TRUE
5747494|Element Bozeman|Bozeman, MT| 391|45.68069|-111.03625|FALSE|TRUE|TRUE|TRUE
5747494|Residence Inn by Marriott Bozeman Downtown|Bozeman, MT| 429|45.67955|-111.02468|FALSE|TRUE|TRUE|TRUE
5747494|Comfort Inn Bozeman|Bozeman, MT| 258|45.69368|-111.04494|TRUE|TRUE|FALSE|TRUE
5747494|Homewood Suites by Hilton Bozeman|Bozeman, MT| 341|45.69689|-111.05098|FALSE|TRUE|TRUE|TRUE
5747494|Super 8 by Wyndham Belgrade/Bozeman Airport|Bozeman, MT|  94|45.76422|-111.18440|TRUE|FALSE|FALSE|TRUE
5747494|My Place Hotel - Bozeman, MT|Bozeman, MT| 157|45.71762|-111.06889|TRUE|FALSE|FALSE|TRUE
5747494|The LARK Bozeman|Bozeman, MT| 313|45.67890|-111.03932|FALSE|TRUE|TRUE|TRUE
5747494|Baymont by Wyndham Bozeman|Bozeman, MT| 148|45.69953|-111.05003|TRUE|FALSE|FALSE|TRUE
5747494|Residence Inn by Marriott Bozeman|Bozeman, MT| 370|45.71326|-111.06683|FALSE|FALSE|TRUE|TRUE
5747494|SpringHill Suites by Marriott Bozeman|Bozeman, MT| 402|45.70082|-111.05841|FALSE|FALSE|TRUE|TRUE
5747494|Quality Inn|Bozeman, MT| 111|45.68147|-111.03199|TRUE|TRUE|FALSE|TRUE
5748777|Suburban Studios|Morgantown, WV| 102|39.62797| -79.92684|TRUE|TRUE|FALSE|TRUE
5748777|The Cranberry, Ascend Hotel Collection|Morgantown, WV| 190|39.67114| -79.85656|TRUE|FALSE|TRUE|TRUE
5748777|Scholar Morgantown, Tapestry Collection by Hilton|Morgantown, WV| 231|39.63104| -79.95635|TRUE|TRUE|TRUE|TRUE
5748777|Hotel Morgan a Wyndham Hotel|Morgantown, WV| 259|39.62843| -79.95759|FALSE|TRUE|TRUE|TRUE
5748777|Quality Inn|Morgantown, WV| 124|39.58631| -79.95282|TRUE|FALSE|TRUE|TRUE
5748777|Holiday Inn Morgantown - University Area, an IHG Hotel|Morgantown, WV| 206|39.65920| -79.95375|TRUE|TRUE|TRUE|TRUE
5748777|Lakeview Golf Resort, Trademark Collection by Wyndham|Morgantown, WV| 133|39.66646| -79.85385|TRUE|FALSE|TRUE|TRUE
5748777|Super 8 by Wyndham Morgantown|Morgantown, WV|  87|39.64894| -79.89710|TRUE|FALSE|FALSE|TRUE
5748777|Hotel M Morgantown - WVU Area|Morgantown, WV| 133|39.65435| -79.98575|TRUE|TRUE|TRUE|TRUE
5748777|Motel 6 Morgantown, WV|Morgantown, WV|  81|39.60306| -79.96514|TRUE|TRUE|FALSE|TRUE
5748777|Hampton Inn Morgantown|Morgantown, WV| 253|39.65351| -79.96428|FALSE|TRUE|TRUE|TRUE
5748777|Econo Lodge|Morgantown, WV|  53|39.65574| -79.98542|TRUE|TRUE|FALSE|TRUE
5748777|Holiday Inn Express Morgantown, an IHG Hotel|Morgantown, WV| 233|39.64914| -79.89809|FALSE|TRUE|TRUE|TRUE
5748777|Morgantown Marriott at Waterfront Place|Morgantown, WV| 281|39.62397| -79.96379|FALSE|TRUE|TRUE|TRUE
5750667|AKA University City|Philadelphia, PA| 395|39.95191| -75.18365|FALSE|FALSE|TRUE|TRUE
5750667|Parkway Inn|Philadelphia, PA| 109|39.91875| -75.32845|TRUE|FALSE|FALSE|TRUE
5750667|Philly Inn & Suites|Philadelphia, PA| 127|39.95258| -75.16522|TRUE|FALSE|FALSE|TRUE
5750667|Four Points by Sheraton Philadelphia City Center|Philadelphia, PA| 161|39.95601| -75.15918|FALSE|TRUE|FALSE|TRUE
5750667|Sonesta Select Philadelphia Airport|Philadelphia, PA| 127|39.88519| -75.24862|TRUE|FALSE|FALSE|TRUE
5750667|The Rittenhouse Philadelphia|Philadelphia, PA| 691|39.94966| -75.16482|FALSE|FALSE|TRUE|TRUE
5750667|Days Inn by Wyndham Springfield/Phil.Intl Airport|Philadelphia, PA| 106|39.91948| -75.32802|TRUE|FALSE|FALSE|TRUE
5750667|Best Western Plus Philadelphia Convention Center Hotel|Philadelphia, PA| 162|39.95801| -75.15947|FALSE|TRUE|FALSE|TRUE
5750667|Fitler Club|Philadelphia, PA| 540|39.95349| -75.17914|FALSE|FALSE|TRUE|TRUE
5750667|BnB Philadelphia - Boutique Hotel|Philadelphia, PA| 621|39.97993| -75.12262|FALSE|FALSE|TRUE|TRUE
5750667|Four Seasons Hotel Philadelphia at Comcast Center|Philadelphia, PA|1012|39.95509| -75.17090|FALSE|TRUE|TRUE|TRUE
5750667|Hilton Garden Inn Philadelphia Center City|Philadelphia, PA| 182|39.95357| -75.15809|FALSE|TRUE|FALSE|TRUE
5750667|The Windsor Suites|Philadelphia, PA| 187|39.95565| -75.16822|FALSE|TRUE|FALSE|TRUE
5750667|Red Carpet Inn Philadelphia Airport|Philadelphia, PA|  93|39.87242| -75.28119|TRUE|FALSE|FALSE|TRUE
5750667|The Logan Philadelphia, Curio Collection by Hilton|Philadelphia, PA| 177|39.95693| -75.17027|FALSE|TRUE|FALSE|TRUE
5750667|The Ritz-Carlton, Philadelphia|Philadelphia, PA| 555|39.95128| -75.16427|FALSE|FALSE|TRUE|TRUE
5750667|Days Inn by Wyndham Runnemede Philadelphia Area|Philadelphia, PA| 125|39.85779| -75.07254|TRUE|FALSE|FALSE|TRUE
5750667|Wm. Mulherin's Sons Hotel|Philadelphia, PA| 549|39.97171| -75.13506|FALSE|TRUE|TRUE|TRUE
5750667|Days Inn by Wyndham Philadelphia Convention Center|Philadelphia, PA| 135|39.95612| -75.16021|FALSE|TRUE|FALSE|TRUE
5750667|Days Inn by Wyndham Philadelphia - Roosevelt Boulevard|Philadelphia, PA| 119|40.02974| -75.10607|TRUE|FALSE|FALSE|TRUE
5750667|Hampton Inn Philadelphia Center City-Convention Center|Philadelphia, PA| 145|39.95628| -75.16087|FALSE|TRUE|FALSE|TRUE
5750667|Super 8 by Wyndham Gloucester|Philadelphia, PA| 131|39.95258| -75.16522|TRUE|FALSE|FALSE|TRUE
5750667|Radisson Hotel Philadelphia, PA|Philadelphia, PA| 124|39.94917| -75.16954|TRUE|FALSE|FALSE|TRUE
5750667|Lokal Hotel Fishtown|Philadelphia, PA| 393|39.97245| -75.13503|FALSE|TRUE|TRUE|TRUE
5750667|The Study at University City|Philadelphia, PA| 488|39.95453| -75.19000|FALSE|FALSE|TRUE|TRUE
5750667|Guild House Hotel|Philadelphia, PA| 530|39.94819| -75.16268|FALSE|FALSE|TRUE|TRUE
5750667|Travelodge by Wyndham Bellmawr|Philadelphia, PA|  92|39.86208| -75.07705|TRUE|FALSE|FALSE|TRUE
5750675|Courtyard by Marriott Omaha Downtown|Omaha, NE| 443|41.25926| -95.92843|FALSE|FALSE|TRUE|TRUE
5750675|Comfort Suites Omaha|Omaha, NE|  79|41.28832| -96.07723|TRUE|FALSE|FALSE|TRUE
5750675|La Quinta Inn by Wyndham Omaha Southwest|Omaha, NE|  84|41.21171| -96.07935|TRUE|FALSE|FALSE|TRUE
5750675|Hotel Deco|Omaha, NE| 398|41.25687| -95.93624|FALSE|FALSE|TRUE|TRUE
5750675|Western Inn|Omaha, NE|  76|41.26597| -96.08638|TRUE|FALSE|FALSE|TRUE
5750675|Comfort Inn At The Zoo|Omaha, NE|  84|41.23094| -95.93536|TRUE|FALSE|FALSE|TRUE
5750675|Baymont by Wyndham Omaha SW|Omaha, NE|  84|41.16395| -96.14060|TRUE|FALSE|FALSE|TRUE
5750675|Staybridge Suites Omaha 80th And Dodge, an IHG Hotel|Omaha, NE| 133|41.26080| -96.03749|FALSE|TRUE|FALSE|TRUE
5750675|MainStay Suites Omaha Old Mill|Omaha, NE|  79|41.25667| -96.08245|TRUE|FALSE|FALSE|TRUE
5750675|Super 8 by Wyndham Council Bluffs IA Omaha NE Area|Omaha, NE|  74|41.23438| -95.88029|TRUE|FALSE|FALSE|TRUE
5750675|Tru By Hilton Omaha I-80 at 72nd Street, NE|Omaha, NE| 172|41.22842| -96.02232|FALSE|TRUE|TRUE|TRUE
5750675|La Quinta Inn by Wyndham Omaha West|Omaha, NE|  70|41.28971| -96.07622|TRUE|FALSE|FALSE|TRUE
5750675|Residence Inn by Marriott Omaha Aksarben Village|Omaha, NE| 169|41.24218| -96.01434|FALSE|TRUE|TRUE|TRUE
5750675|WoodSpring Suites Council Bluffs, an Extended Stay Hotel|Omaha, NE|  80|41.24814| -95.90422|TRUE|FALSE|FALSE|TRUE
5750675|Hampton Inn Omaha Midtown-Aksarben Area|Omaha, NE| 142|41.24564| -96.02297|FALSE|TRUE|FALSE|TRUE
5750675|Cambria Hotel Omaha Downtown|Omaha, NE| 359|41.26682| -95.93480|FALSE|FALSE|TRUE|TRUE
5750675|DoubleTree by Hilton Omaha Southwest|Omaha, NE| 119|41.22579| -96.02518|FALSE|TRUE|FALSE|TRUE
5750675|Courtyard Marriott Aksarben Village|Omaha, NE| 153|41.24324| -96.01415|FALSE|TRUE|TRUE|TRUE
5750675|Kimpton Cottonwood, an IHG Hotel|Omaha, NE| 383|41.25747| -95.96669|FALSE|TRUE|TRUE|TRUE
5750675|Aloft Omaha Aksarben Village|Omaha, NE| 152|41.23746| -96.00886|FALSE|TRUE|FALSE|TRUE
5750675|The Farnam, Autograph Collection|Omaha, NE|1115|41.25734| -95.93278|FALSE|FALSE|TRUE|TRUE
5750675|Baymont by Wyndham Bellevue / Omaha|Omaha, NE|  82|41.16421| -95.92391|TRUE|FALSE|FALSE|TRUE
5750675|AmericInn by Wyndham Council Bluffs|Omaha, NE|  75|41.23939| -95.82673|TRUE|FALSE|FALSE|TRUE
5750675|Comfort Inn & Suites Omaha Central|Omaha, NE| 129|41.22603| -96.02200|FALSE|TRUE|FALSE|TRUE
5750675|WoodSpring Suites Omaha Bellevue, an Extended Stay Hotel|Omaha, NE|  82|41.13851| -95.95360|TRUE|FALSE|FALSE|TRUE
5750675|Hilton Omaha|Omaha, NE| 558|41.26304| -95.92998|FALSE|FALSE|TRUE|TRUE
5750675|Hilton Garden Inn Omaha Aksarben Village|Omaha, NE| 181|41.24009| -96.01666|FALSE|TRUE|TRUE|TRUE
5750683|Emerald Beach Hotel|Corpus Christi, TX| 139|27.78147| -97.39402|FALSE|TRUE|TRUE|TRUE
5750683|Red Roof Inn Corpus Christi South|Corpus Christi, TX|  79|27.69600| -97.34884|TRUE|FALSE|FALSE|TRUE
5750683|Red Roof Inn Corpus Christi North - Near Downtown|Corpus Christi, TX|  63|27.80219| -97.45347|TRUE|TRUE|FALSE|TRUE
5750683|Extended Stay America Suites Corpus Christi Staples|Corpus Christi, TX|  79|27.68861| -97.38111|TRUE|FALSE|FALSE|TRUE
5750683|Residence Inn by Marriott Corpus Christi Downtown|Corpus Christi, TX| 244|27.78957| -97.39466|FALSE|TRUE|TRUE|TRUE
5750683|Econo Lodge Inn & Suites Corpus Christi|Corpus Christi, TX|  75|27.79709| -97.41434|TRUE|TRUE|FALSE|TRUE
5750683|La Quinta Inn by Wyndham Corpus Christi North|Corpus Christi, TX|  92|27.80281| -97.45180|FALSE|TRUE|FALSE|TRUE
5750683|Days Inn by Wyndham Portland/Corpus Christi|Corpus Christi, TX|  72|27.89147| -97.31267|TRUE|FALSE|FALSE|TRUE
5750683|Holiday Inn Corpus Christi Downtown Marina, an IHG Hotel|Corpus Christi, TX| 121|27.79804| -97.39200|FALSE|TRUE|TRUE|TRUE
5750683|OYO Hotel Corpus Christi North / I-37|Corpus Christi, TX|  50|27.80499| -97.45398|TRUE|FALSE|FALSE|TRUE
5750683|DoubleTree by Hilton Corpus Christi Beachfront|Corpus Christi, TX| 137|27.81856| -97.38967|FALSE|TRUE|TRUE|TRUE
5750683|Knights Inn Corpus Christi at North Beach|Corpus Christi, TX|  59|27.82359| -97.38892|TRUE|TRUE|FALSE|TRUE
5750683|Embassy Suites Corpus Christi|Corpus Christi, TX| 124|27.71754| -97.39237|FALSE|FALSE|TRUE|TRUE
5750683|Best Western Corpus Christi|Corpus Christi, TX| 152|27.62834| -97.22309|FALSE|FALSE|TRUE|TRUE
5750683|Staybridge Suites Corpus Christi, an IHG Hotel|Corpus Christi, TX| 115|27.71714| -97.39634|FALSE|FALSE|TRUE|TRUE
5750683|Quality Inn & Suites on the Beach|Corpus Christi, TX|  59|27.81942| -97.38994|TRUE|TRUE|FALSE|TRUE
5750683|Home2 Suites by Hilton Portland|Corpus Christi, TX| 115|27.89760| -97.30962|FALSE|FALSE|TRUE|TRUE
5750683|Omni Corpus Christi Hotel|Corpus Christi, TX| 355|27.80036| -97.39221|FALSE|TRUE|TRUE|TRUE
5750683|Corpus Christi Arpt Conf Ctr|Corpus Christi, TX|  85|27.79608| -97.46686|TRUE|FALSE|FALSE|TRUE
5750683|Staybridge Suites Portland, an IHG Hotel|Corpus Christi, TX| 122|27.89382| -97.31126|FALSE|FALSE|TRUE|TRUE
5750683|Towneplace Suites Corpus Christi|Corpus Christi, TX|  81|27.69690| -97.35075|TRUE|FALSE|FALSE|TRUE
5750687|Kimpton Armory Hotel Bozeman, an IHG Hotel|Bozeman, MT| 381|45.68004|-111.03802|FALSE|TRUE|TRUE|TRUE
5750687|Residence Inn by Marriott Bozeman|Bozeman, MT| 370|45.71326|-111.06683|FALSE|FALSE|TRUE|TRUE
5750687|The LARK Bozeman|Bozeman, MT| 313|45.67890|-111.03932|FALSE|TRUE|TRUE|TRUE
5750687|SpringHill Suites by Marriott Bozeman|Bozeman, MT| 402|45.70082|-111.05841|FALSE|FALSE|TRUE|TRUE
5750687|Homewood Suites by Hilton Bozeman|Bozeman, MT| 341|45.69689|-111.05098|FALSE|TRUE|TRUE|TRUE
5750687|Hampton Inn Bozeman|Bozeman, MT| 295|45.69609|-111.04894|TRUE|TRUE|TRUE|TRUE
5750687|My Place Hotel - Bozeman, MT|Bozeman, MT| 157|45.71762|-111.06889|TRUE|FALSE|FALSE|TRUE
5750687|Comfort Inn Bozeman|Bozeman, MT| 258|45.69368|-111.04494|TRUE|TRUE|FALSE|TRUE
5750687|Comfort Suites Airport - University|Bozeman, MT| 276|45.71512|-111.07070|TRUE|FALSE|TRUE|TRUE
5750687|Element Bozeman|Bozeman, MT| 391|45.68069|-111.03625|FALSE|TRUE|TRUE|TRUE
5750687|Hilton Garden Inn Bozeman|Bozeman, MT| 305|45.69950|-111.06247|TRUE|FALSE|TRUE|TRUE
5750687|Quality Inn|Bozeman, MT| 111|45.68147|-111.03199|TRUE|TRUE|FALSE|TRUE
5750687|Super 8 by Wyndham Belgrade/Bozeman Airport|Bozeman, MT|  94|45.76422|-111.18440|TRUE|FALSE|FALSE|TRUE
5750687|Residence Inn by Marriott Bozeman Downtown|Bozeman, MT| 429|45.67955|-111.02468|FALSE|TRUE|TRUE|TRUE
5750687|The Outpost|Bozeman, MT|  94|45.68147|-111.03199|TRUE|TRUE|FALSE|TRUE
5750687|Microtel Inn & Suites by Wyndham Bozeman|Bozeman, MT| 104|45.69783|-111.04405|TRUE|TRUE|FALSE|TRUE
5750687|Baymont by Wyndham Bozeman|Bozeman, MT| 148|45.69953|-111.05003|TRUE|FALSE|FALSE|TRUE
5750900|Comfort Suites University - Research Park|Charlotte, NC| 127|35.29342| -80.75368|FALSE|FALSE|TRUE|TRUE
5750900|Comfort Suites Northlake|Charlotte, NC| 121|35.35254| -80.84317|TRUE|FALSE|FALSE|TRUE
5750900|Courtyard Marriott Concord|Charlotte, NC| 124|35.36330| -80.70334|TRUE|FALSE|FALSE|TRUE
5750900|Sleep Inn University Place|Charlotte, NC| 126|35.30498| -80.75164|TRUE|TRUE|FALSE|TRUE
5750900|Extended Stay America Suites Charlotte University E McCullou|Charlotte, NC| 104|35.30002| -80.75168|TRUE|TRUE|FALSE|TRUE
5750900|The Ivey's Hotel|Charlotte, NC| 575|35.22849| -80.84281|FALSE|FALSE|TRUE|TRUE
5750900|Hilton Garden Inn Charlotte/Concord|Charlotte, NC| 127|35.37059| -80.70992|FALSE|FALSE|TRUE|TRUE
5750900|Sonesta Select Charlotte University Research Park|Charlotte, NC| 133|35.30704| -80.75342|FALSE|TRUE|TRUE|TRUE
5750900|Hyatt Place Charlotte/University Research Park|Charlotte, NC| 133|35.30922| -80.75739|FALSE|TRUE|TRUE|TRUE
5750900|Best Western Plus Huntersville Inn & Suites Near Lake Norman|Charlotte, NC| 108|35.40610| -80.85327|TRUE|FALSE|FALSE|TRUE
5750900|Holiday Inn Charlotte University Executive Park, an IHG Hotel|Charlotte, NC| 134|35.30532| -80.75272|FALSE|TRUE|TRUE|TRUE
5750900|Extended Stay America Suites Charlotte University Place|Charlotte, NC| 115|35.30002| -80.75168|TRUE|TRUE|FALSE|TRUE
5750900|WoodSpring Suites Charlotte - University Research Park|Charlotte, NC| 126|35.28506| -80.76825|TRUE|FALSE|FALSE|TRUE
5750900|Embassy Suites by Hilton Charlotte Concord Golf Resort & Spa|Charlotte, NC| 162|35.36526| -80.70154|FALSE|FALSE|TRUE|TRUE
5750900|Hampton Inn Charlotte - University Place|Charlotte, NC| 127|35.30303| -80.75249|FALSE|TRUE|TRUE|TRUE
5750900|Microtel Inn by Wyndham Charlotte/University Place|Charlotte, NC|  84|35.29918| -80.75320|TRUE|TRUE|FALSE|TRUE
5750900|Hilton Charlotte University Place|Charlotte, NC| 166|35.30891| -80.75053|FALSE|TRUE|TRUE|TRUE
5750900|Red Roof Inn Charlotte - University|Charlotte, NC|  90|35.27964| -80.79537|TRUE|FALSE|FALSE|TRUE
5750900|Baymont by Wyndham Charlotte University|Charlotte, NC|  97|35.28065| -80.79062|TRUE|FALSE|FALSE|TRUE
5750900|Sonesta Simply Suites Charlotte University|Charlotte, NC| 134|35.28581| -80.72690|FALSE|FALSE|TRUE|TRUE
5750900|Super 8 by Wyndham Huntersville/Charlotte Area|Charlotte, NC|  97|35.40854| -80.85581|TRUE|FALSE|FALSE|TRUE
5750900|Drury Inn & Suites Charlotte University Place|Charlotte, NC| 145|35.30723| -80.75497|FALSE|TRUE|TRUE|TRUE
5750900|The Ritz-Carlton, Charlotte|Charlotte, NC| 575|35.22616| -80.84145|FALSE|FALSE|TRUE|TRUE
5750922|Magnolia North by Hosteeva|Conway, SC| 333|33.83600| -79.04781|FALSE|TRUE|TRUE|TRUE
5750922|Legends 4537 Girvan Drive Escape|Conway, SC| 655|33.74930| -79.00369|FALSE|TRUE|TRUE|TRUE
5750922|Econo Lodge Conway|Conway, SC|  59|33.84016| -79.06080|TRUE|FALSE|FALSE|TRUE
5750922|Magnolia North 102|Conway, SC| 348|33.83600| -79.04781|FALSE|TRUE|TRUE|TRUE
5750922|Comfort Suites|Conway, SC|  91|33.78630| -78.99457|TRUE|TRUE|FALSE|TRUE
5750922|Magnolia Pointe|Conway, SC| 408|33.83600| -79.04781|FALSE|TRUE|TRUE|TRUE
5750922|Myrtlewood Villas|Conway, SC| 176|33.73577| -78.86155|FALSE|FALSE|TRUE|TRUE
5750922|Stylish Golf Beach Getaway|Conway, SC| 279|33.83600| -79.04781|FALSE|TRUE|TRUE|TRUE
5750922|Riverwalk 303|Conway, SC| 456|33.83268| -79.04431|FALSE|TRUE|TRUE|TRUE
5750922|Econo Lodge at the University|Conway, SC|  74|33.78874| -78.99663|TRUE|TRUE|FALSE|TRUE
5750922|Days Inn by Wyndham Myrtle Beach|Conway, SC|  62|33.67377| -78.89952|TRUE|FALSE|FALSE|TRUE
5750922|Quality Inn|Conway, SC| 113|33.67957| -78.89987|TRUE|FALSE|FALSE|TRUE
5750922|Fairfield Inn by Marriott Myrtle Beach Broadway at the Beach|Conway, SC| 101|33.72095| -78.87717|TRUE|FALSE|FALSE|TRUE
5750922|Myrtle Beach Myrtlewood Golf and Beach Escape!|Conway, SC| 457|33.83600| -79.04781|FALSE|TRUE|TRUE|TRUE
5750922|SureStay Hotel by Best Western Conway|Conway, SC|  70|33.81612| -79.04280|TRUE|TRUE|FALSE|TRUE
5750922|Comfort Suites Myrtle Beach Central|Conway, SC| 113|33.70854| -78.91045|TRUE|FALSE|FALSE|TRUE
5750922|Studio 6 Myrtle Beach, SC|Conway, SC|  69|33.70920| -78.90968|TRUE|FALSE|FALSE|TRUE
5750922|Suburban Studios at the University|Conway, SC|  80|33.78870| -78.99664|TRUE|TRUE|FALSE|TRUE
5750922|The Cypress Inn Bed & Breakfast|Conway, SC| 218|33.83120| -79.04548|FALSE|TRUE|TRUE|TRUE
5750922|Magnolia Pointe at Myrtlewood|Conway, SC| 423|33.83600| -79.04781|FALSE|TRUE|TRUE|TRUE
5750922|Four Points by Sheraton Myrtle Beach|Conway, SC|  91|33.71379| -78.92405|TRUE|FALSE|FALSE|TRUE
5750941|Holiday Inn Express Statesboro, an IHG Hotel|Statesboro, GA| 145|32.43683| -81.78514|TRUE|TRUE|TRUE|TRUE
5750941|Days Inn by Wyndham Statesboro|Statesboro, GA|  81|32.43209| -81.77888|TRUE|TRUE|TRUE|TRUE
5750941|Home2 Suites by Hilton Statesboro|Statesboro, GA| 124|32.40643| -81.77129|TRUE|TRUE|TRUE|TRUE
5750941|Quality Inn And Suites|Statesboro, GA|  70|32.44300| -81.78309|TRUE|TRUE|TRUE|TRUE
5750941|Hampton Inn Statesboro|Statesboro, GA| 130|32.41231| -81.76966|TRUE|TRUE|TRUE|TRUE
5750941|Springhill Suites Statesboro University Area|Statesboro, GA| 137|32.40590| -81.76345|TRUE|TRUE|TRUE|TRUE
5750941|Super 8 by Wyndham Statesboro|Statesboro, GA|  68|32.42715| -81.78889|TRUE|TRUE|TRUE|TRUE
5750941|Holiday Inn Statesboro-University Area, an IHG Hotel|Statesboro, GA| 156|32.42831| -81.75616|TRUE|TRUE|TRUE|TRUE
5750941|Stay Plus Extended Stay Suites|Statesboro, GA| 144|32.39832| -81.75605|TRUE|TRUE|TRUE|TRUE
5750941|Eagles Nest Inn|Statesboro, GA|  96|32.40812| -81.78250|TRUE|TRUE|TRUE|TRUE
5750942|Quality Inn And Suites|Statesboro, GA|  70|32.44300| -81.78309|TRUE|TRUE|TRUE|TRUE
5750942|Hampton Inn Statesboro|Statesboro, GA| 130|32.41231| -81.76966|TRUE|TRUE|TRUE|TRUE
5750942|Springhill Suites Statesboro University Area|Statesboro, GA| 137|32.40590| -81.76345|TRUE|TRUE|TRUE|TRUE
5750942|Holiday Inn Express Statesboro, an IHG Hotel|Statesboro, GA| 145|32.43683| -81.78514|TRUE|TRUE|TRUE|TRUE
5750942|Stay Plus Extended Stay Suites|Statesboro, GA| 144|32.39832| -81.75605|TRUE|TRUE|TRUE|TRUE
5750942|Super 8 by Wyndham Statesboro|Statesboro, GA|  68|32.42715| -81.78889|TRUE|TRUE|TRUE|TRUE
5750942|Holiday Inn Statesboro-University Area, an IHG Hotel|Statesboro, GA| 156|32.42831| -81.75616|TRUE|TRUE|TRUE|TRUE
5750942|Days Inn by Wyndham Statesboro|Statesboro, GA|  81|32.43209| -81.77888|TRUE|TRUE|TRUE|TRUE
5750942|Eagles Nest Inn|Statesboro, GA|  96|32.40812| -81.78250|TRUE|TRUE|TRUE|TRUE
5750942|Home2 Suites by Hilton Statesboro|Statesboro, GA| 124|32.40643| -81.77129|TRUE|TRUE|TRUE|TRUE
5750944|Holiday Inn Express Statesboro, an IHG Hotel|Statesboro, GA| 145|32.43683| -81.78514|TRUE|TRUE|TRUE|TRUE
5750944|Home2 Suites by Hilton Statesboro|Statesboro, GA| 124|32.40643| -81.77129|TRUE|TRUE|TRUE|TRUE
5750944|Super 8 by Wyndham Statesboro|Statesboro, GA|  68|32.42715| -81.78889|TRUE|TRUE|TRUE|TRUE
5750944|Quality Inn And Suites|Statesboro, GA|  70|32.44300| -81.78309|TRUE|TRUE|TRUE|TRUE
5750944|Hampton Inn Statesboro|Statesboro, GA| 130|32.41231| -81.76966|TRUE|TRUE|TRUE|TRUE
5750944|Stay Plus Extended Stay Suites|Statesboro, GA| 144|32.39832| -81.75605|TRUE|TRUE|TRUE|TRUE
5750944|Holiday Inn Statesboro-University Area, an IHG Hotel|Statesboro, GA| 156|32.42831| -81.75616|TRUE|TRUE|TRUE|TRUE
5750944|Days Inn by Wyndham Statesboro|Statesboro, GA|  81|32.43209| -81.77888|TRUE|TRUE|TRUE|TRUE
5750944|Springhill Suites Statesboro University Area|Statesboro, GA| 137|32.40590| -81.76345|TRUE|TRUE|TRUE|TRUE
5750944|Eagles Nest Inn|Statesboro, GA|  96|32.40812| -81.78250|TRUE|TRUE|TRUE|TRUE
5750977|Quality Inn Harrisonburg I-81|Harrisonburg, VA| 115|38.43096| -78.85044|TRUE|TRUE|FALSE|TRUE
5750977|Microtel Inn & Suites by Wyndham Harrisonburg|Harrisonburg, VA| 136|38.40561| -78.90715|TRUE|FALSE|TRUE|TRUE
5750977|Doubletree by Hilton Harrisonburg|Harrisonburg, VA| 171|38.43698| -78.84791|FALSE|TRUE|TRUE|TRUE
5750977|Hampton Inn Harrisonburg - South|Harrisonburg, VA| 131|38.40619| -78.91113|TRUE|FALSE|FALSE|TRUE
5750977|Tru By Hilton Harrisonburg, VA|Harrisonburg, VA| 135|38.40539| -78.90646|TRUE|FALSE|TRUE|TRUE
5750977|The Village Inn Harrisonburg|Harrisonburg, VA| 137|38.38306| -78.92333|FALSE|FALSE|TRUE|TRUE
5750977|Fairfield Inn & Suites by Marriott Harrisonburg|Harrisonburg, VA| 221|38.42716| -78.85314|FALSE|TRUE|TRUE|TRUE
5750977|Hampton Inn Harrisonburg - University|Harrisonburg, VA| 166|38.43160| -78.84705|FALSE|TRUE|TRUE|TRUE
5750977|Best Western Plus Harrisonburg|Harrisonburg, VA| 111|38.40489| -78.91008|TRUE|FALSE|FALSE|TRUE
5750977|Candlewood Suites Harrisonburg, an IHG Hotel|Harrisonburg, VA|  95|38.43780| -78.84386|TRUE|FALSE|FALSE|TRUE
5750977|Courtyard by Marriott Harrisonburg|Harrisonburg, VA| 170|38.43115| -78.84800|FALSE|TRUE|TRUE|TRUE
5750977|Sleep Inn & Suites Harrisonburg near University|Harrisonburg, VA| 133|38.43097| -78.84946|TRUE|TRUE|FALSE|TRUE
5750977|Country Inn & Suites by Radisson, Harrisonburg, VA|Harrisonburg, VA| 147|38.40578| -78.91024|FALSE|FALSE|TRUE|TRUE
5750977|Residence Inn by Marriott Harrisonburg|Harrisonburg, VA| 369|38.42770| -78.85216|FALSE|TRUE|TRUE|TRUE
5750977|Clarion Pointe Harrisonburg|Harrisonburg, VA| 109|38.43576| -78.84712|TRUE|TRUE|FALSE|TRUE
5750977|Red Roof Inn Harrisonburg - University Area|Harrisonburg, VA|  68|38.42923| -78.87387|TRUE|TRUE|FALSE|TRUE
5750977|Comfort Inn & Suites Harrisonburg|Harrisonburg, VA| 137|38.42615| -78.84897|FALSE|TRUE|TRUE|TRUE
5750977|Ramada by Wyndham Harrisonburg|Harrisonburg, VA|  95|38.40533| -78.90748|TRUE|FALSE|FALSE|TRUE
5750979|The Village Inn Harrisonburg|Harrisonburg, VA| 137|38.38306| -78.92333|FALSE|FALSE|TRUE|TRUE
5750979|Tru By Hilton Harrisonburg, VA|Harrisonburg, VA| 135|38.40539| -78.90646|TRUE|FALSE|TRUE|TRUE
5750979|Red Roof Inn Harrisonburg - University Area|Harrisonburg, VA|  68|38.42923| -78.87387|TRUE|TRUE|FALSE|TRUE
5750979|Microtel Inn & Suites by Wyndham Harrisonburg|Harrisonburg, VA| 136|38.40561| -78.90715|TRUE|FALSE|TRUE|TRUE
5750979|Doubletree by Hilton Harrisonburg|Harrisonburg, VA| 171|38.43698| -78.84791|FALSE|TRUE|TRUE|TRUE
5750979|Quality Inn Harrisonburg I-81|Harrisonburg, VA| 115|38.43096| -78.85044|TRUE|TRUE|FALSE|TRUE
5750979|Ramada by Wyndham Harrisonburg|Harrisonburg, VA|  95|38.40533| -78.90748|TRUE|FALSE|FALSE|TRUE
5750979|Residence Inn by Marriott Harrisonburg|Harrisonburg, VA| 369|38.42770| -78.85216|FALSE|TRUE|TRUE|TRUE
5750979|Candlewood Suites Harrisonburg, an IHG Hotel|Harrisonburg, VA|  95|38.43780| -78.84386|TRUE|FALSE|FALSE|TRUE
5750979|Hampton Inn Harrisonburg - South|Harrisonburg, VA| 131|38.40619| -78.91113|TRUE|FALSE|FALSE|TRUE
5750979|Comfort Inn & Suites Harrisonburg|Harrisonburg, VA| 137|38.42615| -78.84897|FALSE|TRUE|TRUE|TRUE
5750979|Fairfield Inn & Suites by Marriott Harrisonburg|Harrisonburg, VA| 221|38.42716| -78.85314|FALSE|TRUE|TRUE|TRUE
5750979|Sleep Inn & Suites Harrisonburg near University|Harrisonburg, VA| 133|38.43097| -78.84946|TRUE|TRUE|FALSE|TRUE
5750979|Clarion Pointe Harrisonburg|Harrisonburg, VA| 109|38.43576| -78.84712|TRUE|TRUE|FALSE|TRUE
5750979|Hampton Inn Harrisonburg - University|Harrisonburg, VA| 166|38.43160| -78.84705|FALSE|TRUE|TRUE|TRUE
5750979|Best Western Plus Harrisonburg|Harrisonburg, VA| 111|38.40489| -78.91008|TRUE|FALSE|FALSE|TRUE
5750979|Courtyard by Marriott Harrisonburg|Harrisonburg, VA| 170|38.43115| -78.84800|FALSE|TRUE|TRUE|TRUE
5750979|Country Inn & Suites by Radisson, Harrisonburg, VA|Harrisonburg, VA| 147|38.40578| -78.91024|FALSE|FALSE|TRUE|TRUE
5750995|Mouton Plantation|Lafayette, LA| 244|30.23220| -92.00986|FALSE|TRUE|TRUE|TRUE
5750995|Super 7|Lafayette, LA|  57|30.25261| -92.01523|TRUE|FALSE|FALSE|TRUE
5750995|The Juliet Hotel|Lafayette, LA| 180|30.22144| -92.01901|FALSE|TRUE|TRUE|TRUE
5750995|Clarion Pointe Lafayette|Lafayette, LA|  81|30.20359| -92.01310|FALSE|TRUE|FALSE|TRUE
5750995|Studio 6 Lafayette, LA – I-10 & I-49 N|Lafayette, LA|  55|30.25278| -92.03265|TRUE|FALSE|FALSE|TRUE
5750995|Microtel Inn & Suites by Wyndham Scott/Lafayette|Lafayette, LA|  71|30.24141| -92.06552|TRUE|FALSE|FALSE|TRUE
5750995|Howard Johnson by Wyndham Scott Lafayette|Lafayette, LA|  68|30.24467| -92.10518|TRUE|FALSE|FALSE|TRUE
5750995|Courtyard by Marriott Lafayette Airport|Lafayette, LA| 128|30.19215| -92.01015|FALSE|FALSE|TRUE|TRUE
5750995|Fairfield Inn & Suites by Marriott Lafayette South|Lafayette, LA| 110|30.19435| -92.01745|FALSE|TRUE|FALSE|TRUE
5750995|DoubleTree by Hilton Hotel Lafayette|Lafayette, LA| 125|30.19601| -92.01546|FALSE|TRUE|FALSE|TRUE
5750995|Studio 6 Lafayette, LA - Broussard|Lafayette, LA|  73|30.21639| -92.00194|TRUE|TRUE|FALSE|TRUE
5750995|La Quinta Inn by Wyndham Lafayette North|Lafayette, LA|  55|30.25189| -92.01211|TRUE|FALSE|FALSE|TRUE
5750995|Howard Johnson by Wyndham Lafayette|Lafayette, LA|  62|30.25359| -92.01565|TRUE|FALSE|FALSE|TRUE
5750995|Hilton Garden Inn Lafayette/Cajundome|Lafayette, LA| 152|30.22001| -92.04130|FALSE|TRUE|TRUE|TRUE
5750995|Courtyard by Marriott Lafayette South|Lafayette, LA| 166|30.15182| -92.03936|FALSE|FALSE|TRUE|TRUE
5750995|Super 8 by Wyndham Breaux Bridge|Lafayette, LA|  71|30.29375| -91.91330|TRUE|FALSE|FALSE|TRUE
5750995|Drury Inn & Suites Lafayette, LA|Lafayette, LA| 145|30.24912| -92.03823|FALSE|TRUE|TRUE|TRUE
5750995|T'Frere's House|Lafayette, LA| 206|30.16009| -92.02213|FALSE|FALSE|TRUE|TRUE
5750995|Super 8 by Wyndham Lafayette LA|Lafayette, LA|  62|30.25438| -92.01347|TRUE|FALSE|FALSE|TRUE
5750995|Carriage House Hotel|Lafayette, LA| 258|30.17289| -92.04115|FALSE|FALSE|TRUE|TRUE
5750995|Comfort Suites Oil Center|Lafayette, LA| 117|30.19273| -92.01740|FALSE|TRUE|FALSE|TRUE
5750995|Louisiana Cajun Mansion|Lafayette, LA| 277|30.09322| -92.02472|FALSE|FALSE|TRUE|TRUE
5750995|Days Inn by Wyndham Lafayette Near Lafayette Airport|Lafayette, LA|  65|30.19122| -91.99323|TRUE|FALSE|FALSE|TRUE
5750995|Choo Choo Lofts, 3 br, 2 bath, Full Kitchen - Lafayette, LA|Lafayette, LA| 241|30.22568| -92.01435|FALSE|TRUE|TRUE|TRUE
5750997|Fairfield Inn & Suites by Marriott Lafayette South|Lafayette, LA| 110|30.19435| -92.01745|FALSE|TRUE|FALSE|TRUE
5750997|Super 8 by Wyndham Breaux Bridge|Lafayette, LA|  71|30.29375| -91.91330|TRUE|FALSE|FALSE|TRUE
5750997|Drury Inn & Suites Lafayette, LA|Lafayette, LA| 145|30.24912| -92.03823|FALSE|TRUE|TRUE|TRUE
5750997|The Juliet Hotel|Lafayette, LA| 180|30.22144| -92.01901|FALSE|TRUE|TRUE|TRUE
5750997|Super 7|Lafayette, LA|  57|30.25261| -92.01523|TRUE|FALSE|FALSE|TRUE
5750997|Howard Johnson by Wyndham Scott Lafayette|Lafayette, LA|  68|30.24467| -92.10518|TRUE|FALSE|FALSE|TRUE
5750997|Choo Choo Lofts, 3 br, 2 bath, Full Kitchen - Lafayette, LA|Lafayette, LA| 241|30.22568| -92.01435|FALSE|TRUE|TRUE|TRUE
5750997|Microtel Inn & Suites by Wyndham Scott/Lafayette|Lafayette, LA|  71|30.24141| -92.06552|TRUE|FALSE|FALSE|TRUE
5750997|Super 8 by Wyndham Lafayette LA|Lafayette, LA|  62|30.25438| -92.01347|TRUE|FALSE|FALSE|TRUE
5750997|Clarion Pointe Lafayette|Lafayette, LA|  81|30.20359| -92.01310|FALSE|TRUE|FALSE|TRUE
5750997|Hilton Garden Inn Lafayette/Cajundome|Lafayette, LA| 152|30.22001| -92.04130|FALSE|TRUE|TRUE|TRUE
5750997|Studio 6 Lafayette, LA – I-10 & I-49 N|Lafayette, LA|  55|30.25278| -92.03265|TRUE|FALSE|FALSE|TRUE
5750997|Studio 6 Lafayette, LA - Broussard|Lafayette, LA|  73|30.21639| -92.00194|TRUE|TRUE|FALSE|TRUE
5750997|Courtyard by Marriott Lafayette South|Lafayette, LA| 166|30.15182| -92.03936|FALSE|FALSE|TRUE|TRUE
5750997|Comfort Suites Oil Center|Lafayette, LA| 117|30.19273| -92.01740|FALSE|TRUE|FALSE|TRUE
5750997|Louisiana Cajun Mansion|Lafayette, LA| 277|30.09322| -92.02472|FALSE|FALSE|TRUE|TRUE
5750997|Howard Johnson by Wyndham Lafayette|Lafayette, LA|  62|30.25359| -92.01565|TRUE|FALSE|FALSE|TRUE
5750997|T'Frere's House|Lafayette, LA| 206|30.16009| -92.02213|FALSE|FALSE|TRUE|TRUE
5750997|DoubleTree by Hilton Hotel Lafayette|Lafayette, LA| 125|30.19601| -92.01546|FALSE|TRUE|FALSE|TRUE
5750997|Days Inn by Wyndham Lafayette Near Lafayette Airport|Lafayette, LA|  65|30.19122| -91.99323|TRUE|FALSE|FALSE|TRUE
5750997|Courtyard by Marriott Lafayette Airport|Lafayette, LA| 128|30.19215| -92.01015|FALSE|FALSE|TRUE|TRUE
5750997|Carriage House Hotel|Lafayette, LA| 258|30.17289| -92.04115|FALSE|FALSE|TRUE|TRUE
5750997|La Quinta Inn by Wyndham Lafayette North|Lafayette, LA|  55|30.25189| -92.01211|TRUE|FALSE|FALSE|TRUE
5750997|Mouton Plantation|Lafayette, LA| 244|30.23220| -92.00986|FALSE|TRUE|TRUE|TRUE
5751031|BEST WESTERN Huntington Mall Inn|Huntington, WV|  76|38.41678| -82.25845|TRUE|FALSE|FALSE|TRUE
5751031|Hampton Inn Huntington University Area|Huntington, WV| 133|38.39466| -82.41703|FALSE|TRUE|TRUE|TRUE
5751031|Super 8 by Wyndham Huntington WV|Huntington, WV|  84|38.39694| -82.41369|TRUE|TRUE|FALSE|TRUE
5751031|Ramada Limited Huntington|Huntington, WV| 127|38.39647| -82.41181|FALSE|TRUE|TRUE|TRUE
5751031|Delta Hotels by Marriott Huntington Mall|Huntington, WV| 141|38.41512| -82.26149|FALSE|FALSE|TRUE|TRUE
5751031|Hampton Inn Huntington/Barboursville|Huntington, WV| 124|38.41494| -82.25752|FALSE|FALSE|TRUE|TRUE
5751031|Rodeway Inn|Huntington, WV|  61|38.41925| -82.44515|TRUE|TRUE|FALSE|TRUE
5751031|Comfort Suites South Point - Huntington|Huntington, WV| 123|38.41866| -82.50404|TRUE|TRUE|TRUE|TRUE
5751031|Red Roof Inn Huntington|Huntington, WV|  83|38.41461| -82.34332|TRUE|FALSE|FALSE|TRUE
5751031|TownePlace Suites by Marriott Huntington|Huntington, WV| 131|38.39446| -82.41597|FALSE|TRUE|TRUE|TRUE
5751031|DoubleTree by Hilton Huntington|Huntington, WV| 107|38.42193| -82.44179|TRUE|TRUE|TRUE|TRUE
5751031|Delta Hotels by Marriott Huntington Downtown|Huntington, WV| 267|38.42209| -82.44540|FALSE|TRUE|TRUE|TRUE
5751031|Days Inn by Wyndham Huntington|Huntington, WV|  92|38.41360| -82.34256|TRUE|FALSE|TRUE|TRUE
5751031|Motel 6 Huntington, WV|Huntington, WV|  59|38.41470| -82.47543|TRUE|TRUE|FALSE|TRUE
5751031|Econo Lodge|Huntington, WV|  85|38.41925| -82.44515|TRUE|TRUE|FALSE|TRUE
5751031|Comfort Inn Barboursville near Huntington Mall area|Huntington, WV| 113|38.42484| -82.26338|TRUE|FALSE|TRUE|TRUE
5751033|Red Roof Inn Huntington|Huntington, WV|  83|38.41461| -82.34332|TRUE|FALSE|FALSE|TRUE
5751033|DoubleTree by Hilton Huntington|Huntington, WV| 107|38.42193| -82.44179|TRUE|TRUE|TRUE|TRUE
5751033|Rodeway Inn|Huntington, WV|  61|38.41925| -82.44515|TRUE|TRUE|FALSE|TRUE
5751033|Motel 6 Huntington, WV|Huntington, WV|  59|38.41470| -82.47543|TRUE|TRUE|FALSE|TRUE
5751033|Comfort Inn Barboursville near Huntington Mall area|Huntington, WV| 113|38.42484| -82.26338|TRUE|FALSE|TRUE|TRUE
5751033|Hampton Inn Huntington University Area|Huntington, WV| 133|38.39466| -82.41703|FALSE|TRUE|TRUE|TRUE
5751033|Comfort Suites South Point - Huntington|Huntington, WV| 123|38.41866| -82.50404|TRUE|TRUE|TRUE|TRUE
5751033|Delta Hotels by Marriott Huntington Mall|Huntington, WV| 141|38.41512| -82.26149|FALSE|FALSE|TRUE|TRUE
5751033|Hampton Inn Huntington/Barboursville|Huntington, WV| 124|38.41494| -82.25752|FALSE|FALSE|TRUE|TRUE
5751033|Econo Lodge|Huntington, WV|  85|38.41925| -82.44515|TRUE|TRUE|FALSE|TRUE
5751033|Ramada Limited Huntington|Huntington, WV| 127|38.39647| -82.41181|FALSE|TRUE|TRUE|TRUE
5751033|Days Inn by Wyndham Huntington|Huntington, WV|  92|38.41360| -82.34256|TRUE|FALSE|TRUE|TRUE
5751033|Super 8 by Wyndham Huntington WV|Huntington, WV|  84|38.39694| -82.41369|TRUE|TRUE|FALSE|TRUE
5751033|BEST WESTERN Huntington Mall Inn|Huntington, WV|  76|38.41678| -82.25845|TRUE|FALSE|FALSE|TRUE
5751033|Delta Hotels by Marriott Huntington Downtown|Huntington, WV| 267|38.42209| -82.44540|FALSE|TRUE|TRUE|TRUE
5751033|TownePlace Suites by Marriott Huntington|Huntington, WV| 131|38.39446| -82.41597|FALSE|TRUE|TRUE|TRUE
5751035|Comfort Suites South Point - Huntington|Huntington, WV| 123|38.41866| -82.50404|TRUE|TRUE|TRUE|TRUE
5751035|Delta Hotels by Marriott Huntington Downtown|Huntington, WV| 267|38.42209| -82.44540|FALSE|TRUE|TRUE|TRUE
5751035|Ramada Limited Huntington|Huntington, WV| 127|38.39647| -82.41181|FALSE|TRUE|TRUE|TRUE
5751035|Hampton Inn Huntington University Area|Huntington, WV| 133|38.39466| -82.41703|FALSE|TRUE|TRUE|TRUE
5751035|Motel 6 Huntington, WV|Huntington, WV|  59|38.41470| -82.47543|TRUE|TRUE|FALSE|TRUE
5751035|TownePlace Suites by Marriott Huntington|Huntington, WV| 131|38.39446| -82.41597|FALSE|TRUE|TRUE|TRUE
5751035|Red Roof Inn Huntington|Huntington, WV|  83|38.41461| -82.34332|TRUE|FALSE|FALSE|TRUE
5751035|Rodeway Inn|Huntington, WV|  61|38.41925| -82.44515|TRUE|TRUE|FALSE|TRUE
5751035|Super 8 by Wyndham Huntington WV|Huntington, WV|  84|38.39694| -82.41369|TRUE|TRUE|FALSE|TRUE
5751035|Days Inn by Wyndham Huntington|Huntington, WV|  92|38.41360| -82.34256|TRUE|FALSE|TRUE|TRUE
5751035|Comfort Inn Barboursville near Huntington Mall area|Huntington, WV| 113|38.42484| -82.26338|TRUE|FALSE|TRUE|TRUE
5751035|Hampton Inn Huntington/Barboursville|Huntington, WV| 124|38.41494| -82.25752|FALSE|FALSE|TRUE|TRUE
5751035|Econo Lodge|Huntington, WV|  85|38.41925| -82.44515|TRUE|TRUE|FALSE|TRUE
5751035|Delta Hotels by Marriott Huntington Mall|Huntington, WV| 141|38.41512| -82.26149|FALSE|FALSE|TRUE|TRUE
5751035|DoubleTree by Hilton Huntington|Huntington, WV| 107|38.42193| -82.44179|TRUE|TRUE|TRUE|TRUE
5751035|BEST WESTERN Huntington Mall Inn|Huntington, WV|  76|38.41678| -82.25845|TRUE|FALSE|FALSE|TRUE
5751049|Wyndham Garden Norfolk Downtown|Norfolk, VA| 152|36.85519| -76.28613|FALSE|TRUE|TRUE|TRUE
5751049|Hampton Inn Norfolk-Naval Base|Norfolk, VA| 130|36.93047| -76.31854|FALSE|FALSE|TRUE|TRUE
5751049|Econo Lodge Naval Station Norfolk|Norfolk, VA| 100|36.92591| -76.31841|FALSE|TRUE|FALSE|TRUE
5751049|Red Roof Inn Virginia Beach - Norfolk Airport|Norfolk, VA|  70|36.88345| -76.18175|TRUE|FALSE|FALSE|TRUE
5751049|Super 8 by Wyndham Norfolk/Chesapeake Bay|Norfolk, VA|  85|36.96761| -76.27866|TRUE|FALSE|FALSE|TRUE
5751049|Renaissance Portsmouth-Norfolk Waterfront Hotel|Norfolk, VA| 173|36.83754| -76.29632|FALSE|TRUE|TRUE|TRUE
5751049|Red Roof Inn Norfolk - Portsmouth|Norfolk, VA|  85|36.83638| -76.30977|TRUE|FALSE|FALSE|TRUE
5751049|Delta Hotels by Marriott Norfolk Airport|Norfolk, VA| 144|36.87754| -76.21018|FALSE|FALSE|TRUE|TRUE
5751049|Glass Light Hotel & Gallery, Autograph Collection|Norfolk, VA| 167|36.84806| -76.29168|FALSE|TRUE|TRUE|TRUE
5751049|Hilton Norfolk The Main|Norfolk, VA| 190|36.84667| -76.29158|FALSE|TRUE|TRUE|TRUE
5751049|Courtyard by Marriott Norfolk Downtown|Norfolk, VA| 168|36.84683| -76.28720|FALSE|TRUE|TRUE|TRUE
5751049|Sheraton Norfolk Waterside Hotel|Norfolk, VA| 174|36.84373| -76.28969|FALSE|TRUE|TRUE|TRUE
5751049|Econo Lodge Airport|Norfolk, VA|  57|36.88633| -76.21821|TRUE|FALSE|FALSE|TRUE
5751049|Howard Johnson by Wyndham Virginia Beach|Norfolk, VA|  65|36.90555| -76.14895|TRUE|FALSE|FALSE|TRUE
5751049|The Landing at Hampton Marina, Tapestry Collection by Hilton|Norfolk, VA| 415|37.02453| -76.34229|FALSE|FALSE|TRUE|TRUE
5751049|Norfolk Waterside Marriott|Norfolk, VA| 150|36.84554| -76.29066|FALSE|TRUE|TRUE|TRUE
5751049|Quality Inn Little Creek|Norfolk, VA|  84|36.90548| -76.15020|TRUE|FALSE|FALSE|TRUE
5751049|Rodeway Inn|Norfolk, VA|  76|36.91635| -76.22414|TRUE|FALSE|FALSE|TRUE
5751049|Red Roof Inn Virginia Beach|Norfolk, VA|  87|36.85077| -76.28587|FALSE|TRUE|FALSE|TRUE
5751049|Economy 7 Inn - Chesapeake/Portsmouth|Norfolk, VA|  83|36.86611| -76.40982|TRUE|FALSE|FALSE|TRUE
5751049|Quality Inn|Norfolk, VA|  61|36.92591| -76.31841|TRUE|TRUE|FALSE|TRUE
5751049|Bowers Hill Inn|Norfolk, VA|  70|36.78303| -76.42259|TRUE|FALSE|FALSE|TRUE
5751051|Red Roof Inn Virginia Beach - Norfolk Airport|Norfolk, VA|  70|36.88345| -76.18175|TRUE|FALSE|FALSE|TRUE
5751051|Red Roof Inn Norfolk - Portsmouth|Norfolk, VA|  85|36.83638| -76.30977|TRUE|FALSE|FALSE|TRUE
5751051|Bowers Hill Inn|Norfolk, VA|  70|36.78303| -76.42259|TRUE|FALSE|FALSE|TRUE
5751051|Sheraton Norfolk Waterside Hotel|Norfolk, VA| 174|36.84373| -76.28969|FALSE|TRUE|TRUE|TRUE
5751051|Delta Hotels by Marriott Norfolk Airport|Norfolk, VA| 144|36.87754| -76.21018|FALSE|FALSE|TRUE|TRUE
5751051|Renaissance Portsmouth-Norfolk Waterfront Hotel|Norfolk, VA| 173|36.83754| -76.29632|FALSE|TRUE|TRUE|TRUE
5751051|Wyndham Garden Norfolk Downtown|Norfolk, VA| 152|36.85519| -76.28613|FALSE|TRUE|TRUE|TRUE
5751051|The Landing at Hampton Marina, Tapestry Collection by Hilton|Norfolk, VA| 415|37.02453| -76.34229|FALSE|FALSE|TRUE|TRUE
5751051|Howard Johnson by Wyndham Virginia Beach|Norfolk, VA|  65|36.90555| -76.14895|TRUE|FALSE|FALSE|TRUE
5751051|Economy 7 Inn - Chesapeake/Portsmouth|Norfolk, VA|  83|36.86611| -76.40982|TRUE|FALSE|FALSE|TRUE
5751051|Quality Inn Little Creek|Norfolk, VA|  84|36.90548| -76.15020|TRUE|FALSE|FALSE|TRUE
5751051|Super 8 by Wyndham Norfolk/Chesapeake Bay|Norfolk, VA|  85|36.96761| -76.27866|TRUE|FALSE|FALSE|TRUE
5751051|Econo Lodge Naval Station Norfolk|Norfolk, VA| 100|36.92591| -76.31841|FALSE|TRUE|FALSE|TRUE
5751051|Hampton Inn Norfolk-Naval Base|Norfolk, VA| 130|36.93047| -76.31854|FALSE|FALSE|TRUE|TRUE
5751051|Red Roof Inn Virginia Beach|Norfolk, VA|  87|36.85077| -76.28587|FALSE|TRUE|FALSE|TRUE
5751051|Rodeway Inn|Norfolk, VA|  76|36.91635| -76.22414|TRUE|FALSE|FALSE|TRUE
5751051|Courtyard by Marriott Norfolk Downtown|Norfolk, VA| 168|36.84683| -76.28720|FALSE|TRUE|TRUE|TRUE
5751051|Norfolk Waterside Marriott|Norfolk, VA| 150|36.84554| -76.29066|FALSE|TRUE|TRUE|TRUE
5751051|Glass Light Hotel & Gallery, Autograph Collection|Norfolk, VA| 167|36.84806| -76.29168|FALSE|TRUE|TRUE|TRUE
5751051|Hilton Norfolk The Main|Norfolk, VA| 190|36.84667| -76.29158|FALSE|TRUE|TRUE|TRUE
5751051|Quality Inn|Norfolk, VA|  61|36.92591| -76.31841|TRUE|TRUE|FALSE|TRUE
5751051|Econo Lodge Airport|Norfolk, VA|  57|36.88633| -76.21821|TRUE|FALSE|FALSE|TRUE
5751067|Springhill Suites Mobile|Mobile, AL| 194|30.68131| -88.12961|FALSE|TRUE|TRUE|TRUE
5751067|Holiday Inn Mobile - Airport, an IHG Hotel|Mobile, AL| 161|30.68100| -88.12946|FALSE|TRUE|FALSE|TRUE
5751067|Homewood Suites by Hilton Mobile I-65/Airport Blvd, AL|Mobile, AL| 181|30.66208| -88.12816|FALSE|FALSE|TRUE|TRUE
5751067|La Quinta Inn & Suites by Wyndham Mobile|Mobile, AL| 159|30.67729| -88.13003|FALSE|TRUE|FALSE|TRUE
5751067|Super 8 by Wyndham Mobile I-65|Mobile, AL|  88|30.67810| -88.12959|TRUE|TRUE|FALSE|TRUE
5751067|Fairview Inn and Suites|Mobile, AL|  69|30.68595| -88.12495|TRUE|FALSE|FALSE|TRUE
5751067|Hilton Garden Inn Mobile West I-65/Airport Blvd|Mobile, AL| 116|30.67411| -88.12934|FALSE|TRUE|FALSE|TRUE
5751067|Days Inn & Suites by Wyndham Mobile|Mobile, AL|  78|30.58472| -88.17230|TRUE|FALSE|FALSE|TRUE
5751067|Residence Inn By Marriott Mobile|Mobile, AL| 177|30.67123| -88.12920|FALSE|FALSE|TRUE|TRUE
5751067|Fort Conde Inn|Mobile, AL| 244|30.68697| -88.03987|FALSE|FALSE|TRUE|TRUE
5751067|Holiday Inn Express And Suites Mobile - University Area, an IHG Hotel|Mobile, AL| 193|30.68832| -88.17550|FALSE|TRUE|TRUE|TRUE
5751067|Courtyard by Marriott Mobile|Mobile, AL| 177|30.67040| -88.12842|FALSE|FALSE|TRUE|TRUE
5751067|Travelodge by Wyndham Mobile Al|Mobile, AL|  68|30.58466| -88.17211|TRUE|FALSE|FALSE|TRUE
5751067|Hilton Garden Inn Mobile Downtown|Mobile, AL| 285|30.69217| -88.04341|FALSE|FALSE|TRUE|TRUE
5751067|Quality Inn Mobile West Tillmans Corner|Mobile, AL|  72|30.58521| -88.17275|TRUE|FALSE|FALSE|TRUE
5751067|Quality Inn & Suites at Airport Blvd I-65|Mobile, AL|  77|30.68140| -88.12891|TRUE|TRUE|FALSE|TRUE
5751067|Red Roof Inn Mobile - Midtown|Mobile, AL|  86|30.68778| -88.12458|TRUE|FALSE|FALSE|TRUE
5751067|Days Inn by Wyndham Mobile I-65|Mobile, AL|  83|30.67803| -88.12934|TRUE|TRUE|FALSE|TRUE
5751067|Holiday Inn Mobile-Dwtn/Hist. District, an IHG Hotel|Mobile, AL| 185|30.68891| -88.04432|FALSE|FALSE|TRUE|TRUE
5751067|The Admiral|Mobile, AL| 202|30.68924| -88.04322|FALSE|FALSE|TRUE|TRUE
5751067|Red Roof Inn Mobile North - Saraland|Mobile, AL|  93|30.80378| -88.10026|TRUE|FALSE|FALSE|TRUE
5751067|Drury Inn Mobile|Mobile, AL| 140|30.67447| -88.12960|FALSE|TRUE|FALSE|TRUE
5751067|Extend A Suites|Mobile, AL|  51|30.68689| -88.12510|TRUE|TRUE|FALSE|TRUE
5751067|The Battle House Renaissance Mobile Hotel & Spa|Mobile, AL| 262|30.69312| -88.04067|FALSE|FALSE|TRUE|TRUE
5751069|La Quinta Inn & Suites by Wyndham Mobile|Mobile, AL| 159|30.67729| -88.13003|FALSE|TRUE|FALSE|TRUE
5751069|Residence Inn By Marriott Mobile|Mobile, AL| 177|30.67123| -88.12920|FALSE|FALSE|TRUE|TRUE
5751069|Fort Conde Inn|Mobile, AL| 244|30.68697| -88.03987|FALSE|FALSE|TRUE|TRUE
5751069|The Admiral|Mobile, AL| 202|30.68924| -88.04322|FALSE|FALSE|TRUE|TRUE
5751069|Days Inn & Suites by Wyndham Mobile|Mobile, AL|  78|30.58472| -88.17230|TRUE|FALSE|FALSE|TRUE
5751069|Extend A Suites|Mobile, AL|  51|30.68689| -88.12510|TRUE|TRUE|FALSE|TRUE
5751069|Drury Inn Mobile|Mobile, AL| 140|30.67447| -88.12960|FALSE|TRUE|FALSE|TRUE
5751069|Hilton Garden Inn Mobile West I-65/Airport Blvd|Mobile, AL| 116|30.67411| -88.12934|FALSE|TRUE|FALSE|TRUE
5751069|Fairview Inn and Suites|Mobile, AL|  69|30.68595| -88.12495|TRUE|FALSE|FALSE|TRUE
5751069|Travelodge by Wyndham Mobile Al|Mobile, AL|  68|30.58466| -88.17211|TRUE|FALSE|FALSE|TRUE
5751069|Days Inn by Wyndham Mobile I-65|Mobile, AL|  83|30.67803| -88.12934|TRUE|TRUE|FALSE|TRUE
5751069|Homewood Suites by Hilton Mobile I-65/Airport Blvd, AL|Mobile, AL| 181|30.66208| -88.12816|FALSE|FALSE|TRUE|TRUE
5751069|Holiday Inn Mobile - Airport, an IHG Hotel|Mobile, AL| 161|30.68100| -88.12946|FALSE|TRUE|FALSE|TRUE
5751069|Red Roof Inn Mobile North - Saraland|Mobile, AL|  93|30.80378| -88.10026|TRUE|FALSE|FALSE|TRUE
5751069|Springhill Suites Mobile|Mobile, AL| 194|30.68131| -88.12961|FALSE|TRUE|TRUE|TRUE
5751069|Courtyard by Marriott Mobile|Mobile, AL| 177|30.67040| -88.12842|FALSE|FALSE|TRUE|TRUE
5751069|Super 8 by Wyndham Mobile I-65|Mobile, AL|  88|30.67810| -88.12959|TRUE|TRUE|FALSE|TRUE
5751069|Quality Inn & Suites at Airport Blvd I-65|Mobile, AL|  77|30.68140| -88.12891|TRUE|TRUE|FALSE|TRUE
5751069|Holiday Inn Express And Suites Mobile - University Area, an IHG Hotel|Mobile, AL| 193|30.68832| -88.17550|FALSE|TRUE|TRUE|TRUE
5751069|Hilton Garden Inn Mobile Downtown|Mobile, AL| 285|30.69217| -88.04341|FALSE|FALSE|TRUE|TRUE
5751069|Quality Inn Mobile West Tillmans Corner|Mobile, AL|  72|30.58521| -88.17275|TRUE|FALSE|FALSE|TRUE
5751069|Red Roof Inn Mobile - Midtown|Mobile, AL|  86|30.68778| -88.12458|TRUE|FALSE|FALSE|TRUE
5751069|Holiday Inn Mobile-Dwtn/Hist. District, an IHG Hotel|Mobile, AL| 185|30.68891| -88.04432|FALSE|FALSE|TRUE|TRUE
5751069|The Battle House Renaissance Mobile Hotel & Spa|Mobile, AL| 262|30.69312| -88.04067|FALSE|FALSE|TRUE|TRUE
5751086|Hampton Inn by Hilton Hattiesburg|Hattiesburg, MS| 163|31.32794| -89.35322|FALSE|TRUE|TRUE|TRUE
5751086|Holiday Inn Hattiesburg - North, an IHG Hotel|Hattiesburg, MS| 138|31.34938| -89.33980|FALSE|FALSE|TRUE|TRUE
5751086|Microtel Inn & Suites by Wyndham Hattiesburg|Hattiesburg, MS|  94|31.32553| -89.35703|TRUE|FALSE|FALSE|TRUE
5751086|Fairfield Inn by Marriott Hattiesburg|Hattiesburg, MS|  87|31.32657| -89.34977|TRUE|TRUE|FALSE|TRUE
5751086|Residence Inn by Marriott Hattiesburg|Hattiesburg, MS| 140|31.32852| -89.34993|FALSE|TRUE|TRUE|TRUE
5751086|Days Inn by Wyndham Hattiesburg MS|Hattiesburg, MS|  84|31.32585| -89.34941|TRUE|TRUE|FALSE|TRUE
5751086|Best Western Premier University Inn|Hattiesburg, MS| 131|31.32669| -89.35541|TRUE|FALSE|TRUE|TRUE
5751086|Home2 Suites by Hilton Hattiesburg|Hattiesburg, MS| 153|31.32821| -89.35351|FALSE|FALSE|TRUE|TRUE
5751086|TownePlace Suites Hattiesburg|Hattiesburg, MS| 138|31.33145| -89.35123|FALSE|TRUE|TRUE|TRUE
5751086|Doubletree by Hilton Hattiesburg, MS|Hattiesburg, MS| 140|31.35641| -89.34948|FALSE|FALSE|TRUE|TRUE
5751086|Courtyard by Marriott Hattiesburg|Hattiesburg, MS| 118|31.32861| -89.34905|TRUE|TRUE|FALSE|TRUE
5751086|Baymont by Wyndham Hattiesburg|Hattiesburg, MS|  79|31.32760| -89.35407|TRUE|FALSE|FALSE|TRUE
5751086|Comfort Suites Hattiesburg|Hattiesburg, MS| 113|31.32735| -89.35314|TRUE|TRUE|FALSE|TRUE
5751086|Avid Hotels Hattiesburg West, an IHG Hotel|Hattiesburg, MS| 135|31.32700| -89.34815|TRUE|TRUE|TRUE|TRUE
5751086|Hotel Indigo Hattiesburg, an IHG Hotel|Hattiesburg, MS| 168|31.32379| -89.33446|FALSE|TRUE|TRUE|TRUE
5751086|Hilton Garden Inn Hattiesburg|Hattiesburg, MS| 130|31.32739| -89.35531|TRUE|FALSE|FALSE|TRUE
5751086|Candlewood Suites Hattiesburg, an IHG Hotel|Hattiesburg, MS| 141|31.35732| -89.34969|FALSE|FALSE|TRUE|TRUE
5751086|Super 8 by Wyndham Hattiesburg South|Hattiesburg, MS|  95|31.32406| -89.34856|TRUE|TRUE|FALSE|TRUE
5751088|TownePlace Suites Hattiesburg|Hattiesburg, MS| 138|31.33145| -89.35123|FALSE|TRUE|TRUE|TRUE
5751088|Hotel Indigo Hattiesburg, an IHG Hotel|Hattiesburg, MS| 168|31.32379| -89.33446|FALSE|TRUE|TRUE|TRUE
5751088|Avid Hotels Hattiesburg West, an IHG Hotel|Hattiesburg, MS| 135|31.32700| -89.34815|TRUE|TRUE|TRUE|TRUE
5751088|Comfort Suites Hattiesburg|Hattiesburg, MS| 113|31.32735| -89.35314|TRUE|TRUE|FALSE|TRUE
5751088|Holiday Inn Hattiesburg - North, an IHG Hotel|Hattiesburg, MS| 138|31.34938| -89.33980|FALSE|FALSE|TRUE|TRUE
5751088|Hilton Garden Inn Hattiesburg|Hattiesburg, MS| 130|31.32739| -89.35531|TRUE|FALSE|FALSE|TRUE
5751088|Best Western Premier University Inn|Hattiesburg, MS| 131|31.32669| -89.35541|TRUE|FALSE|TRUE|TRUE
5751088|Home2 Suites by Hilton Hattiesburg|Hattiesburg, MS| 153|31.32821| -89.35351|FALSE|FALSE|TRUE|TRUE
5751088|Microtel Inn & Suites by Wyndham Hattiesburg|Hattiesburg, MS|  94|31.32553| -89.35703|TRUE|FALSE|FALSE|TRUE
5751088|Courtyard by Marriott Hattiesburg|Hattiesburg, MS| 118|31.32861| -89.34905|TRUE|TRUE|FALSE|TRUE
5751088|Hampton Inn by Hilton Hattiesburg|Hattiesburg, MS| 163|31.32794| -89.35322|FALSE|TRUE|TRUE|TRUE
5751088|Fairfield Inn by Marriott Hattiesburg|Hattiesburg, MS|  87|31.32657| -89.34977|TRUE|TRUE|FALSE|TRUE
5751088|Residence Inn by Marriott Hattiesburg|Hattiesburg, MS| 140|31.32852| -89.34993|FALSE|TRUE|TRUE|TRUE
5751088|Doubletree by Hilton Hattiesburg, MS|Hattiesburg, MS| 140|31.35641| -89.34948|FALSE|FALSE|TRUE|TRUE
5751088|Baymont by Wyndham Hattiesburg|Hattiesburg, MS|  79|31.32760| -89.35407|TRUE|FALSE|FALSE|TRUE
5751088|Super 8 by Wyndham Hattiesburg South|Hattiesburg, MS|  95|31.32406| -89.34856|TRUE|TRUE|FALSE|TRUE
5751088|Days Inn by Wyndham Hattiesburg MS|Hattiesburg, MS|  84|31.32585| -89.34941|TRUE|TRUE|FALSE|TRUE
5751088|Candlewood Suites Hattiesburg, an IHG Hotel|Hattiesburg, MS| 141|31.35732| -89.34969|FALSE|FALSE|TRUE|TRUE
5751673|Kimpton Harper Hotel, an IHG Hotel|Fort Worth, TX| 229|32.75284| -97.33030|FALSE|FALSE|TRUE|TRUE
5751673|Fairfield Inn & Suites Fort Worth University Drive|Fort Worth, TX| 151|32.73079| -97.35985|FALSE|TRUE|FALSE|TRUE
5751673|Scottish Inns Campus|Fort Worth, TX|  80|32.66587| -97.29600|TRUE|FALSE|FALSE|TRUE
5751673|Extended Stay America Suites Fort Worth Medical Center|Fort Worth, TX|  88|32.73570| -97.35097|TRUE|TRUE|FALSE|TRUE
5751673|Home2 Suites by Hilton Fort Worth Southwest Cityview|Fort Worth, TX| 118|32.68145| -97.40855|FALSE|TRUE|FALSE|TRUE
5751673|Extended Stay America Suites Fort Worth Southwest|Fort Worth, TX|  80|32.68081| -97.41176|TRUE|TRUE|FALSE|TRUE
5751673|TownePlace Suites Fort Worth University Area/Medical Center|Fort Worth, TX| 170|32.73068| -97.36824|FALSE|TRUE|FALSE|TRUE
5751673|Hyatt Place Fort Worth Cityview|Fort Worth, TX| 135|32.68093| -97.41308|FALSE|TRUE|FALSE|TRUE
5751673|SpringHill Suites by Marriott Fort Worth University|Fort Worth, TX| 178|32.73206| -97.36483|FALSE|TRUE|TRUE|TRUE
5751673|Super 8 by Wyndham Fort Worth Stockyards|Fort Worth, TX|  67|32.82586| -97.31567|TRUE|FALSE|FALSE|TRUE
5751673|Super 8 by Wyndham Fort Worth North|Fort Worth, TX|  71|32.83787| -97.29155|TRUE|FALSE|FALSE|TRUE
5751673|Hyatt Place Fort Worth/Historic Stockyards|Fort Worth, TX| 685|32.78800| -97.34630|FALSE|FALSE|TRUE|TRUE
5751673|Hotel Dryce|Fort Worth, TX| 346|32.73837| -97.37092|FALSE|TRUE|TRUE|TRUE
5751673|Courtyard by Marriott Fort Worth Historic Stockyards|Fort Worth, TX| 506|32.79127| -97.34940|FALSE|FALSE|TRUE|TRUE
5751673|Stockyards Hotel|Fort Worth, TX| 574|32.78907| -97.34867|FALSE|FALSE|TRUE|TRUE
5751673|WoodSpring Suites Fort Worth Forest Hill|Fort Worth, TX|  79|32.66226| -97.26295|TRUE|FALSE|FALSE|TRUE
5751673|Hotel Drover, Autograph Collection|Fort Worth, TX|1169|32.78730| -97.34749|FALSE|FALSE|TRUE|TRUE
5751673|Microtel Inn & Suites by Wyndham Ft. Worth North/At Fossil|Fort Worth, TX|  83|32.83643| -97.29280|TRUE|FALSE|FALSE|TRUE
5751673|Hilton Garden Inn Fort Worth Medical Center|Fort Worth, TX| 180|32.73487| -97.35180|FALSE|TRUE|TRUE|TRUE
5751673|Extended Stay America Suites Fort Worth City View|Fort Worth, TX|  80|32.68093| -97.41308|TRUE|TRUE|FALSE|TRUE
5751673|Hampton Inn & Suites Fort Worth Downtown|Fort Worth, TX| 178|32.75166| -97.32764|FALSE|FALSE|TRUE|TRUE
5751673|Omni Fort Worth Hotel|Fort Worth, TX| 238|32.74828| -97.32850|FALSE|FALSE|TRUE|TRUE
5751673|WoodSpring Suites Fort Worth Fossil Creek|Fort Worth, TX|  75|32.84032| -97.29692|TRUE|FALSE|FALSE|TRUE
5751673|Stay Express Inn Fort Worth|Fort Worth, TX|  81|32.74798| -97.29172|TRUE|FALSE|FALSE|TRUE
5751673|Hampton Inn Fort Worth Southwest Cityview|Fort Worth, TX| 117|32.68108| -97.40238|FALSE|TRUE|FALSE|TRUE
5753449|Comfort Suites Manhattan|Manhattan, KS| 144|39.19068| -96.55642|TRUE|TRUE|TRUE|TRUE
5753449|Best Western Manhattan Inn|Manhattan, KS|  97|39.18655| -96.54925|TRUE|FALSE|TRUE|TRUE
5753449|Quality Inn & Suites|Manhattan, KS|  88|39.18052| -96.55399|TRUE|TRUE|FALSE|TRUE
5753449|Parkwood Inn & Suites|Manhattan, KS| 127|39.17513| -96.58270|TRUE|TRUE|TRUE|TRUE
5753449|Candlewood Suites Manhattan, an IHG Hotel|Manhattan, KS| 128|39.17538| -96.55936|TRUE|TRUE|TRUE|TRUE
5753449|Four Points by Sheraton Manhattan|Manhattan, KS| 114|39.17028| -96.59746|TRUE|TRUE|TRUE|TRUE
5753449|The Bluemont Hotel|Manhattan, KS| 227|39.18713| -96.57578|FALSE|TRUE|TRUE|TRUE
5753449|Holiday Inn Manhattan at the Campus, an IHG Hotel|Manhattan, KS| 125|39.18551| -96.58258|TRUE|TRUE|TRUE|TRUE
5753449|Courtyard by Marriott Manhattan Aggieville|Manhattan, KS| 113|39.18634| -96.57501|TRUE|TRUE|TRUE|TRUE
5753449|Hilton Garden Inn Manhattan|Manhattan, KS| 129|39.17522| -96.56066|TRUE|TRUE|TRUE|TRUE
5753449|Super 8 by Wyndham Manhattan KS|Manhattan, KS|  97|39.18120| -96.55578|TRUE|TRUE|TRUE|TRUE
5753453|Hilton Garden Inn Manhattan|Manhattan, KS| 129|39.17522| -96.56066|TRUE|TRUE|TRUE|TRUE
5753453|Quality Inn & Suites|Manhattan, KS|  88|39.18052| -96.55399|TRUE|TRUE|FALSE|TRUE
5753453|Parkwood Inn & Suites|Manhattan, KS| 127|39.17513| -96.58270|TRUE|TRUE|TRUE|TRUE
5753453|Four Points by Sheraton Manhattan|Manhattan, KS| 114|39.17028| -96.59746|TRUE|TRUE|TRUE|TRUE
5753453|Best Western Manhattan Inn|Manhattan, KS|  97|39.18655| -96.54925|TRUE|FALSE|TRUE|TRUE
5753453|The Bluemont Hotel|Manhattan, KS| 227|39.18713| -96.57578|FALSE|TRUE|TRUE|TRUE
5753453|Comfort Suites Manhattan|Manhattan, KS| 144|39.19068| -96.55642|TRUE|TRUE|TRUE|TRUE
5753453|Candlewood Suites Manhattan, an IHG Hotel|Manhattan, KS| 128|39.17538| -96.55936|TRUE|TRUE|TRUE|TRUE
5753453|Holiday Inn Manhattan at the Campus, an IHG Hotel|Manhattan, KS| 125|39.18551| -96.58258|TRUE|TRUE|TRUE|TRUE
5753453|Super 8 by Wyndham Manhattan KS|Manhattan, KS|  97|39.18120| -96.55578|TRUE|TRUE|TRUE|TRUE
5753453|Courtyard by Marriott Manhattan Aggieville|Manhattan, KS| 113|39.18634| -96.57501|TRUE|TRUE|TRUE|TRUE
5759142|Red Carpet Inn And Suites Monmouth Jtc|Piscataway, NJ| 103|40.40698| -74.50687|TRUE|FALSE|FALSE|TRUE
5759142|Crowne Plaza Edison, an IHG Hotel|Piscataway, NJ| 141|40.52496| -74.39056|FALSE|TRUE|TRUE|TRUE
5759142|Knights Inn South Amboy|Piscataway, NJ| 109|40.49356| -74.29803|TRUE|FALSE|FALSE|TRUE
5759142|Somerset Lofts, Ascend Hotel Collection|Piscataway, NJ|  86|40.53486| -74.50938|TRUE|FALSE|FALSE|TRUE
5759142|The Garden Executive Hotel|Piscataway, NJ| 112|40.55603| -74.43438|TRUE|TRUE|FALSE|TRUE
5759142|Extended Stay America Suites Somerset Franklin|Piscataway, NJ| 131|40.55489| -74.46429|FALSE|TRUE|FALSE|TRUE
5759142|Hilton East Brunswick Hotel & Executive Meeting Center|Piscataway, NJ| 135|40.48002| -74.40873|FALSE|FALSE|TRUE|TRUE
5759142|Chateau Grande Hotel|Piscataway, NJ| 409|40.55489| -74.46429|FALSE|TRUE|TRUE|TRUE
5759142|Home2 Suites by Hilton Edison|Piscataway, NJ| 150|40.54196| -74.39248|FALSE|TRUE|TRUE|TRUE
5759142|Hampton Inn South Plainfield-Piscataway|Piscataway, NJ| 155|40.55637| -74.43299|FALSE|TRUE|TRUE|TRUE
5759142|The Heldrich Hotel|Piscataway, NJ| 151|40.49300| -74.44378|FALSE|TRUE|TRUE|TRUE
5759142|Town Inn & Suites South Plainfield-Piscataway|Piscataway, NJ|  80|40.12746| -74.70493|TRUE|FALSE|FALSE|TRUE
5759142|Comfort Suites Near University|Piscataway, NJ| 112|40.43016| -74.51701|TRUE|FALSE|FALSE|TRUE
5759142|Delta Hotels by Marriott Somerset|Piscataway, NJ| 136|40.54063| -74.51849|FALSE|FALSE|TRUE|TRUE
5759142|Days Inn by Wyndham Iselin / Woodbridge|Piscataway, NJ| 103|40.56692| -74.29848|TRUE|FALSE|FALSE|TRUE
5759142|Clarion Hotel Somerset - New Brunswick|Piscataway, NJ|  99|40.55189| -74.54523|TRUE|FALSE|FALSE|TRUE
5759142|WoodSpring Suites South Plainfield|Piscataway, NJ| 132|40.55864| -74.42647|FALSE|TRUE|FALSE|TRUE
5759142|Hyatt Regency New Brunswick|Piscataway, NJ| 212|40.49633| -74.44118|FALSE|TRUE|TRUE|TRUE
5759142|Embassy Suites by Hilton Piscataway Somerset|Piscataway, NJ| 135|40.54279| -74.50162|FALSE|FALSE|TRUE|TRUE
5759142|Comfort Suites East Brunswick|Piscataway, NJ| 106|40.46088| -74.40128|TRUE|FALSE|FALSE|TRUE
5759142|Holiday Inn South Plainfield-Piscataway, an IHG Hotel|Piscataway, NJ| 146|40.55490| -74.43301|FALSE|TRUE|TRUE|TRUE
5759142|Days Inn by Wyndham Hillsborough|Piscataway, NJ|  95|40.53947| -74.61529|TRUE|FALSE|FALSE|TRUE
5760670|Ramada by Wyndham College Station|College Station, TX| 246|30.64313| -96.31399|TRUE|TRUE|TRUE|TRUE
5760670|The Stella Hotel, Autograph Collection|College Station, TX| 485|30.60129| -96.38222|TRUE|TRUE|TRUE|TRUE
5760670|Days Inn by Wyndham Bryan College Station|College Station, TX| 177|30.60524| -96.30855|TRUE|TRUE|TRUE|TRUE
5760670|Candlewood Suites College Station At University, an IHG Hotel|College Station, TX| 345|30.64642| -96.30338|TRUE|TRUE|TRUE|TRUE
5760670|Studio 6 Bryan, TX - University Area|College Station, TX|  57|30.65542| -96.36585|TRUE|TRUE|FALSE|TRUE
5760670|Sleep Inn|College Station, TX| 275|30.62798| -96.33441|TRUE|TRUE|TRUE|TRUE
5760670|Days Inn by Wyndham Bryan|College Station, TX| 207|30.67953| -96.34492|TRUE|FALSE|TRUE|TRUE
5760670|Residence Inn Bryan College Station|College Station, TX| 769|30.63284| -96.32600|FALSE|TRUE|TRUE|TRUE
5760670|EZ Travel Inn|College Station, TX| 115|30.61264| -96.31486|TRUE|TRUE|TRUE|TRUE
5760670|Baymont by Wyndham College Station|College Station, TX| 300|30.63203| -96.30054|TRUE|TRUE|TRUE|TRUE
5760670|La Quinta Inn by Wyndham College Station|College Station, TX| 230|30.62777| -96.33282|TRUE|TRUE|TRUE|TRUE
5760672|Days Inn by Wyndham Bryan College Station|College Station, TX| 177|30.60524| -96.30855|TRUE|TRUE|TRUE|TRUE
5760672|Days Inn by Wyndham Bryan|College Station, TX| 207|30.67953| -96.34492|TRUE|FALSE|TRUE|TRUE
5760672|EZ Travel Inn|College Station, TX| 115|30.61264| -96.31486|TRUE|TRUE|TRUE|TRUE
5760672|La Quinta Inn by Wyndham College Station|College Station, TX| 230|30.62777| -96.33282|TRUE|TRUE|TRUE|TRUE
5760672|Candlewood Suites College Station At University, an IHG Hotel|College Station, TX| 345|30.64642| -96.30338|TRUE|TRUE|TRUE|TRUE
5760672|Residence Inn Bryan College Station|College Station, TX| 769|30.63284| -96.32600|FALSE|TRUE|TRUE|TRUE
5760672|Ramada by Wyndham College Station|College Station, TX| 246|30.64313| -96.31399|TRUE|TRUE|TRUE|TRUE
5760672|Studio 6 Bryan, TX - University Area|College Station, TX|  57|30.65542| -96.36585|TRUE|TRUE|FALSE|TRUE
5760672|The Stella Hotel, Autograph Collection|College Station, TX| 485|30.60129| -96.38222|TRUE|TRUE|TRUE|TRUE
5760672|Baymont by Wyndham College Station|College Station, TX| 300|30.63203| -96.30054|TRUE|TRUE|TRUE|TRUE
5760672|Sleep Inn|College Station, TX| 275|30.62798| -96.33441|TRUE|TRUE|TRUE|TRUE
5761614|AC Hotel by Marriott Washington DC Convention Center|Washington, DC| 146|38.90281| -77.02015|FALSE|TRUE|FALSE|TRUE
5761614|Motto by Hilton Washington DC City Center|Washington, DC| 155|38.89995| -77.02120|FALSE|TRUE|FALSE|TRUE
5761614|Waldorf Astoria Washington DC|Washington, DC|1693|38.89412| -77.02756|FALSE|TRUE|TRUE|TRUE
5761614|Best Western Capital Beltway|Washington, DC|  91|38.96184| -76.86511|TRUE|FALSE|FALSE|TRUE
5761614|Super 8 by Wyndham Camp Springs/Andrews AFB DC Area|Washington, DC|  91|38.81399| -76.89603|TRUE|FALSE|FALSE|TRUE
5761614|Hilton Washington DC Capitol Hill|Washington, DC| 170|38.89686| -77.01111|FALSE|TRUE|TRUE|TRUE
5761614|Pendry Washington DC - The Wharf|Washington, DC| 431|38.87728| -77.02236|FALSE|FALSE|TRUE|TRUE
5761614|Salamander Washington DC|Washington, DC| 405|38.93055| -77.05271|FALSE|FALSE|TRUE|TRUE
5761614|Days Inn by Wyndham Arlington Pentagon|Washington, DC|  82|38.86167| -77.08811|TRUE|FALSE|FALSE|TRUE
5761614|Days Inn by Wyndham Arlington/Washington DC|Washington, DC|  96|38.88052| -77.08478|TRUE|FALSE|FALSE|TRUE
5761614|WoodSpring Suites Washington DC East Arena Drive|Washington, DC|  97|38.90793| -76.85133|TRUE|FALSE|FALSE|TRUE
5761614|Conrad Washington, DC|Washington, DC| 441|38.90137| -77.02528|FALSE|TRUE|TRUE|TRUE
5761614|Hyatt Place Washington DC/US Capitol|Washington, DC| 137|38.90728| -77.00774|FALSE|TRUE|FALSE|TRUE
5761614|Renaissance Washington DC Downtown Hotel, a Marriott hotel|Washington, DC| 164|38.90168| -77.02383|FALSE|TRUE|TRUE|TRUE
5761614|Days Inn by Wyndham Camp Springs/Andrews AFB DC Area|Washington, DC|  72|38.81392| -76.89562|TRUE|FALSE|FALSE|TRUE
5761614|Hyatt Place Washington DC/National Mall|Washington, DC| 183|38.88293| -77.01797|FALSE|FALSE|TRUE|TRUE
5761614|Phoenix Park Hotel|Washington, DC| 164|38.89711| -77.00947|FALSE|TRUE|TRUE|TRUE
5761614|Metro Points Hotel|Washington, DC|  97|38.95892| -76.86889|TRUE|FALSE|FALSE|TRUE
5761614|Super 8 by Wyndham Alexandria/Washington D.C. Area|Washington, DC|  87|38.81583| -77.14109|TRUE|FALSE|FALSE|TRUE
5761614|Hyatt House Washington DC/The Wharf|Washington, DC| 200|38.87859| -77.02424|FALSE|FALSE|TRUE|TRUE
5761614|Red Roof Inn Washington DC - Lanham|Washington, DC|  94|38.96478| -76.85962|TRUE|FALSE|FALSE|TRUE
5761614|YOTEL Washington DC|Washington, DC| 235|38.89531| -77.01085|FALSE|TRUE|TRUE|TRUE
5761614|Washington Plaza Hotel|Washington, DC| 125|38.90620| -77.03087|FALSE|TRUE|FALSE|TRUE
5761614|Days Inn by Wyndham Lanham Washington D.C|Washington, DC|  86|38.96226| -76.86088|TRUE|FALSE|FALSE|TRUE
5761614|Inns Of Virginia - Arlington|Washington, DC|  62|38.89683| -77.10250|TRUE|FALSE|FALSE|TRUE
5763316|Hotel Napoleon, Ascend Hotel Collection|Memphis, TN| 203|35.14429| -90.05026|FALSE|TRUE|TRUE|TRUE
5763316|Hyatt Centric Beale Street Memphis|Memphis, TN| 223|35.14041| -90.05676|FALSE|TRUE|TRUE|TRUE
5763316|Holiday Inn Downtown Memphis, an IHG Hotel|Memphis, TN| 145|35.14301| -90.05207|FALSE|TRUE|FALSE|TRUE
5763316|ARRIVE Memphis|Memphis, TN| 221|35.13439| -90.05935|FALSE|TRUE|TRUE|TRUE
5763316|Days Inn by Wyndham Memphis at Graceland|Memphis, TN| 103|35.04380| -90.02580|TRUE|FALSE|FALSE|TRUE
5763316|Red Roof Inn West Memphis, AR|Memphis, TN|  80|35.16056| -90.15750|TRUE|FALSE|FALSE|TRUE
5763316|The Memphian, a Tribute Portfolio Hotel|Memphis, TN| 267|35.13590| -89.99042|FALSE|FALSE|TRUE|TRUE
5763316|The Westin Memphis Beale Street|Memphis, TN| 228|35.13902| -90.05256|FALSE|TRUE|TRUE|TRUE
5763316|The Central Station Memphis, Curio Collection by Hilton|Memphis, TN| 236|35.13207| -90.05938|FALSE|FALSE|TRUE|TRUE
5763316|Caption BY Hyatt Beale Street Memphis|Memphis, TN| 164|35.14001| -90.05709|FALSE|TRUE|FALSE|TRUE
5763316|Homegate Inn and Suites|Memphis, TN|  86|35.15923| -90.15532|TRUE|FALSE|FALSE|TRUE
5763316|Days Inn by Wyndham West Memphis|Memphis, TN|  92|35.16020| -90.15864|TRUE|FALSE|FALSE|TRUE
5763316|Extended Stay America Suites Memphis Airport|Memphis, TN|  92|35.04207| -89.97917|TRUE|FALSE|FALSE|TRUE
5763316|Travelodge by Wyndham Memphis Airport/Graceland|Memphis, TN|  86|35.05989| -90.01490|TRUE|FALSE|FALSE|TRUE
5763316|Baymont by Wyndham Memphis I-240|Memphis, TN| 103|35.07854| -89.90343|TRUE|FALSE|FALSE|TRUE
5763316|Canopy by Hilton Memphis Downtown|Memphis, TN| 186|35.14294| -90.05130|FALSE|TRUE|TRUE|TRUE
5763316|Express Inn|Memphis, TN|  87|35.05577| -90.02669|TRUE|FALSE|FALSE|TRUE
5763316|The Guest House at Graceland|Memphis, TN| 299|35.04940| -90.02301|FALSE|FALSE|TRUE|TRUE
5763316|Quality Inn|Memphis, TN|  77|35.16170| -89.86259|TRUE|FALSE|FALSE|TRUE
5763316|River Inn of Harbor Town|Memphis, TN| 329|35.16131| -90.05501|FALSE|FALSE|TRUE|TRUE
5763316|Ramada by Wyndham West Memphis|Memphis, TN|  70|35.15810| -90.16000|TRUE|FALSE|FALSE|TRUE
5763316|DoubleTree by Hilton Memphis Downtown|Memphis, TN| 152|35.14206| -90.05091|FALSE|TRUE|FALSE|TRUE
5763316|Comfort Inn Marion|Memphis, TN| 100|35.20259| -90.20263|TRUE|FALSE|FALSE|TRUE
5763316|Hilton Garden Inn Memphis Downtown TN|Memphis, TN| 181|35.14202| -90.05021|FALSE|TRUE|FALSE|TRUE
5763316|Hampton Inn & Suites Memphis-Beale Street|Memphis, TN| 202|35.14020| -90.05199|FALSE|TRUE|TRUE|TRUE
5766011|Extended Stay America Suites Champaign Urbana|Champaign, IL| 118|40.11642| -88.24338|TRUE|TRUE|FALSE|TRUE
5766011|Fairfield Inn & Suites by Marriott Champaign|Champaign, IL| 111|40.13579| -88.25158|TRUE|FALSE|FALSE|TRUE
5766011|Best Western Plus Champaign/Urbana Inn|Champaign, IL| 153|40.13813| -88.25228|FALSE|FALSE|TRUE|TRUE
5766011|Hilton Garden Inn Champaign/Urbana|Champaign, IL| 201|40.09913| -88.24621|FALSE|TRUE|TRUE|TRUE
5766011|Baymont by Wyndham Champaign|Champaign, IL|  91|40.13573| -88.24796|TRUE|FALSE|FALSE|TRUE
5766011|Home2 Suites by Hilton Champaign/Urbana|Champaign, IL| 176|40.09236| -88.24736|FALSE|TRUE|TRUE|TRUE
5766011|Hampton Inn Champaign/Urbana|Champaign, IL| 124|40.11700| -88.22472|TRUE|TRUE|FALSE|TRUE
5766011|Drury Inn & Suites Champaign|Champaign, IL| 142|40.13673| -88.25873|FALSE|FALSE|TRUE|TRUE
5766011|Holiday Inn Champaign, an IHG Hotel|Champaign, IL| 138|40.09676| -88.24556|FALSE|TRUE|FALSE|TRUE
5766011|La Quinta Inn by Wyndham Champaign|Champaign, IL|  91|40.13854| -88.24486|TRUE|FALSE|FALSE|TRUE
5766011|Econo Lodge Champaign Urbana - University Area|Champaign, IL|  81|40.13079| -88.21904|TRUE|FALSE|FALSE|TRUE
5766011|Hyatt Place Champaign-Urbana|Champaign, IL| 279|40.11814| -88.24372|FALSE|TRUE|TRUE|TRUE
5766011|Courtyard Champaign|Champaign, IL| 136|40.10463| -88.22447|FALSE|TRUE|FALSE|TRUE
5766011|Homewood Suites by Hilton Champaign-Urbana|Champaign, IL| 201|40.09970| -88.24585|FALSE|TRUE|TRUE|TRUE
5766011|Wyndham Garden Conference Center Champaign/Urbana|Champaign, IL|  76|40.13143| -88.22185|TRUE|FALSE|FALSE|TRUE
5766011|Comfort Suites Urbana Champaign, University Area|Champaign, IL| 146|40.13098| -88.22022|FALSE|FALSE|TRUE|TRUE
5766011|Best Western University Inn|Champaign, IL| 102|40.13287| -88.22039|TRUE|FALSE|FALSE|TRUE
5766011|Champaign Garden Inn|Champaign, IL| 144|40.11892| -88.24985|FALSE|FALSE|TRUE|TRUE
5766011|Candlewood Suites Champaign-Urbana University Area, an IHG Hotel|Champaign, IL| 102|40.13902| -88.25177|TRUE|FALSE|FALSE|TRUE
5766011|Americas Best Value Inn Champaign|Champaign, IL|  70|40.13303| -88.26197|TRUE|FALSE|FALSE|TRUE
5766011|TownePlace Suites by Marriott Champaign Urbana/Campustown|Champaign, IL| 253|40.11081| -88.23089|FALSE|TRUE|TRUE|TRUE
5766011|I Hotel And Conference Center|Champaign, IL| 236|40.09374| -88.23731|FALSE|TRUE|TRUE|TRUE
5766025|SureStay Hotel by Best Western Christiansburg Blacksburg|Blacksburg, VA| 102|37.16988| -80.41760|TRUE|TRUE|FALSE|TRUE
5766025|Tru by Hilton Radford, VA|Blacksburg, VA| 146|37.10216| -80.51606|TRUE|FALSE|TRUE|TRUE
5766025|Red Carpet Inn Blacksburg|Blacksburg, VA| 111|37.21192| -80.39914|TRUE|TRUE|FALSE|TRUE
5766025|Holiday Inn Christiansburg Blacksburg, an IHG Hotel|Blacksburg, VA| 162|37.16221| -80.42734|FALSE|TRUE|TRUE|TRUE
5766025|Hampton Inn Christiansburg/Blacksburg|Blacksburg, VA| 242|37.16570| -80.41684|FALSE|TRUE|TRUE|TRUE
5766025|Fairfield Inn by Marriott Christiansburg|Blacksburg, VA| 215|37.13622| -80.35227|FALSE|FALSE|TRUE|TRUE
5766025|Wingate by Wyndham Christiansburg|Blacksburg, VA| 125|37.14040| -80.35310|TRUE|TRUE|TRUE|TRUE
5766025|Hyatt Place Blacksburg / University|Blacksburg, VA| 313|37.23245| -80.43149|FALSE|TRUE|TRUE|TRUE
5766025|Quality Inn Christiansburg - Blacksburg|Blacksburg, VA| 132|37.13962| -80.35285|TRUE|TRUE|TRUE|TRUE
5766025|Hilton Garden Inn Blacksburg University|Blacksburg, VA| 280|37.22497| -80.44214|FALSE|TRUE|TRUE|TRUE
5766025|Econo Lodge Christiansburg-Blacksburg I-81|Blacksburg, VA|  68|37.13780| -80.35902|TRUE|TRUE|FALSE|TRUE
5766025|Quality Inn Radford-West Blacksburg I-81|Blacksburg, VA|  92|37.12662| -80.53852|TRUE|FALSE|FALSE|TRUE
5766025|Residence Inn by Marriott Blacksburg-University|Blacksburg, VA| 434|37.23188| -80.43052|FALSE|TRUE|TRUE|TRUE
5766025|Days Inn by Wyndham Christiansburg|Blacksburg, VA|  71|37.13739| -80.35318|TRUE|FALSE|FALSE|TRUE
5766025|Super 8 by Wyndham Christiansburg|Blacksburg, VA|  57|37.13851| -80.34874|TRUE|FALSE|FALSE|TRUE
5766025|La Quinta Inn by Wyndham Radford|Blacksburg, VA| 124|37.12643| -80.54052|TRUE|FALSE|FALSE|TRUE
5766025|Homewood Suites By Hilton Christiansburg|Blacksburg, VA| 214|37.13691| -80.35215|FALSE|FALSE|TRUE|TRUE
5766037|Comfort Suites Airport|Salt Lake City, UT|  96|40.77324|-111.95061|TRUE|FALSE|FALSE|TRUE
5766037|Microtel Inn & Suites by Wyndham Salt Lake City Airport|Salt Lake City, UT|  84|40.77006|-112.00282|TRUE|FALSE|FALSE|TRUE
5766037|HomeTowne Studios by Red Roof Salt Lake City - Mid Valley|Salt Lake City, UT|  96|40.64658|-111.93621|TRUE|FALSE|FALSE|TRUE
5766037|Kimpton Hotel Monaco Salt Lake City, an IHG Hotel|Salt Lake City, UT| 172|40.76472|-111.89222|FALSE|TRUE|TRUE|TRUE
5766037|Quality Inn Downtown|Salt Lake City, UT|  87|40.75574|-111.89726|TRUE|FALSE|FALSE|TRUE
5766037|Extended Stay America Suites Salt Lake City West Valley Ctr|Salt Lake City, UT|  97|40.72464|-111.85618|FALSE|TRUE|FALSE|TRUE
5766037|Marriott University Park|Salt Lake City, UT| 173|40.75925|-111.83021|FALSE|TRUE|TRUE|TRUE
5766037|Econo Lodge Downtown|Salt Lake City, UT|  90|40.77127|-111.91175|TRUE|FALSE|FALSE|TRUE
5766037|Hilton Salt Lake City Center|Salt Lake City, UT| 164|40.76390|-111.89326|FALSE|TRUE|FALSE|TRUE
5766037|Kasa Downtown Salt Lake City|Salt Lake City, UT| 311|40.76160|-111.90316|FALSE|FALSE|TRUE|TRUE
5766037|Quality Inn & Suites Airport West|Salt Lake City, UT|  76|40.77548|-112.02300|TRUE|FALSE|FALSE|TRUE
5766037|Ramada by Wyndham Salt Lake City|Salt Lake City, UT|  84|40.71740|-111.88712|TRUE|FALSE|FALSE|TRUE
5766037|Marriott City Center|Salt Lake City, UT| 179|40.76433|-111.88859|FALSE|TRUE|TRUE|TRUE
5766037|Hyatt Regency Salt Lake City|Salt Lake City, UT| 204|40.76574|-111.89463|FALSE|FALSE|TRUE|TRUE
5766037|Comfort Inn Murray - Salt Lake City South|Salt Lake City, UT|  91|40.65501|-111.90444|TRUE|FALSE|FALSE|TRUE
5766037|Ramada by Wyndham Salt Lake City Airport Hotel|Salt Lake City, UT|  76|40.77535|-112.02386|TRUE|FALSE|FALSE|TRUE
5766037|MainStay Suites Salt Lake City Fort Union|Salt Lake City, UT|  86|40.62426|-111.85270|TRUE|FALSE|FALSE|TRUE
5766037|Crystal Inn Hotel & Suites Salt Lake City|Salt Lake City, UT| 174|40.75888|-111.89776|FALSE|FALSE|TRUE|TRUE
5766037|Little America Hotel|Salt Lake City, UT| 215|40.75799|-111.89193|FALSE|TRUE|TRUE|TRUE
5766037|The Grand America Hotel|Salt Lake City, UT| 340|40.75740|-111.88888|FALSE|TRUE|TRUE|TRUE
5766037|Ellerbeck Mansion Bed & Breakfast|Salt Lake City, UT| 217|40.77263|-111.88172|FALSE|TRUE|TRUE|TRUE
5766037|The Metropolitan Inn|Salt Lake City, UT|  95|40.75780|-111.89459|TRUE|FALSE|FALSE|TRUE
5766037|Holiday Inn Express Salt Lake City Downtown, an IHG Hotel|Salt Lake City, UT| 150|40.76469|-111.89444|FALSE|TRUE|FALSE|TRUE
5766037|Salt Lake Marriott Downtown at City Creek|Salt Lake City, UT| 227|40.76774|-111.89313|FALSE|TRUE|TRUE|TRUE
5766039|The Grand America Hotel|Salt Lake City, UT| 340|40.75740|-111.88888|FALSE|TRUE|TRUE|TRUE
5766039|Comfort Suites Airport|Salt Lake City, UT|  96|40.77324|-111.95061|TRUE|FALSE|FALSE|TRUE
5766039|Ramada by Wyndham Salt Lake City|Salt Lake City, UT|  84|40.71740|-111.88712|TRUE|FALSE|FALSE|TRUE
5766039|HomeTowne Studios by Red Roof Salt Lake City - Mid Valley|Salt Lake City, UT|  96|40.64658|-111.93621|TRUE|FALSE|FALSE|TRUE
5766039|Ramada by Wyndham Salt Lake City Airport Hotel|Salt Lake City, UT|  76|40.77535|-112.02386|TRUE|FALSE|FALSE|TRUE
5766039|Extended Stay America Suites Salt Lake City West Valley Ctr|Salt Lake City, UT|  97|40.72464|-111.85618|FALSE|TRUE|FALSE|TRUE
5766039|Comfort Inn Murray - Salt Lake City South|Salt Lake City, UT|  91|40.65501|-111.90444|TRUE|FALSE|FALSE|TRUE
5766039|Kasa Downtown Salt Lake City|Salt Lake City, UT| 311|40.76160|-111.90316|FALSE|FALSE|TRUE|TRUE
5766039|Hyatt Regency Salt Lake City|Salt Lake City, UT| 204|40.76574|-111.89463|FALSE|FALSE|TRUE|TRUE
5766039|Marriott University Park|Salt Lake City, UT| 173|40.75925|-111.83021|FALSE|TRUE|TRUE|TRUE
5766039|Crystal Inn Hotel & Suites Salt Lake City|Salt Lake City, UT| 174|40.75888|-111.89776|FALSE|FALSE|TRUE|TRUE
5766039|Hilton Salt Lake City Center|Salt Lake City, UT| 164|40.76390|-111.89326|FALSE|TRUE|FALSE|TRUE
5766039|Kimpton Hotel Monaco Salt Lake City, an IHG Hotel|Salt Lake City, UT| 172|40.76472|-111.89222|FALSE|TRUE|TRUE|TRUE
5766039|The Metropolitan Inn|Salt Lake City, UT|  95|40.75780|-111.89459|TRUE|FALSE|FALSE|TRUE
5766039|Quality Inn & Suites Airport West|Salt Lake City, UT|  76|40.77548|-112.02300|TRUE|FALSE|FALSE|TRUE
5766039|Quality Inn Downtown|Salt Lake City, UT|  87|40.75574|-111.89726|TRUE|FALSE|FALSE|TRUE
5766039|Microtel Inn & Suites by Wyndham Salt Lake City Airport|Salt Lake City, UT|  84|40.77006|-112.00282|TRUE|FALSE|FALSE|TRUE
5766039|Marriott City Center|Salt Lake City, UT| 179|40.76433|-111.88859|FALSE|TRUE|TRUE|TRUE
5766039|MainStay Suites Salt Lake City Fort Union|Salt Lake City, UT|  86|40.62426|-111.85270|TRUE|FALSE|FALSE|TRUE
5766039|Salt Lake Marriott Downtown at City Creek|Salt Lake City, UT| 227|40.76774|-111.89313|FALSE|TRUE|TRUE|TRUE
5766039|Ellerbeck Mansion Bed & Breakfast|Salt Lake City, UT| 217|40.77263|-111.88172|FALSE|TRUE|TRUE|TRUE
5766039|Econo Lodge Downtown|Salt Lake City, UT|  90|40.77127|-111.91175|TRUE|FALSE|FALSE|TRUE
5766039|Holiday Inn Express Salt Lake City Downtown, an IHG Hotel|Salt Lake City, UT| 150|40.76469|-111.89444|FALSE|TRUE|FALSE|TRUE
5766039|Little America Hotel|Salt Lake City, UT| 215|40.75799|-111.89193|FALSE|TRUE|TRUE|TRUE
5767942|The Heathman Hotel|Portland, OR| 206|45.51712|-122.68115|FALSE|FALSE|TRUE|TRUE
5767942|Mark Spencer Hotel|Portland, OR| 124|45.52218|-122.68259|FALSE|TRUE|FALSE|TRUE
5767942|The Nines, a Luxury Collection Hotel, Portland|Portland, OR| 255|45.51894|-122.67780|FALSE|FALSE|TRUE|TRUE
5767942|Quality Inn Downtown Convention Center|Portland, OR| 104|45.53206|-122.66138|TRUE|FALSE|FALSE|TRUE
5767942|Sentinel Hotel|Portland, OR| 265|45.52061|-122.68259|FALSE|FALSE|TRUE|TRUE
5767942|Best Western Inn Of Vancouver|Portland, OR| 105|45.62317|-122.55405|TRUE|FALSE|FALSE|TRUE
5767942|Econo Lodge Portland City Center|Portland, OR| 104|45.51523|-122.67839|TRUE|FALSE|FALSE|TRUE
5767942|La Quinta Inn & Suites by Wyndham Portland NW|Portland, OR| 132|45.55288|-122.73080|FALSE|TRUE|FALSE|TRUE
5767942|The Hoxton Portland|Portland, OR| 231|45.52340|-122.67473|FALSE|FALSE|TRUE|TRUE
5767942|Woodlark|Portland, OR| 209|45.52058|-122.68050|FALSE|FALSE|TRUE|TRUE
5767942|Quality Inn Tigard - Portland Southwest|Portland, OR|  98|45.44140|-122.74605|TRUE|FALSE|FALSE|TRUE
5767942|Oxford Suites Portland - Jantzen Beach|Portland, OR| 132|45.61102|-122.67604|FALSE|TRUE|FALSE|TRUE
5767942|Hyatt Centric Downtown Portland|Portland, OR| 166|45.52083|-122.68322|FALSE|TRUE|FALSE|TRUE
5767942|Howard Johnson by Wyndham Portland Airport|Portland, OR|  86|45.55357|-122.57777|TRUE|FALSE|FALSE|TRUE
5767942|Hotel deLuxe|Portland, OR| 200|45.52098|-122.68772|FALSE|TRUE|TRUE|TRUE
5767942|Moxy Portland Downtown|Portland, OR| 137|45.52094|-122.68198|FALSE|TRUE|FALSE|TRUE
5767942|Dossier Hotel|Portland, OR| 190|45.52003|-122.68007|FALSE|FALSE|TRUE|TRUE
5767942|SureStay Hotel by Best Western Portland City Center|Portland, OR|  97|45.50574|-122.68242|TRUE|FALSE|FALSE|TRUE
5767942|Barsala at KoZ|Portland, OR| 186|45.53093|-122.68780|FALSE|TRUE|FALSE|TRUE
5767942|Kimpton Hotel Vintage Portland, an IHG Hotel|Portland, OR| 223|45.52079|-122.67848|FALSE|FALSE|TRUE|TRUE
5767942|Park Lane Suites and Inn|Portland, OR|  91|45.52228|-122.69579|TRUE|TRUE|FALSE|TRUE
5767942|Kimpton Riverplace Hotel, an IHG Hotel|Portland, OR| 308|45.51111|-122.67417|FALSE|FALSE|TRUE|TRUE
5767942|Holiday Inn Portland Columbia Riverfront, an IHG hotel|Portland, OR| 142|45.61293|-122.67537|FALSE|TRUE|FALSE|TRUE
5767942|Harlow Hotel|Portland, OR| 115|45.52645|-122.67827|FALSE|TRUE|FALSE|TRUE
5767942|The Duniway Portland A Hilton Hotel|Portland, OR| 213|45.51780|-122.67907|FALSE|FALSE|TRUE|TRUE
5767942|Super 8 by Wyndham Portland Airport|Portland, OR|  98|45.56958|-122.54875|TRUE|FALSE|FALSE|TRUE
5767942|Red Lion Hotel Portland Airport|Portland, OR| 105|45.57428|-122.57860|TRUE|FALSE|FALSE|TRUE
5767942|Studio 6 Portland, OR|Portland, OR|  87|45.55865|-122.57908|TRUE|FALSE|FALSE|TRUE
5767962|Signature Inn Oakland|Moraga, CA| 115|37.82909|-122.25522|TRUE|FALSE|FALSE|TRUE
5767962|Residence Inn by Marriott Walnut Creek|Moraga, CA| 198|37.90791|-122.06571|FALSE|TRUE|TRUE|TRUE
5767962|Oakland Marriott City Center|Moraga, CA| 160|37.80219|-122.27308|FALSE|FALSE|TRUE|TRUE
5767962|Clarion Hotel Concord/Walnut Creek|Moraga, CA| 109|37.83493|-122.12969|TRUE|TRUE|FALSE|TRUE
5767962|Budget Inn San Leandro|Moraga, CA| 110|37.69813|-122.10518|TRUE|FALSE|FALSE|TRUE
5767962|Jack London Inn|Moraga, CA|  93|37.79532|-122.27602|TRUE|FALSE|FALSE|TRUE
5767962|Sonesta Select Pleasant Hill|Moraga, CA| 150|37.94577|-122.05959|FALSE|FALSE|TRUE|TRUE
5767962|Kissel Uptown Oakland, in the Unbound Collection by Hyatt|Moraga, CA| 206|37.81373|-122.26552|FALSE|FALSE|TRUE|TRUE
5767962|Washington Inn|Moraga, CA| 121|37.80181|-122.27402|TRUE|FALSE|FALSE|TRUE
5767962|Oakland Airport Executive Hotel|Moraga, CA|  78|37.73047|-122.19925|TRUE|FALSE|FALSE|TRUE
5767962|Civic Center Lodge|Moraga, CA|  97|37.79535|-122.26516|TRUE|FALSE|FALSE|TRUE
5767962|Renaissance Walnut Creek Hotel|Moraga, CA| 192|37.92522|-122.05626|FALSE|TRUE|TRUE|TRUE
5767962|Bay Breeze Inn|Moraga, CA| 116|37.76396|-122.21570|TRUE|FALSE|FALSE|TRUE
5767962|Best Western Danville Sycamore Inn|Moraga, CA| 129|37.81028|-121.99141|FALSE|TRUE|FALSE|TRUE
5767962|Holiday Inn Express Walnut Creek, an IHG Hotel|Moraga, CA| 169|37.92328|-122.06308|FALSE|TRUE|TRUE|TRUE
5767962|Walnut Creek Marriott|Moraga, CA| 170|37.91250|-122.06621|FALSE|TRUE|TRUE|TRUE
5767962|Lafayette Park Hotel & Spa|Moraga, CA| 361|37.89628|-122.10123|FALSE|TRUE|TRUE|TRUE
5767962|Extended Stay America Suites San Ramon Bishop Ranch West|Moraga, CA| 121|37.83493|-122.12969|TRUE|TRUE|FALSE|TRUE
5767962|Diablo Mountain Inn - Walnut Creek|Moraga, CA| 144|37.89616|-122.06907|FALSE|TRUE|FALSE|TRUE
5767962|Hilton Concord|Moraga, CA| 153|37.97129|-122.05398|FALSE|FALSE|TRUE|TRUE
5767962|Radisson Hotel Oakland Airport|Moraga, CA| 103|37.74201|-122.19492|TRUE|FALSE|FALSE|TRUE
5767962|Embassy Suites by Hilton Walnut Creek|Moraga, CA| 189|37.92724|-122.05818|FALSE|TRUE|TRUE|TRUE
5767994|Hotel Zico|Santa Clara, CA|  88|37.37969|-122.06857|TRUE|FALSE|FALSE|TRUE
5767994|Hyatt Regency Santa Clara|Santa Clara, CA| 176|37.40513|-121.97692|FALSE|FALSE|TRUE|TRUE
5767994|Comfort Suites San Jose Airport|Santa Clara, CA| 110|37.36352|-121.91064|FALSE|TRUE|FALSE|TRUE
5767994|Sonesta Silicon Valley|Santa Clara, CA| 166|37.40067|-121.91148|FALSE|FALSE|TRUE|TRUE
5767994|Sonesta Select San Jose Airport|Santa Clara, CA| 137|37.36547|-121.91865|FALSE|TRUE|FALSE|TRUE
5767994|Hilton Santa Clara|Santa Clara, CA| 154|37.40263|-121.97688|FALSE|FALSE|TRUE|TRUE
5767994|Extended Studio Suites|Santa Clara, CA|  98|37.37558|-121.91870|TRUE|TRUE|FALSE|TRUE
5767994|DoubleTree by Hilton San Jose|Santa Clara, CA| 128|37.37178|-121.92269|FALSE|TRUE|FALSE|TRUE
5767994|Santa Clara Marriott|Santa Clara, CA| 191|37.39068|-121.97426|FALSE|FALSE|TRUE|TRUE
5767994|Hilton Garden Inn Sunnyvale|Santa Clara, CA| 108|37.39492|-122.03012|TRUE|FALSE|FALSE|TRUE
5767994|Days Inn by Wyndham San Jose|Santa Clara, CA|  86|37.27739|-121.83400|TRUE|FALSE|FALSE|TRUE
5767994|Hyatt Place San Jose/Downtown|Santa Clara, CA| 166|37.33011|-121.89112|FALSE|FALSE|TRUE|TRUE
5767994|Hyatt House San Jose Airport|Santa Clara, CA| 161|37.37393|-121.91947|FALSE|TRUE|TRUE|TRUE
5767994|Wyndham Garden San Jose Airport|Santa Clara, CA| 111|37.36202|-121.90637|FALSE|TRUE|FALSE|TRUE
5767994|AC Hotel by Marriott Sunnyvale Moffett Park|Santa Clara, CA| 106|37.41244|-122.02295|TRUE|FALSE|FALSE|TRUE
5767994|Ramada by Wyndham Sunnyvale/Silicon Valley|Santa Clara, CA| 104|37.39124|-121.99159|TRUE|FALSE|FALSE|TRUE
5767994|Comfort Inn Sunnyvale - Silicon Valley|Santa Clara, CA| 105|37.39973|-122.02596|TRUE|FALSE|FALSE|TRUE
5767994|The Westin San Jose|Santa Clara, CA| 164|37.33102|-121.88736|FALSE|FALSE|TRUE|TRUE
5767994|Sonesta Simply Suites Silicon Valley Santa Clara|Santa Clara, CA| 128|37.35239|-121.93545|FALSE|TRUE|FALSE|TRUE
5767994|Signature Inn Santa Clara|Santa Clara, CA| 100|37.34493|-121.93227|TRUE|TRUE|FALSE|TRUE
5767994|Quality Inn & Suites Silicon Valley|Santa Clara, CA|  95|37.35174|-121.97989|TRUE|FALSE|FALSE|TRUE
5767994|Hotel Valencia Santana Row|Santa Clara, CA| 421|37.32084|-121.94809|FALSE|FALSE|TRUE|TRUE
5767994|Cherry Orchard Inn|Santa Clara, CA| 105|37.35299|-122.00325|TRUE|FALSE|FALSE|TRUE
5767994|Hyatt Place San Jose Airport|Santa Clara, CA| 140|37.37352|-121.92125|FALSE|TRUE|TRUE|TRUE
5767994|Days Inn by Wyndham Fremont|Santa Clara, CA| 108|37.49370|-121.93218|TRUE|FALSE|FALSE|TRUE
5767994|Holiday Inn San Jose - Silicon Valley, an IHG Hotel|Santa Clara, CA| 155|37.36164|-121.90862|FALSE|TRUE|TRUE|TRUE
5768018|TownePlace Suites San Luis Obispo|San Luis Obispo, CA| 214|35.25048|-120.68027|FALSE|FALSE|TRUE|TRUE
5768018|Quality Suites Downtown San Luis Obispo|San Luis Obispo, CA| 192|35.28712|-120.65277|TRUE|TRUE|FALSE|TRUE
5768018|Apple Farm|San Luis Obispo, CA| 219|35.29026|-120.64938|FALSE|TRUE|TRUE|TRUE
5768018|Avila Lighthouse Suites|San Luis Obispo, CA| 305|35.17979|-120.73564|FALSE|FALSE|TRUE|TRUE
5768018|Los Padres Inn|San Luis Obispo, CA| 116|35.28627|-120.65390|TRUE|TRUE|FALSE|TRUE
5768018|Avila La Fonda Hotel|San Luis Obispo, CA| 363|35.18009|-120.73346|FALSE|FALSE|TRUE|TRUE
5768018|La Quinta Inn & Suites by Wyndham San Luis Obispo Downtown|San Luis Obispo, CA| 215|35.28876|-120.65043|FALSE|TRUE|TRUE|TRUE
5768018|Madonna Inn|San Luis Obispo, CA| 322|35.26741|-120.67466|FALSE|FALSE|TRUE|TRUE
5768018|Mission Inn San Luis Obispo|San Luis Obispo, CA| 158|35.28954|-120.64972|TRUE|TRUE|FALSE|TRUE
5768018|Courtyard by Marriott San Luis Obispo|San Luis Obispo, CA| 239|35.24370|-120.68535|FALSE|FALSE|TRUE|TRUE
5768018|Villa Motel|San Luis Obispo, CA| 116|35.28805|-120.65267|TRUE|TRUE|FALSE|TRUE
5768018|Best Western Plus Royal Oak Hotel|San Luis Obispo, CA| 187|35.26355|-120.67785|TRUE|FALSE|FALSE|TRUE
5768018|La Cuesta Inn|San Luis Obispo, CA| 183|35.29112|-120.64953|TRUE|TRUE|FALSE|TRUE
5768018|Hotel Cerro|San Luis Obispo, CA| 455|35.27895|-120.66333|FALSE|FALSE|TRUE|TRUE
5768018|Rose Garden Inn San Luis Obispo|San Luis Obispo, CA| 115|35.24392|-120.68390|TRUE|FALSE|FALSE|TRUE
5768018|Granada Hotel & Bistro|San Luis Obispo, CA| 411|35.28023|-120.66121|FALSE|FALSE|TRUE|TRUE
5768018|The Kinney San Luis Obispo, Tapestry Collection by Hilton|San Luis Obispo, CA| 204|35.28969|-120.65161|TRUE|TRUE|FALSE|TRUE
5768018|Hotel San Luis Obispo|San Luis Obispo, CA| 408|35.28166|-120.66309|FALSE|TRUE|TRUE|TRUE
5768018|Embassy Suites by Hilton San Luis Obispo|San Luis Obispo, CA| 166|35.25916|-120.67469|TRUE|FALSE|FALSE|TRUE
5768018|Hotel Buena Vista|San Luis Obispo, CA| 107|35.29088|-120.65034|TRUE|TRUE|FALSE|TRUE
5768022|Hotel Zico|Santa Clara, CA|  88|37.37969|-122.06857|TRUE|FALSE|FALSE|TRUE
5768022|Ramada by Wyndham Sunnyvale/Silicon Valley|Santa Clara, CA| 104|37.39124|-121.99159|TRUE|FALSE|FALSE|TRUE
5768022|Hyatt House San Jose Airport|Santa Clara, CA| 161|37.37393|-121.91947|FALSE|TRUE|TRUE|TRUE
5768022|Cherry Orchard Inn|Santa Clara, CA| 105|37.35299|-122.00325|TRUE|FALSE|FALSE|TRUE
5768022|Extended Studio Suites|Santa Clara, CA|  98|37.37558|-121.91870|TRUE|TRUE|FALSE|TRUE
5768022|The Westin San Jose|Santa Clara, CA| 164|37.33102|-121.88736|FALSE|FALSE|TRUE|TRUE
5768022|Sonesta Simply Suites Silicon Valley Santa Clara|Santa Clara, CA| 128|37.35239|-121.93545|FALSE|TRUE|FALSE|TRUE
5768022|Hyatt Regency Santa Clara|Santa Clara, CA| 176|37.40513|-121.97692|FALSE|FALSE|TRUE|TRUE
5768022|Signature Inn Santa Clara|Santa Clara, CA| 100|37.34493|-121.93227|TRUE|TRUE|FALSE|TRUE
5768022|Sonesta Select San Jose Airport|Santa Clara, CA| 137|37.36547|-121.91865|FALSE|TRUE|FALSE|TRUE
5768022|Hilton Garden Inn Sunnyvale|Santa Clara, CA| 108|37.39492|-122.03012|TRUE|FALSE|FALSE|TRUE
5768022|Hilton Santa Clara|Santa Clara, CA| 154|37.40263|-121.97688|FALSE|FALSE|TRUE|TRUE
5768022|DoubleTree by Hilton San Jose|Santa Clara, CA| 128|37.37178|-121.92269|FALSE|TRUE|FALSE|TRUE
5768022|Quality Inn & Suites Silicon Valley|Santa Clara, CA|  95|37.35174|-121.97989|TRUE|FALSE|FALSE|TRUE
5768022|Comfort Inn Sunnyvale - Silicon Valley|Santa Clara, CA| 105|37.39973|-122.02596|TRUE|FALSE|FALSE|TRUE
5768022|AC Hotel by Marriott Sunnyvale Moffett Park|Santa Clara, CA| 106|37.41244|-122.02295|TRUE|FALSE|FALSE|TRUE
5768022|Wyndham Garden San Jose Airport|Santa Clara, CA| 111|37.36202|-121.90637|FALSE|TRUE|FALSE|TRUE
5768022|Hotel Valencia Santana Row|Santa Clara, CA| 421|37.32084|-121.94809|FALSE|FALSE|TRUE|TRUE
5768022|Days Inn by Wyndham San Jose|Santa Clara, CA|  86|37.27739|-121.83400|TRUE|FALSE|FALSE|TRUE
5768022|Holiday Inn San Jose - Silicon Valley, an IHG Hotel|Santa Clara, CA| 155|37.36164|-121.90862|FALSE|TRUE|TRUE|TRUE
5768022|Hyatt Place San Jose/Downtown|Santa Clara, CA| 166|37.33011|-121.89112|FALSE|FALSE|TRUE|TRUE
5768022|Hyatt Place San Jose Airport|Santa Clara, CA| 140|37.37352|-121.92125|FALSE|TRUE|TRUE|TRUE
5768022|Comfort Suites San Jose Airport|Santa Clara, CA| 110|37.36352|-121.91064|FALSE|TRUE|FALSE|TRUE
5768022|Days Inn by Wyndham Fremont|Santa Clara, CA| 108|37.49370|-121.93218|TRUE|FALSE|FALSE|TRUE
5768022|Sonesta Silicon Valley|Santa Clara, CA| 166|37.40067|-121.91148|FALSE|FALSE|TRUE|TRUE
5768022|Santa Clara Marriott|Santa Clara, CA| 191|37.39068|-121.97426|FALSE|FALSE|TRUE|TRUE
5768046|Four Seasons Hotel Los Angeles at Westlake Village|Malibu, CA| 986|34.15139|-118.80423|FALSE|FALSE|TRUE|TRUE
5768046|Cambria Hotel Calabasas|Malibu, CA| 209|34.14586|-118.69736|TRUE|TRUE|TRUE|TRUE
5768046|Calamigos Guest Ranch and Beach Club|Malibu, CA| 857|34.09254|-118.81739|FALSE|TRUE|TRUE|TRUE
5768046|Hilton Garden Inn Calabasas|Malibu, CA| 186|34.15149|-118.64863|TRUE|TRUE|FALSE|TRUE
5768046|Courtyard by Marriott Thousand Oaks Agoura Hills|Malibu, CA| 250|34.14581|-118.76807|TRUE|TRUE|TRUE|TRUE
5768046|The Anza - A Calabasas Hotel|Malibu, CA| 182|34.15696|-118.64212|TRUE|TRUE|FALSE|TRUE
5768046|TownePlace Suites by Marriott Agoura Hills|Malibu, CA| 235|34.14579|-118.76783|TRUE|TRUE|TRUE|TRUE
5768046|Homewood Suites by Hilton Agoura Hills|Malibu, CA| 199|34.14621|-118.75561|TRUE|TRUE|TRUE|TRUE
5768046|The Surfrider Malibu|Malibu, CA| 804|34.03711|-118.67796|TRUE|TRUE|TRUE|TRUE
5768046|Sheraton Agoura Hills Hotel|Malibu, CA| 216|34.14434|-118.77949|TRUE|TRUE|TRUE|TRUE
5768046|Malibu Country Inn|Malibu, CA| 345|34.01664|-118.81607|TRUE|TRUE|TRUE|TRUE
5768046|Residence Inn by Marriott Los Angeles Westlake Village|Malibu, CA| 208|34.15034|-118.80279|TRUE|FALSE|TRUE|TRUE
5768052|Courtyard by Marriott Thousand Oaks Agoura Hills|Malibu, CA| 250|34.14581|-118.76807|TRUE|TRUE|TRUE|TRUE
5768052|Sheraton Agoura Hills Hotel|Malibu, CA| 216|34.14434|-118.77949|TRUE|TRUE|TRUE|TRUE
5768052|TownePlace Suites by Marriott Agoura Hills|Malibu, CA| 235|34.14579|-118.76783|TRUE|TRUE|TRUE|TRUE
5768052|The Anza - A Calabasas Hotel|Malibu, CA| 182|34.15696|-118.64212|TRUE|TRUE|FALSE|TRUE
5768052|Cambria Hotel Calabasas|Malibu, CA| 209|34.14586|-118.69736|TRUE|TRUE|TRUE|TRUE
5768052|The Surfrider Malibu|Malibu, CA| 804|34.03711|-118.67796|TRUE|TRUE|TRUE|TRUE
5768052|Four Seasons Hotel Los Angeles at Westlake Village|Malibu, CA| 986|34.15139|-118.80423|FALSE|FALSE|TRUE|TRUE
5768052|Residence Inn by Marriott Los Angeles Westlake Village|Malibu, CA| 208|34.15034|-118.80279|TRUE|FALSE|TRUE|TRUE
5768052|Calamigos Guest Ranch and Beach Club|Malibu, CA| 857|34.09254|-118.81739|FALSE|TRUE|TRUE|TRUE
5768052|Homewood Suites by Hilton Agoura Hills|Malibu, CA| 199|34.14621|-118.75561|TRUE|TRUE|TRUE|TRUE
5768052|Hilton Garden Inn Calabasas|Malibu, CA| 186|34.15149|-118.64863|TRUE|TRUE|FALSE|TRUE
5768052|Malibu Country Inn|Malibu, CA| 345|34.01664|-118.81607|TRUE|TRUE|TRUE|TRUE
5768068|The St. Regis San Francisco|San Francisco, CA| 558|37.78606|-122.40138|FALSE|FALSE|TRUE|TRUE
5768068|Holiday Inn Golden Gateway, an IHG Hotel|San Francisco, CA| 165|37.78981|-122.42195|FALSE|TRUE|FALSE|TRUE
5768068|Oak Hotel|San Francisco, CA|  81|37.77595|-122.42078|FALSE|TRUE|FALSE|TRUE
5768068|Europa Hotel|San Francisco, CA|  70|37.79822|-122.40689|TRUE|FALSE|FALSE|TRUE
5768068|Perramont Hotel|San Francisco, CA|  81|37.76675|-122.43026|FALSE|TRUE|FALSE|TRUE
5768068|Four Seasons Hotel San Francisco|San Francisco, CA| 553|37.78630|-122.40390|FALSE|FALSE|TRUE|TRUE
5768068|Park Pointe Hotel|San Francisco, CA|  76|37.64829|-122.40432|TRUE|FALSE|FALSE|TRUE
5768068|The Ritz-Carlton, San Francisco|San Francisco, CA| 484|37.79187|-122.40708|FALSE|FALSE|TRUE|TRUE
5768068|El Capitan Hotel|San Francisco, CA|  69|37.75923|-122.41897|TRUE|FALSE|FALSE|TRUE
5768068|Fairmont Heritage Place, Ghirardelli Square|San Francisco, CA| 951|37.80543|-122.42349|FALSE|FALSE|TRUE|TRUE
5768068|Page Hotel|San Francisco, CA|  50|37.78258|-122.41424|TRUE|FALSE|FALSE|TRUE
5768068|Mansion on Sutter|San Francisco, CA| 562|37.78708|-122.42385|FALSE|TRUE|TRUE|TRUE
5768068|Hotel Sunnyside|San Francisco, CA|  58|37.78056|-122.40799|TRUE|FALSE|FALSE|TRUE
5768068|Hotel Drisco|San Francisco, CA| 735|37.79216|-122.44317|FALSE|TRUE|TRUE|TRUE
5768068|Alexis Park Hotel|San Francisco, CA|  85|37.78428|-122.41958|FALSE|TRUE|FALSE|TRUE
5768068|Casa Madrona Hotel & Spa|San Francisco, CA| 437|37.85708|-122.48112|FALSE|FALSE|TRUE|TRUE
5768068|SF Central Hotel|San Francisco, CA| 104|37.77200|-122.42207|FALSE|TRUE|FALSE|TRUE
5768068|Casa Loma Hotel|San Francisco, CA|  58|37.77511|-122.43083|TRUE|TRUE|FALSE|TRUE
5768068|Cow Hollow Inn & Suites|San Francisco, CA| 124|37.79994|-122.43748|FALSE|TRUE|FALSE|TRUE
5768068|Bay Hotel|San Francisco, CA|  63|37.78252|-122.41207|TRUE|FALSE|FALSE|TRUE
5768068|Union Hotel|San Francisco, CA|  68|37.76449|-122.41980|TRUE|FALSE|FALSE|TRUE
5768068|The Adrian|San Francisco, CA|  58|37.78346|-122.41567|TRUE|FALSE|FALSE|TRUE
5768068|Cavallo Point|San Francisco, CA| 626|37.83766|-122.47938|FALSE|FALSE|TRUE|TRUE
5768068|Hotel Sunrise|San Francisco, CA|  76|37.76585|-122.42180|TRUE|TRUE|FALSE|TRUE
5768068|1 Hotel San Francisco|San Francisco, CA| 486|37.79359|-122.39305|FALSE|FALSE|TRUE|TRUE
5768068|Winsor Hotel|San Francisco, CA|  69|37.78182|-122.41005|TRUE|FALSE|FALSE|TRUE
5768068|Four Seasons Hotel San Francisco at Embarcadero|San Francisco, CA| 530|37.79246|-122.40079|FALSE|FALSE|TRUE|TRUE
5768110|Motel San Diego - In San Diego (Pacific Beach)|San Diego, CA|  89|32.80707|-117.21960|TRUE|FALSE|FALSE|TRUE
5768110|Kings Inn San Diego|San Diego, CA| 153|32.75856|-117.17513|FALSE|TRUE|FALSE|TRUE
5768110|Howard Johnson by Wyndham San Diego Hotel Circle|San Diego, CA|  93|32.75863|-117.17854|TRUE|TRUE|FALSE|TRUE
5768110|Hotel del Coronado, Curio Collection by Hilton|San Diego, CA| 493|32.68050|-117.17754|FALSE|FALSE|TRUE|TRUE
5768110|Pantai Inn|San Diego, CA| 381|32.84851|-117.27568|FALSE|FALSE|TRUE|TRUE
5768110|Handlery Hotel|San Diego, CA| 152|32.76125|-117.17250|FALSE|TRUE|FALSE|TRUE
5768110|Legacy Resort Hotel & Spa|San Diego, CA| 206|32.75935|-117.17069|FALSE|TRUE|FALSE|TRUE
5768110|Cormorant Boutique Hotel|San Diego, CA| 368|32.84825|-117.27402|FALSE|FALSE|TRUE|TRUE
5768110|La Valencia Hotel|San Diego, CA| 782|32.84863|-117.27361|FALSE|FALSE|TRUE|TRUE
5768110|Estancia La Jolla Hotel & Spa|San Diego, CA| 392|32.88486|-117.24483|FALSE|FALSE|TRUE|TRUE
5768110|The Lodge at Torrey Pines|San Diego, CA| 844|32.90348|-117.24452|FALSE|FALSE|TRUE|TRUE
5768110|Courtyard by Marriott San Diego Mission Valley/Hotel Circle|San Diego, CA| 143|32.75974|-117.16825|FALSE|TRUE|FALSE|TRUE
5768110|Americas Best Value Inn Loma Lodge|San Diego, CA| 103|32.74701|-117.21004|TRUE|FALSE|FALSE|TRUE
5768110|Hotel Iris - San Diego|San Diego, CA| 117|32.76017|-117.16920|FALSE|TRUE|FALSE|TRUE
5768110|Heritage Inn San Diego|San Diego, CA|  98|32.75618|-117.21899|TRUE|FALSE|FALSE|TRUE
5768110|Motel 6 San Diego, CA - Hotel Circle - Mission Valley|San Diego, CA| 116|32.76034|-117.18613|FALSE|TRUE|FALSE|TRUE
5768110|Travelodge by Wyndham San Diego SeaWorld|San Diego, CA|  99|32.74743|-117.20733|TRUE|FALSE|FALSE|TRUE
5768110|Shore House at The Del, Curio Collection by Hilton|San Diego, CA|1577|32.67988|-117.17712|FALSE|FALSE|TRUE|TRUE
5768110|Hampton Inn San Diego/Mission Valley|San Diego, CA| 166|32.75854|-117.18229|FALSE|TRUE|FALSE|TRUE
5768110|Rodeway Inn National City San Diego South|San Diego, CA|  96|32.67718|-117.10835|TRUE|FALSE|FALSE|TRUE
5768110|Rodeway Inn San Diego Near SDSU|San Diego, CA|  85|32.78114|-117.08210|TRUE|FALSE|FALSE|TRUE
5768110|Hotel Marisol Coronado|San Diego, CA| 384|32.68478|-117.18030|FALSE|FALSE|TRUE|TRUE
5768110|Hilton Garden Inn San Diego Old Town/SeaWorld Area|San Diego, CA| 196|32.75847|-117.19810|FALSE|TRUE|FALSE|TRUE
5768110|Heritage Inn La Mesa|San Diego, CA| 107|32.77315|-117.02779|TRUE|FALSE|FALSE|TRUE
5768110|Scripps Inn La Jolla Cove|San Diego, CA| 486|32.84379|-117.27892|FALSE|FALSE|TRUE|TRUE
5768110|Motel 6 San Diego, CA – near Sea World|San Diego, CA| 101|32.75559|-117.20640|TRUE|FALSE|FALSE|TRUE
5768110|Beach Village at The Del, Curio Collection by Hilton|San Diego, CA|1074|32.68116|-117.17887|FALSE|FALSE|TRUE|TRUE
5768110|Town and Country San Diego|San Diego, CA| 190|32.76294|-117.16780|FALSE|TRUE|FALSE|TRUE
5768110|Howard Johnson by Wyndham National City/San Diego South|San Diego, CA|  98|32.67770|-117.10830|TRUE|FALSE|FALSE|TRUE
5768138|Renaissance Los Angeles Airport Hotel|Los Angeles, CA| 196|33.94893|-118.38527|FALSE|TRUE|FALSE|TRUE
5768138|Gardena Terrace Inn|Los Angeles, CA| 115|33.88616|-118.30890|TRUE|FALSE|FALSE|TRUE
5768138|Central Inn Motel|Los Angeles, CA|  98|34.00935|-118.25629|TRUE|FALSE|FALSE|TRUE
5768138|Courtyard by Marriott Los Angeles Westside|Los Angeles, CA| 220|33.98179|-118.39238|FALSE|TRUE|FALSE|TRUE
5768138|4 Star Motel|Los Angeles, CA| 114|33.97261|-118.28232|TRUE|FALSE|FALSE|TRUE
5768138|L'Ermitage Beverly Hills|Los Angeles, CA| 804|34.07264|-118.39542|FALSE|FALSE|TRUE|TRUE
5768138|Four Seasons Los Angeles at Beverly Hills|Los Angeles, CA| 993|34.07295|-118.38921|FALSE|FALSE|TRUE|TRUE
5768138|The Ritz-Carlton, Marina del Rey|Los Angeles, CA| 425|33.98430|-118.45116|FALSE|TRUE|FALSE|TRUE
5768138|Hyatt Regency Los Angeles International Airport|Los Angeles, CA| 220|33.94600|-118.39514|FALSE|TRUE|FALSE|TRUE
5768138|Hyatt Place LAX/Century Blvd|Los Angeles, CA| 206|33.94630|-118.38824|FALSE|TRUE|FALSE|TRUE
5768138|Park Motel|Los Angeles, CA|  95|34.00815|-118.28303|TRUE|FALSE|FALSE|TRUE
5768138|Comet Motel|Los Angeles, CA| 114|33.93788|-118.26499|TRUE|FALSE|FALSE|TRUE
5768138|Los Angeles Inn & Suites - LAX|Los Angeles, CA| 105|34.05223|-118.24368|TRUE|FALSE|FALSE|TRUE
5768138|Hotel June, Los Angeles, a Member of Design Hotels|Los Angeles, CA| 219|33.95875|-118.41873|FALSE|TRUE|FALSE|TRUE
5768138|The Maybourne Beverly Hills|Los Angeles, CA|1396|34.06777|-118.39892|FALSE|FALSE|TRUE|TRUE
5768138|Budget Motel|Los Angeles, CA| 108|33.97495|-118.31656|TRUE|FALSE|FALSE|TRUE
5768138|Santa Monica Proper Hotel|Los Angeles, CA| 748|34.02087|-118.49452|FALSE|FALSE|TRUE|TRUE
5768138|Shutters on the Beach|Los Angeles, CA| 939|34.00706|-118.49172|FALSE|FALSE|TRUE|TRUE
5768138|Satellite Motel|Los Angeles, CA| 114|33.92324|-118.28229|TRUE|FALSE|FALSE|TRUE
5768138|Sheraton Gateway Los Angeles Hotel|Los Angeles, CA| 150|33.94665|-118.39073|FALSE|TRUE|FALSE|TRUE
5768138|Hilton Los Angeles Culver City|Los Angeles, CA| 202|33.98252|-118.39649|FALSE|TRUE|FALSE|TRUE
5768138|Royal Century Hotel|Los Angeles, CA|  92|33.94491|-118.35159|TRUE|FALSE|FALSE|TRUE
5768138|1 Hotel West Hollywood|Los Angeles, CA| 679|34.09407|-118.37570|FALSE|FALSE|TRUE|TRUE
5768138|Pendry West Hollywood|Los Angeles, CA| 674|34.09441|-118.37380|FALSE|FALSE|TRUE|TRUE
5768138|Beverly Wilshire - Beverly Hills, A Four Seasons Hotel|Los Angeles, CA|1059|34.06674|-118.40077|FALSE|FALSE|TRUE|TRUE
5768138|The Kinney - Venice Beach|Los Angeles, CA| 196|33.98743|-118.45390|FALSE|TRUE|FALSE|TRUE
5768138|LAX Stadium Inn - El Segundo/Inglewood|Los Angeles, CA|  97|33.93112|-118.35535|TRUE|FALSE|FALSE|TRUE
5768138|Sonesta Los Angeles Airport LAX|Los Angeles, CA| 165|33.94622|-118.38907|FALSE|TRUE|FALSE|TRUE
5768138|Casa Del Mar|Los Angeles, CA| 882|34.00627|-118.49147|FALSE|FALSE|TRUE|TRUE
5768138|The Beverly Hills Hotel|Los Angeles, CA|1571|34.08171|-118.41380|FALSE|FALSE|TRUE|TRUE
5768142|Central Inn Motel|Los Angeles, CA|  98|34.00935|-118.25629|TRUE|FALSE|FALSE|TRUE
5768142|Renaissance Los Angeles Airport Hotel|Los Angeles, CA| 196|33.94893|-118.38527|FALSE|TRUE|FALSE|TRUE
5768142|Los Angeles Inn & Suites - LAX|Los Angeles, CA| 105|34.05223|-118.24368|TRUE|FALSE|FALSE|TRUE
5768142|4 Star Motel|Los Angeles, CA| 114|33.97261|-118.28232|TRUE|FALSE|FALSE|TRUE
5768142|Gardena Terrace Inn|Los Angeles, CA| 115|33.88616|-118.30890|TRUE|FALSE|FALSE|TRUE
5768142|L'Ermitage Beverly Hills|Los Angeles, CA| 804|34.07264|-118.39542|FALSE|FALSE|TRUE|TRUE
5768142|Hotel June, Los Angeles, a Member of Design Hotels|Los Angeles, CA| 219|33.95875|-118.41873|FALSE|TRUE|FALSE|TRUE
5768142|The Ritz-Carlton, Marina del Rey|Los Angeles, CA| 425|33.98430|-118.45116|FALSE|TRUE|FALSE|TRUE
5768142|Hyatt Place LAX/Century Blvd|Los Angeles, CA| 206|33.94630|-118.38824|FALSE|TRUE|FALSE|TRUE
5768142|Park Motel|Los Angeles, CA|  95|34.00815|-118.28303|TRUE|FALSE|FALSE|TRUE
5768142|Comet Motel|Los Angeles, CA| 114|33.93788|-118.26499|TRUE|FALSE|FALSE|TRUE
5768142|Courtyard by Marriott Los Angeles Westside|Los Angeles, CA| 220|33.98179|-118.39238|FALSE|TRUE|FALSE|TRUE
5768142|Shutters on the Beach|Los Angeles, CA| 939|34.00706|-118.49172|FALSE|FALSE|TRUE|TRUE
5768142|Budget Motel|Los Angeles, CA| 108|33.97495|-118.31656|TRUE|FALSE|FALSE|TRUE
5768142|Four Seasons Los Angeles at Beverly Hills|Los Angeles, CA| 993|34.07295|-118.38921|FALSE|FALSE|TRUE|TRUE
5768142|Beverly Wilshire - Beverly Hills, A Four Seasons Hotel|Los Angeles, CA|1059|34.06674|-118.40077|FALSE|FALSE|TRUE|TRUE
5768142|The Maybourne Beverly Hills|Los Angeles, CA|1396|34.06777|-118.39892|FALSE|FALSE|TRUE|TRUE
5768142|Satellite Motel|Los Angeles, CA| 114|33.92324|-118.28229|TRUE|FALSE|FALSE|TRUE
5768142|Sheraton Gateway Los Angeles Hotel|Los Angeles, CA| 150|33.94665|-118.39073|FALSE|TRUE|FALSE|TRUE
5768142|The Beverly Hills Hotel|Los Angeles, CA|1571|34.08171|-118.41380|FALSE|FALSE|TRUE|TRUE
5768142|LAX Stadium Inn - El Segundo/Inglewood|Los Angeles, CA|  97|33.93112|-118.35535|TRUE|FALSE|FALSE|TRUE
5768142|Hyatt Regency Los Angeles International Airport|Los Angeles, CA| 220|33.94600|-118.39514|FALSE|TRUE|FALSE|TRUE
5768142|Sonesta Los Angeles Airport LAX|Los Angeles, CA| 165|33.94622|-118.38907|FALSE|TRUE|FALSE|TRUE
5768142|Pendry West Hollywood|Los Angeles, CA| 674|34.09441|-118.37380|FALSE|FALSE|TRUE|TRUE
5768142|Royal Century Hotel|Los Angeles, CA|  92|33.94491|-118.35159|TRUE|FALSE|FALSE|TRUE
5768142|Hilton Los Angeles Culver City|Los Angeles, CA| 202|33.98252|-118.39649|FALSE|TRUE|FALSE|TRUE
5768142|Casa Del Mar|Los Angeles, CA| 882|34.00627|-118.49147|FALSE|FALSE|TRUE|TRUE
5768142|Santa Monica Proper Hotel|Los Angeles, CA| 748|34.02087|-118.49452|FALSE|FALSE|TRUE|TRUE
5768142|1 Hotel West Hollywood|Los Angeles, CA| 679|34.09407|-118.37570|FALSE|FALSE|TRUE|TRUE
