id|name|city|price|lat|long|p|t|l|fresh
5655669|La Quinta Inn by Wyndham Ft. Lauderdale Tamarac East|Sunrise, FL| 160|26.18564| -80.19984|TRUE|FALSE|FALSE|TRUE
5655669|Chateau Mar Golf Resort, Trademark Collection by Wyndham|Sunrise, FL| 199|26.16978| -80.23631|TRUE|TRUE|FALSE|TRUE
5655669|La Quinta Inn & Suites by Wyndham Sunrise|Sunrise, FL| 232|26.12339| -80.33189|FALSE|TRUE|TRUE|TRUE
5655669|Courtyard By Marriott Fort Lauderdale Coral Springs|Sunrise, FL| 212|26.23842| -80.25681|TRUE|FALSE|FALSE|TRUE
5655669|Sheraton Suites Fort Lauderdale Plantation|Sunrise, FL| 213|26.12410| -80.25664|TRUE|TRUE|TRUE|TRUE
5655669|Hampton Inn Weston Ft. Lauderdale|Sunrise, FL| 242|26.09278| -80.36766|FALSE|TRUE|TRUE|TRUE
5655669|Plaza Hotel Fort Lauderdale|Sunrise, FL| 148|26.18931| -80.20270|TRUE|FALSE|FALSE|TRUE
5655669|WoodSpring Suites Tamarac|Sunrise, FL| 209|26.19447| -80.29301|TRUE|TRUE|FALSE|TRUE
5655669|Renaissance Fort Lauderdale West Hotel|Sunrise, FL| 253|26.10388| -80.26272|FALSE|TRUE|TRUE|TRUE
5655669|AC Hotel Fort Lauderdale Sawgrass Mills / Sunrise|Sunrise, FL| 283|26.15016| -80.31874|FALSE|TRUE|TRUE|TRUE
5655669|Courtyard by Marriott Fort Lauderdale Weston|Sunrise, FL| 219|26.09226| -80.36518|FALSE|TRUE|TRUE|TRUE
5655669|Holiday Inn Express Pembroke Pines-Sheridan Street, an IHG Hotel|Sunrise, FL| 210|26.02784| -80.34487|TRUE|FALSE|FALSE|TRUE
5655669|Staybridge Suites Fort Lauderdale Airport - West, an IHG Hotel|Sunrise, FL| 348|26.06453| -80.21240|FALSE|FALSE|TRUE|TRUE
5655669|Extended Stay America Suites Fort Lauderdale Tamarac|Sunrise, FL| 177|26.20169| -80.15288|TRUE|FALSE|FALSE|TRUE
5655669|DoubleTree by Hilton Hotel Sunrise - Sawgrass Mills|Sunrise, FL| 247|26.14457| -80.32544|FALSE|TRUE|TRUE|TRUE
5655669|HomeTowne Studios by Red Roof Fort Lauderdale|Sunrise, FL| 113|26.18739| -80.18639|TRUE|FALSE|FALSE|TRUE
5655669|La Quinta Inn & Suites by Wyndham Sunrise Sawgrass Mills|Sunrise, FL| 220|26.12446| -80.33143|FALSE|TRUE|TRUE|TRUE
5655669|Extended Stay America Suites Fort Lauderdale Plantation|Sunrise, FL| 193|26.20169| -80.15288|TRUE|FALSE|FALSE|TRUE
5655669|Hampton Inn Ft. Lauderdale-West/Pembroke Pines|Sunrise, FL| 230|26.02546| -80.34768|FALSE|FALSE|TRUE|TRUE
5655671|Renaissance Fort Lauderdale West Hotel|Sunrise, FL| 253|26.10388| -80.26272|FALSE|TRUE|TRUE|TRUE
5655671|La Quinta Inn & Suites by Wyndham Sunrise Sawgrass Mills|Sunrise, FL| 220|26.12446| -80.33143|FALSE|TRUE|TRUE|TRUE
5655671|Chateau Mar Golf Resort, Trademark Collection by Wyndham|Sunrise, FL| 199|26.16978| -80.23631|TRUE|TRUE|FALSE|TRUE
5655671|DoubleTree by Hilton Hotel Sunrise - Sawgrass Mills|Sunrise, FL| 247|26.14457| -80.32544|FALSE|TRUE|TRUE|TRUE
5655671|Staybridge Suites Fort Lauderdale Airport - West, an IHG Hotel|Sunrise, FL| 348|26.06453| -80.21240|FALSE|FALSE|TRUE|TRUE
5655671|La Quinta Inn & Suites by Wyndham Sunrise|Sunrise, FL| 232|26.12339| -80.33189|FALSE|TRUE|TRUE|TRUE
5655671|Extended Stay America Suites Fort Lauderdale Plantation|Sunrise, FL| 193|26.20169| -80.15288|TRUE|FALSE|FALSE|TRUE
5655671|Extended Stay America Suites Fort Lauderdale Tamarac|Sunrise, FL| 177|26.20169| -80.15288|TRUE|FALSE|FALSE|TRUE
5655671|Courtyard By Marriott Fort Lauderdale Coral Springs|Sunrise, FL| 212|26.23842| -80.25681|TRUE|FALSE|FALSE|TRUE
5655671|La Quinta Inn by Wyndham Ft. Lauderdale Tamarac East|Sunrise, FL| 160|26.18564| -80.19984|TRUE|FALSE|FALSE|TRUE
5655671|HomeTowne Studios by Red Roof Fort Lauderdale|Sunrise, FL| 113|26.18739| -80.18639|TRUE|FALSE|FALSE|TRUE
5655671|Holiday Inn Express Pembroke Pines-Sheridan Street, an IHG Hotel|Sunrise, FL| 210|26.02784| -80.34487|TRUE|FALSE|FALSE|TRUE
5655671|Hampton Inn Ft. Lauderdale-West/Pembroke Pines|Sunrise, FL| 230|26.02546| -80.34768|FALSE|FALSE|TRUE|TRUE
5655671|Hampton Inn Weston Ft. Lauderdale|Sunrise, FL| 242|26.09278| -80.36766|FALSE|TRUE|TRUE|TRUE
5655671|Sheraton Suites Fort Lauderdale Plantation|Sunrise, FL| 213|26.12410| -80.25664|TRUE|TRUE|TRUE|TRUE
5655671|AC Hotel Fort Lauderdale Sawgrass Mills / Sunrise|Sunrise, FL| 283|26.15016| -80.31874|FALSE|TRUE|TRUE|TRUE
5655671|Plaza Hotel Fort Lauderdale|Sunrise, FL| 148|26.18931| -80.20270|TRUE|FALSE|FALSE|TRUE
5655671|Courtyard by Marriott Fort Lauderdale Weston|Sunrise, FL| 219|26.09226| -80.36518|FALSE|TRUE|TRUE|TRUE
5655671|WoodSpring Suites Tamarac|Sunrise, FL| 209|26.19447| -80.29301|TRUE|TRUE|FALSE|TRUE
5685266|Blake Hotel New Orleans, BW Premier Collection|New Orleans, LA| 168|29.94925| -90.07060|FALSE|TRUE|FALSE|TRUE
5685266|Midtown Hotel - Downtown New Orleans|New Orleans, LA| 103|29.94978| -90.06771|TRUE|FALSE|FALSE|TRUE
5685266|Four Seasons Hotel New Orleans|New Orleans, LA| 519|29.94888| -90.06389|FALSE|FALSE|TRUE|TRUE
5685266|Quality Inn New Orleans I-10 East|New Orleans, LA|  78|30.03715| -89.97409|TRUE|FALSE|FALSE|TRUE
5685266|Canopy by Hilton New Orleans Downtown|New Orleans, LA| 171|29.95404| -90.07420|FALSE|TRUE|FALSE|TRUE
5685266|Sheraton New Orleans Hotel|New Orleans, LA| 420|29.95186| -90.06802|FALSE|FALSE|TRUE|TRUE
5685266|The Ritz-Carlton, New Orleans|New Orleans, LA| 482|29.95496| -90.07097|FALSE|TRUE|TRUE|TRUE
5685266|One11 Hotel|New Orleans, LA| 385|29.95196| -90.06481|FALSE|FALSE|TRUE|TRUE
5685266|Four Points By Sheraton French Quarter|New Orleans, LA| 419|29.95765| -90.06675|FALSE|FALSE|TRUE|TRUE
5685266|The Roosevelt New Orleans, A Waldorf Astoria Hotel|New Orleans, LA| 340|29.95434| -90.07230|FALSE|TRUE|FALSE|TRUE
5685266|Prince Conti Hotel|New Orleans, LA| 383|29.95666| -90.06841|FALSE|FALSE|TRUE|TRUE
5685266|La Quinta Inn by Wyndham New Orleans Veterans / Metairie|New Orleans, LA| 122|30.00483| -90.20567|TRUE|FALSE|FALSE|TRUE
5685266|Hotel St. Marie|New Orleans, LA| 372|29.95831| -90.06692|FALSE|FALSE|TRUE|TRUE
5685266|Suburban Studios|New Orleans, LA| 124|29.90910| -90.20646|TRUE|FALSE|FALSE|TRUE
5685266|Federal City Inn & Suites|New Orleans, LA| 114|29.94753| -90.03280|TRUE|FALSE|FALSE|TRUE
5685266|Hilton Garden Inn New Orleans Convention Center|New Orleans, LA| 128|29.94134| -90.06604|TRUE|FALSE|FALSE|TRUE
5685266|Sonesta ES Suites New Orleans|New Orleans, LA| 199|29.95409| -90.07462|FALSE|TRUE|FALSE|TRUE
5685266|Days Inn by Wyndham New Orleans Pontchartrain|New Orleans, LA| 104|30.00213| -90.03978|TRUE|FALSE|FALSE|TRUE
5685266|Comfort Suites Harvey - New Orleans West|New Orleans, LA| 143|29.87871| -90.04946|TRUE|FALSE|FALSE|TRUE
5685266|Riverside Hotel|New Orleans, LA| 122|29.85646| -89.98640|TRUE|FALSE|FALSE|TRUE
5685266|Bourbon Orleans Hotel|New Orleans, LA| 634|29.95873| -90.06472|FALSE|FALSE|TRUE|TRUE
5685266|Harrahs New Orleans Casino & Hotel|New Orleans, LA| 526|29.94793| -90.06553|FALSE|FALSE|TRUE|TRUE
5685266|International House Hotel|New Orleans, LA| 193|29.95124| -90.06893|FALSE|TRUE|FALSE|TRUE
5685266|Courtyard by Marriott New Orleans French Quarter/Iberville|New Orleans, LA| 237|29.95543| -90.07071|FALSE|TRUE|FALSE|TRUE
5685266|Selina Catahoula New Orleans|New Orleans, LA| 155|29.95185| -90.07321|FALSE|TRUE|FALSE|TRUE
5685266|Holiday Inn New Orleans - Downtown Superdome, an IHG Hotel|New Orleans, LA| 217|29.95299| -90.07497|FALSE|TRUE|FALSE|TRUE
5685266|Hyatt Regency New Orleans|New Orleans, LA| 267|29.94955| -90.07727|FALSE|TRUE|FALSE|TRUE
5685266|Comfort Inn Marrero - New Orleans West|New Orleans, LA| 142|29.89219| -90.12282|TRUE|FALSE|FALSE|TRUE
5685266|The Natchez|New Orleans, LA|1005|29.94974| -90.06870|FALSE|FALSE|TRUE|TRUE
5695225|The Altair Hotel Bay Harbor|Miami Gardens, FL| 596|25.88625| -80.13357|FALSE|FALSE|TRUE|TRUE
5695225|Trump International Beach Resort|Miami Gardens, FL| 768|25.94320| -80.12061|FALSE|FALSE|TRUE|TRUE
5695225|Sonesta Select Miami Lakes|Miami Gardens, FL| 193|25.91614| -80.32612|FALSE|TRUE|FALSE|TRUE
5695225|Stadium Hotel|Miami Gardens, FL| 175|25.95790| -80.23885|TRUE|TRUE|FALSE|TRUE
5695225|Four Seasons Hotel at The Surf Club|Miami Gardens, FL|1893|25.87772| -80.12142|FALSE|FALSE|TRUE|TRUE
5695225|The St. Regis Bal Harbour Resort|Miami Gardens, FL|1409|25.88909| -80.12241|FALSE|FALSE|TRUE|TRUE
5695225|The Clevelander|Miami Gardens, FL| 162|25.78078| -80.13098|TRUE|FALSE|FALSE|TRUE
5695225|Greniers|Miami Gardens, FL| 172|26.02505| -80.11578|TRUE|FALSE|FALSE|TRUE
5695225|Grand Palms Spa & Golf Resort|Miami Gardens, FL| 134|26.00016| -80.35079|TRUE|FALSE|FALSE|TRUE
5695225|Grand Beach Hotel Surfside|Miami Gardens, FL| 681|25.88445| -80.12222|FALSE|FALSE|TRUE|TRUE
5695225|Travelodge by Wyndham Miami Biscayne Bay|Miami Gardens, FL| 161|25.82499| -80.18661|TRUE|FALSE|FALSE|TRUE
5695225|Casa Pellegrino|Miami Gardens, FL| 160|26.02446| -80.11617|TRUE|FALSE|FALSE|TRUE
5695225|The Ritz-Carlton Bal Harbour, Miami|Miami Gardens, FL|1082|25.89900| -80.12330|FALSE|FALSE|TRUE|TRUE
5695225|The Harrison Hotel Downtown Hollywood|Miami Gardens, FL| 154|26.01073| -80.14622|TRUE|FALSE|FALSE|TRUE
5695225|Hyde Beach House|Miami Gardens, FL| 871|25.98685| -80.12071|FALSE|FALSE|TRUE|TRUE
5695225|Dream Inn|Miami Gardens, FL| 315|25.94204| -80.24560|FALSE|TRUE|FALSE|TRUE
5695225|Miami Gardens Inn & Suites|Miami Gardens, FL| 256|25.94204| -80.24560|FALSE|TRUE|FALSE|TRUE
5695225|Hotolos Hollywood|Miami Gardens, FL| 162|26.04703| -80.15850|TRUE|FALSE|FALSE|TRUE
5695225|Courtyard by Marriott Fort Lauderdale SW/Miramar|Miami Gardens, FL| 259|25.98182| -80.34129|FALSE|TRUE|FALSE|TRUE
5695225|Seminole Hard Rock Hotel and Casino|Miami Gardens, FL| 667|26.05082| -80.21155|FALSE|FALSE|TRUE|TRUE
5695225|The Oasis Tower at Seminole Hard Rock|Miami Gardens, FL| 705|26.05187| -80.21052|FALSE|FALSE|TRUE|TRUE
5695225|Miami Lakes Hotel|Miami Gardens, FL| 214|25.91206| -80.31126|FALSE|TRUE|FALSE|TRUE
5695225|Hollywood Beach Hotels|Miami Gardens, FL| 147|25.94204| -80.24560|TRUE|TRUE|FALSE|TRUE
5695225|Margaritaville Hollywood Beach Resort|Miami Gardens, FL| 604|26.01878| -80.11674|FALSE|FALSE|TRUE|TRUE
5695225|May-Dee Suites|Miami Gardens, FL| 191|26.01073| -80.19495|FALSE|TRUE|FALSE|TRUE
5695225|SpringHill Suites by Marriott Fort Lauderdale Miramar|Miami Gardens, FL| 236|25.97424| -80.29263|FALSE|TRUE|FALSE|TRUE
5695225|Baltic Boutique|Miami Gardens, FL| 302|25.94204| -80.24560|FALSE|TRUE|FALSE|TRUE
5695225|Red Carpet Inn Airport/Cruiseport|Miami Gardens, FL| 175|26.08635| -80.17466|TRUE|FALSE|FALSE|TRUE
5695243|The Ritz-Carlton, Chicago|Chicago, IL| 527|41.89782| -87.62228|FALSE|FALSE|TRUE|TRUE
5695243|The Langham, Chicago|Chicago, IL| 528|41.88842| -87.62751|FALSE|FALSE|TRUE|TRUE
5695243|Hotel Versey Days Inn by Wyndham Chicago|Chicago, IL| 104|41.93294| -87.64557|TRUE|FALSE|FALSE|TRUE
5695243|CitizenM Chicago Downtown|Chicago, IL| 109|41.88696| -87.62505|FALSE|TRUE|FALSE|TRUE
5695243|Swissotel - Chicago|Chicago, IL| 179|41.88717| -87.61949|FALSE|TRUE|FALSE|TRUE
5695243|The Whitehall Hotel|Chicago, IL|  95|41.89891| -87.62571|TRUE|FALSE|FALSE|TRUE
5695243|Millennium Knickerbocker Chicago|Chicago, IL| 104|41.89977| -87.62270|TRUE|FALSE|FALSE|TRUE
5695243|Hyatt Regency Chicago|Chicago, IL| 195|41.88745| -87.62284|FALSE|TRUE|TRUE|TRUE
5695243|Found Hotel Chicago River North|Chicago, IL| 106|41.89287| -87.63377|TRUE|FALSE|FALSE|TRUE
5695243|The Peninsula Chicago|Chicago, IL| 558|41.89620| -87.62515|FALSE|FALSE|TRUE|TRUE
5695243|Best Western Grant Park Hotel|Chicago, IL|  89|41.86909| -87.62468|TRUE|TRUE|FALSE|TRUE
5695243|Aloft Chicago Downtown River North, a Marriott Hotel|Chicago, IL| 104|41.89145| -87.63083|TRUE|FALSE|FALSE|TRUE
5695243|Hilton Garden Inn Chicago Downtown South Loop|Chicago, IL| 102|41.86909| -87.62566|TRUE|TRUE|FALSE|TRUE
5695243|Club Quarters Hotel, Central Loop, Chicago|Chicago, IL| 141|41.87927| -87.63119|FALSE|TRUE|FALSE|TRUE
5695243|Hampton Inn Chicago Downtown/Magnificent Mile|Chicago, IL| 102|41.89519| -87.62305|TRUE|FALSE|FALSE|TRUE
5695243|Sheraton Grand Chicago Riverwalk|Chicago, IL| 190|41.88913| -87.61940|FALSE|FALSE|TRUE|TRUE
5695243|Park Hyatt Chicago|Chicago, IL| 534|41.89724| -87.62527|FALSE|FALSE|TRUE|TRUE
5695243|Congress Plaza Hotel|Chicago, IL| 126|41.87491| -87.62482|FALSE|TRUE|FALSE|TRUE
5695243|Nobu Hotel Chicago|Chicago, IL| 440|41.88473| -87.64949|FALSE|FALSE|TRUE|TRUE
5695243|Home2 Suites by Hilton Chicago McCormick Place|Chicago, IL| 102|41.85269| -87.62282|TRUE|TRUE|FALSE|TRUE
5695243|Trump International Hotel & Tower Chicago|Chicago, IL| 464|41.88890| -87.62643|FALSE|FALSE|TRUE|TRUE
5695243|Hampton Inn Chicago McCormick Place|Chicago, IL| 114|41.85273| -87.62323|FALSE|TRUE|FALSE|TRUE
5695243|Waldorf Astoria Chicago|Chicago, IL| 475|41.89974| -87.62748|FALSE|FALSE|TRUE|TRUE
5695243|Hilton Garden Inn Chicago McCormick Place|Chicago, IL| 109|41.85270| -87.62268|FALSE|TRUE|FALSE|TRUE
5695243|Hotel BnB-2|Chicago, IL|  92|41.89585| -87.63797|TRUE|FALSE|FALSE|TRUE
5695243|Four Seasons Hotel Chicago|Chicago, IL| 458|41.89961| -87.62488|FALSE|FALSE|TRUE|TRUE
5695281|Days Inn by Wyndham College Park|Landover, MD| 101|39.00442| -76.93000|TRUE|FALSE|FALSE|TRUE
5695281|Econo Lodge Andrews Air Force Base|Landover, MD|  77|38.78201| -76.89081|TRUE|FALSE|FALSE|TRUE
5695281|Quality Inn Near Joint Base Andrews - Washington Area|Landover, MD| 101|38.82076| -76.88784|TRUE|FALSE|FALSE|TRUE
5695281|Holiday Inn Express I-95 Capitol Beltway-Largo, an IHG Hotel|Landover, MD| 122|38.91377| -76.84897|FALSE|TRUE|FALSE|TRUE
5695281|Pendry Washington DC - The Wharf|Landover, MD| 454|38.87756| -77.02241|FALSE|FALSE|TRUE|TRUE
5695281|The Hay-Adams|Landover, MD| 459|38.90040| -77.03693|FALSE|FALSE|TRUE|TRUE
5695281|Conrad Washington, DC|Landover, MD| 377|38.90137| -77.02528|FALSE|FALSE|TRUE|TRUE
5695281|DoubleTree by Hilton Largo/Washington DC|Landover, MD| 137|38.91566| -76.84879|FALSE|TRUE|TRUE|TRUE
5695281|Comfort Inn Largo-Washington DC East|Landover, MD| 105|38.89449| -76.84227|FALSE|TRUE|FALSE|TRUE
5695281|Days Inn by Wyndham Camp Springs/Andrews AFB DC Area|Landover, MD|  77|38.81392| -76.89562|TRUE|FALSE|FALSE|TRUE
5695281|Courtyard by Marriott New Carrollton|Landover, MD| 119|38.94771| -76.86331|FALSE|TRUE|FALSE|TRUE
5695281|Metro Points Hotel|Landover, MD|  85|38.95892| -76.86889|TRUE|FALSE|FALSE|TRUE
5695281|Extended Stay America Suites Washington DC Landover|Landover, MD| 107|38.93400| -76.89664|FALSE|TRUE|FALSE|TRUE
5695281|Courtyard Largo Medical Center Drive|Landover, MD| 123|38.90692| -76.84692|FALSE|TRUE|TRUE|TRUE
5695281|Best Western Capital Beltway|Landover, MD| 101|38.96184| -76.86511|TRUE|FALSE|FALSE|TRUE
5695281|Super 8 by Wyndham Camp Springs/Andrews AFB DC Area|Landover, MD|  85|38.81399| -76.89603|TRUE|FALSE|FALSE|TRUE
5695281|Waldorf Astoria Washington DC|Landover, MD| 533|38.89411| -77.02758|FALSE|FALSE|TRUE|TRUE
5695281|Homewood Suites by Hilton Largo/Washington, D.C.|Landover, MD| 169|38.91444| -76.84935|FALSE|TRUE|TRUE|TRUE
5695281|WoodSpring Suites Washington DC East Arena Drive|Landover, MD| 101|38.90793| -76.85133|TRUE|TRUE|FALSE|TRUE
5695281|Hampton Inn Bowie|Landover, MD|  87|38.95076| -76.73825|TRUE|FALSE|FALSE|TRUE
5695281|Days Inn by Wyndham Lanham Washington D.C|Landover, MD|  91|38.96226| -76.86088|TRUE|FALSE|FALSE|TRUE
5695281|Salamander Washington DC|Landover, MD| 405|38.88366| -77.03032|FALSE|FALSE|TRUE|TRUE
5695281|Staybridge Suites Washington DC East - Largo, an IHG Hotel|Landover, MD| 155|38.90699| -76.84066|FALSE|TRUE|TRUE|TRUE
5695281|Red Roof Inn Washington DC - Lanham|Landover, MD|  94|38.96478| -76.85962|TRUE|FALSE|FALSE|TRUE
5695281|Howard Johnson by Wyndham College Park|Landover, MD| 101|39.00397| -76.92999|TRUE|FALSE|FALSE|TRUE
5695281|Holiday Inn Express Washington DC - BW Parkway, an IHG Hotel|Landover, MD| 134|38.93820| -76.91022|FALSE|TRUE|TRUE|TRUE
5695333|AKA University City|Philadelphia, PA| 372|39.95191| -75.18365|FALSE|FALSE|TRUE|TRUE
5695333|Holiday Inn Express Philadelphia-Midtown, an IHG Hotel|Philadelphia, PA| 167|39.94936| -75.16238|FALSE|TRUE|FALSE|TRUE
5695333|Parkway Inn|Philadelphia, PA|  78|39.91875| -75.32845|TRUE|FALSE|FALSE|TRUE
5695333|Live Casino & Hotel - Philadelphia|Philadelphia, PA| 699|39.90919| -75.16466|FALSE|TRUE|TRUE|TRUE
5695333|Philadelphia Marriott Old City|Philadelphia, PA| 216|39.94621| -75.14342|FALSE|TRUE|FALSE|TRUE
5695333|Red Roof Inn PLUS+ Philadelphia Airport|Philadelphia, PA| 123|39.86820| -75.30609|TRUE|FALSE|FALSE|TRUE
5695333|DoubleTree by Hilton Philadelphia Center City|Philadelphia, PA| 213|39.94792| -75.16413|FALSE|TRUE|FALSE|TRUE
5695333|Red Carpet Inn Philadelphia Airport|Philadelphia, PA|  93|39.87242| -75.28119|TRUE|FALSE|FALSE|TRUE
5695333|Hyatt Centric Center City Philadelphia|Philadelphia, PA| 232|39.94931| -75.16894|FALSE|TRUE|FALSE|TRUE
5695333|Lokal Hotel Fishtown|Philadelphia, PA| 358|39.97245| -75.13503|FALSE|FALSE|TRUE|TRUE
5695333|Guild House Hotel|Philadelphia, PA| 530|39.94819| -75.16268|FALSE|TRUE|TRUE|TRUE
5695333|Wyndham Garden Philadelphia Airport|Philadelphia, PA| 101|39.86764| -75.30377|TRUE|FALSE|FALSE|TRUE
5695333|Travelodge by Wyndham Bellmawr|Philadelphia, PA|  87|39.86208| -75.07705|TRUE|FALSE|FALSE|TRUE
5695333|Four Seasons Hotel Philadelphia at Comcast Center|Philadelphia, PA|1553|39.95509| -75.17090|FALSE|FALSE|TRUE|TRUE
5695333|Element Philadelphia Downtown, a Marriott Hotel|Philadelphia, PA| 198|39.95112| -75.16520|FALSE|TRUE|FALSE|TRUE
5695333|The Ritz-Carlton, Philadelphia|Philadelphia, PA| 450|39.95128| -75.16427|FALSE|FALSE|TRUE|TRUE
5695333|Radisson Hotel Philadelphia, PA|Philadelphia, PA| 117|39.94917| -75.16954|TRUE|TRUE|FALSE|TRUE
5695333|Wm. Mulherin's Sons Hotel|Philadelphia, PA| 549|39.97171| -75.13506|FALSE|FALSE|TRUE|TRUE
5695333|Days Inn by Wyndham Runnemede Philadelphia Area|Philadelphia, PA| 113|39.85779| -75.07254|TRUE|FALSE|FALSE|TRUE
5695333|The Rittenhouse Philadelphia|Philadelphia, PA| 889|39.94966| -75.16482|FALSE|TRUE|TRUE|TRUE
5695333|Best Western Plus Philadelphia-Pennsauken Hotel|Philadelphia, PA| 130|39.93363| -75.07762|TRUE|FALSE|FALSE|TRUE
5695333|Hilton Philadelphia at Penn's Landing|Philadelphia, PA| 196|39.94536| -75.14137|FALSE|TRUE|FALSE|TRUE
5695333|Fitler Club|Philadelphia, PA| 384|39.95349| -75.17914|FALSE|FALSE|TRUE|TRUE
5695333|BnB Philadelphia - Boutique Hotel|Philadelphia, PA| 626|39.97993| -75.12262|FALSE|FALSE|TRUE|TRUE
5695333|Philly Inn & Suites|Philadelphia, PA| 131|39.95258| -75.16522|TRUE|FALSE|FALSE|TRUE
5695333|Days Inn by Wyndham Springfield/Phil.Intl Airport|Philadelphia, PA|  90|39.91948| -75.32802|TRUE|FALSE|FALSE|TRUE
5695351|Crowne Plaza Seattle - Downtown, an IHG Hotel|Seattle, WA| 190|47.60821|-122.33211|FALSE|TRUE|FALSE|TRUE
5695351|Extended Stay America Suites Seattle Redmond|Seattle, WA| 109|47.63458|-122.13137|TRUE|FALSE|FALSE|TRUE
5695351|Hotel Hotel Hostel|Seattle, WA| 107|47.65120|-122.35013|TRUE|FALSE|FALSE|TRUE
5695351|Hotel 1000, LXR Hotels & Resorts|Seattle, WA| 395|47.60505|-122.33612|FALSE|TRUE|TRUE|TRUE
5695351|Renaissance Seattle Hotel|Seattle, WA| 211|47.60667|-122.33068|FALSE|TRUE|TRUE|TRUE
5695351|Ramada by Wyndham SeaTac Airport|Seattle, WA|  92|47.45269|-122.29469|TRUE|FALSE|FALSE|TRUE
5695351|Ramada by Wyndham Seatac Airport North|Seattle, WA|  84|47.47926|-122.28351|TRUE|FALSE|FALSE|TRUE
5695351|Ramada by Wyndham SeaTac Airport North|Seattle, WA|  80|47.47926|-122.28351|TRUE|FALSE|FALSE|TRUE
5695351|W Bellevue|Seattle, WA| 377|47.61628|-122.32679|FALSE|FALSE|TRUE|TRUE
5695351|The Westin Seattle|Seattle, WA| 244|47.61369|-122.33827|FALSE|FALSE|TRUE|TRUE
5695351|Extended Stay America Suites Seattle Bellevue Factoria|Seattle, WA| 103|47.63458|-122.13137|TRUE|FALSE|FALSE|TRUE
5695351|Sheraton Grand Seattle|Seattle, WA| 210|47.61083|-122.33400|FALSE|TRUE|FALSE|TRUE
5695351|Fairmont Olympic Hotel|Seattle, WA| 343|47.60806|-122.33393|FALSE|TRUE|TRUE|TRUE
5695351|The Marshall Suites|Seattle, WA|  98|47.63623|-122.51736|TRUE|FALSE|FALSE|TRUE
5695351|Executive Hotel Pacific|Seattle, WA| 119|47.60702|-122.33344|FALSE|TRUE|FALSE|TRUE
5695351|Travelodge by Wyndham Seattle By The Space Needle|Seattle, WA| 101|47.62041|-122.34467|TRUE|FALSE|FALSE|TRUE
5695351|citizenM Seattle Pioneer Square|Seattle, WA| 131|47.60196|-122.33582|FALSE|TRUE|FALSE|TRUE
5695351|Quality Inn Bellevue|Seattle, WA|  99|47.58134|-122.13688|TRUE|FALSE|FALSE|TRUE
5695351|Thompson Seattle|Seattle, WA| 430|47.61058|-122.34120|FALSE|TRUE|TRUE|TRUE
5695351|Lotte Hotel Seattle|Seattle, WA| 486|47.60525|-122.33084|FALSE|TRUE|TRUE|TRUE
5695351|Hotel Ballard|Seattle, WA| 419|47.66623|-122.38256|FALSE|FALSE|TRUE|TRUE
5695351|Extended Stay America Suites Seattle Tukwila|Seattle, WA| 104|47.47484|-122.27262|TRUE|FALSE|FALSE|TRUE
5695351|Hyatt Regency Seattle|Seattle, WA| 211|47.61482|-122.33458|FALSE|FALSE|TRUE|TRUE
5695351|Four Seasons Hotel Seattle|Seattle, WA| 843|47.60738|-122.33916|FALSE|TRUE|TRUE|TRUE
5695382|Hotel Apache|Las Vegas, NV|  67|36.17113|-115.14408|TRUE|FALSE|FALSE|TRUE
5695382|NoMad Las Vegas|Las Vegas, NV| 282|36.10474|-115.17651|FALSE|TRUE|TRUE|TRUE
5695382|Nobu Hotel at Caesars Palace|Las Vegas, NV|1241|36.11671|-115.17519|FALSE|TRUE|TRUE|TRUE
5695382|Oasis at Gold Spike - Adults Only|Las Vegas, NV|  65|36.17095|-115.13982|TRUE|FALSE|FALSE|TRUE
5695382|The Palazzo at The Venetian|Las Vegas, NV| 467|36.12400|-115.16796|FALSE|FALSE|TRUE|TRUE
5695382|Arizona Charlie's Boulder|Las Vegas, NV|  79|36.12406|-115.07554|TRUE|FALSE|FALSE|TRUE
5695382|Las Vegas Marriott|Las Vegas, NV| 384|36.13197|-115.15718|FALSE|FALSE|TRUE|TRUE
5695382|Super 8 by Wyndham Las Vegas North Strip/Fremont St. Area|Las Vegas, NV|  51|36.15606|-115.14829|TRUE|FALSE|FALSE|TRUE
5695382|Howard Johnson by Wyndham Las Vegas near the Strip|Las Vegas, NV|  57|36.09948|-115.16580|TRUE|TRUE|FALSE|TRUE
5695382|Longhorn Casino & Hotel|Las Vegas, NV|  76|36.10704|-115.05916|TRUE|FALSE|FALSE|TRUE
5695382|ARIA Sky Suites|Las Vegas, NV| 845|36.10765|-115.17577|FALSE|TRUE|TRUE|TRUE
5695382|Thunderbird Hotel|Las Vegas, NV|  70|36.15581|-115.14903|TRUE|FALSE|FALSE|TRUE
5695382|Palms Casino Resort|Las Vegas, NV| 126|36.11444|-115.19482|FALSE|TRUE|FALSE|TRUE
5695382|OYO Hotel and Casino Las Vegas|Las Vegas, NV|  82|36.10039|-115.16772|TRUE|TRUE|FALSE|TRUE
5695382|The Palazzo Prestige Club Lounge|Las Vegas, NV| 588|36.12400|-115.16796|FALSE|FALSE|TRUE|TRUE
5695382|Sunrise Inn Hotel|Las Vegas, NV|  77|36.21813|-115.12921|TRUE|FALSE|FALSE|TRUE
5695382|Alexis Park All Suite Resort|Las Vegas, NV| 100|36.10762|-115.15554|FALSE|TRUE|FALSE|TRUE
5695382|Hilton Grand Vacations Club Elara Center Strip Las Vegas|Las Vegas, NV| 222|36.10881|-115.16832|FALSE|TRUE|FALSE|TRUE
5695382|Jet Luxury Elite at The Signature|Las Vegas, NV| 179|36.10601|-115.16678|FALSE|TRUE|FALSE|TRUE
5695382|Bellagio|Las Vegas, NV| 346|36.11311|-115.17701|FALSE|TRUE|TRUE|TRUE
5695382|Golden Gate Hotel and Casino|Las Vegas, NV|  78|36.17124|-115.14621|TRUE|FALSE|FALSE|TRUE
5695382|The Venetian Prestige Club Lounge|Las Vegas, NV| 588|36.12117|-115.16965|FALSE|FALSE|TRUE|TRUE
5695382|Holiday Inn Club Vacations at Desert Club Resort, an IHG Hotel|Las Vegas, NV| 440|36.11820|-115.16331|FALSE|FALSE|TRUE|TRUE
5695382|Best Western Plus Casino Royale - Center Strip|Las Vegas, NV| 408|36.12073|-115.17165|FALSE|FALSE|TRUE|TRUE
5695436|SpringHill Suites by Marriott Atlanta Downtown|Atlanta, GA| 153|33.76497| -84.39502|FALSE|TRUE|FALSE|TRUE
5695436|Econo Lodge At Six Flags|Atlanta, GA|  94|33.77361| -84.55028|TRUE|FALSE|FALSE|TRUE
5695436|Econo Lodge|Atlanta, GA|  85|33.65881| -84.43356|TRUE|FALSE|FALSE|TRUE
5695436|Wingate by Wyndham - Atlanta at Six Flags|Atlanta, GA|  82|33.84257| -84.31486|TRUE|FALSE|FALSE|TRUE
5695436|Reverb by Hard Rock Atlanta Downtown|Atlanta, GA| 203|33.75348| -84.39925|FALSE|TRUE|TRUE|TRUE
5695436|The Westin Peachtree Plaza, Atlanta|Atlanta, GA| 203|33.75941| -84.38836|FALSE|TRUE|TRUE|TRUE
5695436|Days Inn by Wyndham Hartsfield Jackson Atlanta Airport West|Atlanta, GA|  98|33.63341| -84.49180|TRUE|FALSE|FALSE|TRUE
5695436|Clarion Inn & Suites Atlanta Downtown|Atlanta, GA| 141|33.74900| -84.40337|FALSE|TRUE|FALSE|TRUE
5695436|W Atlanta Downtown|Atlanta, GA| 252|33.76491| -84.38954|FALSE|FALSE|TRUE|TRUE
5695436|Omni Atlanta Hotel at CNN Center|Atlanta, GA| 243|33.75915| -84.39494|FALSE|TRUE|TRUE|TRUE
5695436|Bellyard, West Midtown Atlanta, a Tribute Portfolio Hotel|Atlanta, GA| 224|33.78520| -84.41098|FALSE|FALSE|TRUE|TRUE
5695436|The Candler Hotel Atlanta, Curio Collection by Hilton|Atlanta, GA| 182|33.75693| -84.38768|FALSE|TRUE|FALSE|TRUE
5695436|The American Hotel Atlanta Downtown - a DoubleTree by Hilton|Atlanta, GA| 171|33.75931| -84.38992|FALSE|TRUE|FALSE|TRUE
5695436|Rodeway Inn|Atlanta, GA|  72|33.74900| -84.38798|TRUE|TRUE|FALSE|TRUE
5695436|Econo Lodge Conley|Atlanta, GA|  84|33.66714| -84.33847|TRUE|FALSE|FALSE|TRUE
5695436|Omni Hotel At The Battery Atlanta|Atlanta, GA| 577|33.88944| -84.46768|FALSE|FALSE|TRUE|TRUE
5695436|Nobu Hotel Atlanta|Atlanta, GA| 420|33.85439| -84.36349|FALSE|FALSE|TRUE|TRUE
5695436|Hyatt Place Atlanta Centennial Park|Atlanta, GA| 173|33.76254| -84.39597|FALSE|TRUE|FALSE|TRUE
5695436|Aloft Atlanta Downtown, a Marriott Hotel|Atlanta, GA| 167|33.76263| -84.38961|FALSE|TRUE|FALSE|TRUE
5695436|Hilton Atlanta|Atlanta, GA| 194|33.76151| -84.38330|FALSE|FALSE|TRUE|TRUE
5695436|Residence Inn by Marriott Atlanta Cumberland/Galleria|Atlanta, GA|1144|33.88601| -84.47603|FALSE|FALSE|TRUE|TRUE
5695436|Howard Johnson by Wyndham Atlanta Airport/College Park|Atlanta, GA|  94|33.61529| -84.43967|TRUE|FALSE|FALSE|TRUE
5695436|Rodeway Inn At Six Flags|Atlanta, GA| 100|33.77213| -84.55608|TRUE|FALSE|FALSE|TRUE
5695436|Thompson Buckhead|Atlanta, GA| 454|33.83833| -84.37435|FALSE|FALSE|TRUE|TRUE
5695436|Microtel Inn by Wyndham Atlanta Airport|Atlanta, GA|  97|33.62339| -84.45537|TRUE|FALSE|FALSE|TRUE
5695436|Quality Suites Atlanta Airport East|Atlanta, GA|  99|33.61301| -84.40140|TRUE|FALSE|FALSE|TRUE
5695474|Hilton Santa Clara|Santa Clara, CA| 253|37.40263|-121.97688|FALSE|TRUE|TRUE|TRUE
5695474|Aloft Santa Clara, a Marriott Hotel|Santa Clara, CA| 226|37.41785|-121.97645|FALSE|TRUE|FALSE|TRUE
5695474|Ramada by Wyndham Sunnyvale/Silicon Valley|Santa Clara, CA| 114|37.39124|-121.99159|TRUE|TRUE|FALSE|TRUE
5695474|Quality Inn Santa Clara Convention Center|Santa Clara, CA| 123|37.40705|-121.99828|FALSE|TRUE|FALSE|TRUE
5695474|Cherry Orchard Inn|Santa Clara, CA| 119|37.35299|-122.00325|TRUE|FALSE|FALSE|TRUE
5695474|Sonesta Silicon Valley|Santa Clara, CA| 215|37.40067|-121.91148|FALSE|TRUE|FALSE|TRUE
5695474|Hilton Garden Inn Cupertino|Santa Clara, CA| 342|37.33344|-122.01487|FALSE|FALSE|TRUE|TRUE
5695474|Shashi Hotel Mountain View, an Urban Resort|Santa Clara, CA| 458|37.41695|-122.07772|FALSE|FALSE|TRUE|TRUE
5695474|Element San Jose Airport, a Marriott Hotel|Santa Clara, CA| 247|37.35146|-121.92668|FALSE|FALSE|TRUE|TRUE
5695474|Days Inn by Wyndham Fremont|Santa Clara, CA| 108|37.49370|-121.93218|TRUE|FALSE|FALSE|TRUE
5695474|Radisson Hotel Sunnyvale – Silicon Valley|Santa Clara, CA| 210|37.40954|-122.00224|FALSE|TRUE|FALSE|TRUE
5695474|Hyatt Regency Santa Clara|Santa Clara, CA| 241|37.40513|-121.97692|FALSE|TRUE|TRUE|TRUE
5695474|Hilton Garden Inn San Jose/Milpitas|Santa Clara, CA| 161|37.42503|-121.92314|FALSE|TRUE|FALSE|TRUE
5695474|Signia by Hilton San Jose|Santa Clara, CA| 351|37.33316|-121.88876|FALSE|FALSE|TRUE|TRUE
5695474|Extended Stay America Suites San Jose Santa Clara|Santa Clara, CA| 158|37.41959|-121.97570|FALSE|TRUE|FALSE|TRUE
5695474|Comfort Suites San Jose Airport|Santa Clara, CA| 104|37.36352|-121.91064|TRUE|FALSE|FALSE|TRUE
5695474|Extended Stay America Suites Fremont Warm Springs|Santa Clara, CA| 120|37.35411|-121.95524|TRUE|FALSE|FALSE|TRUE
5695474|Super 8 by Wyndham Mountain View|Santa Clara, CA| 114|37.38965|-122.09332|TRUE|FALSE|FALSE|TRUE
5695474|Santa Clara Marriott|Santa Clara, CA| 382|37.39068|-121.97426|FALSE|TRUE|TRUE|TRUE
5695474|Extended Studio Suites|Santa Clara, CA|  98|37.37558|-121.91870|TRUE|FALSE|FALSE|TRUE
5695474|Hotel Strata|Santa Clara, CA| 407|37.38121|-122.07586|FALSE|FALSE|TRUE|TRUE
5695474|Residence Inn by Marriott San Jose Cupertino|Santa Clara, CA| 368|37.32433|-122.00993|FALSE|FALSE|TRUE|TRUE
5695474|Quality Inn San Jose Airport/Silicon Valley|Santa Clara, CA| 115|37.40412|-121.90435|TRUE|FALSE|FALSE|TRUE
5695474|Extended Stay America Suites Fremont Newark|Santa Clara, CA| 120|37.53234|-122.00339|TRUE|FALSE|FALSE|TRUE
5695474|Hotel Valencia Santana Row|Santa Clara, CA| 457|37.32084|-121.94809|FALSE|FALSE|TRUE|TRUE
5695474|Signature Inn Santa Clara|Santa Clara, CA| 100|37.34493|-121.93227|TRUE|FALSE|FALSE|TRUE
5695474|Quality Inn & Suites Silicon Valley|Santa Clara, CA| 100|37.35174|-121.97989|TRUE|FALSE|FALSE|TRUE
5695491|Extended Stay America Suites Jacksonville Salisbury Rd|Jacksonville, FL|  92|30.25048| -81.59692|TRUE|FALSE|FALSE|TRUE
5695491|DoubleTree by Hilton Hotel Jacksonville Riverfront|Jacksonville, FL| 213|30.32011| -81.65795|FALSE|TRUE|TRUE|TRUE
5695491|SpringHill Suites by Marriott Jacksonville|Jacksonville, FL| 152|30.26692| -81.55672|FALSE|FALSE|TRUE|TRUE
5695491|Extended Stay America Suites Jacksonville St Johns Towne Ctr|Jacksonville, FL| 102|30.33218| -81.65565|FALSE|TRUE|FALSE|TRUE
5695491|Hyatt Regency Jacksonville|Jacksonville, FL| 263|30.32438| -81.65595|FALSE|TRUE|TRUE|TRUE
5695491|Extended Stay America Suites Jacksonville Riverwalk Conv Ctr|Jacksonville, FL| 151|30.31668| -81.65557|FALSE|TRUE|TRUE|TRUE
5695491|Quality Inn & Suites|Jacksonville, FL|  90|30.21781| -81.57070|TRUE|FALSE|FALSE|TRUE
5695491|WoodSpring Suites Jacksonville I-295 East|Jacksonville, FL|  84|30.35487| -81.55643|TRUE|TRUE|FALSE|TRUE
5695491|Red Roof Inn Jacksonville - Cruise Port|Jacksonville, FL|  96|30.43278| -81.65759|TRUE|FALSE|FALSE|TRUE
5695491|Residence Inn by Marriott Jacksonville Downtown|Jacksonville, FL| 239|30.32225| -81.67529|FALSE|TRUE|TRUE|TRUE
5695491|Marriott Jacksonville Downtown|Jacksonville, FL| 249|30.32594| -81.66196|FALSE|TRUE|TRUE|TRUE
5695491|Marriott Jacksonville|Jacksonville, FL| 793|30.24762| -81.58968|FALSE|FALSE|TRUE|TRUE
5695491|La Quinta Inn & Suites by Wyndham Jacksonville Butler Blvd|Jacksonville, FL|  85|30.24798| -81.59747|TRUE|FALSE|FALSE|TRUE
5695491|Metro Inn & Suites|Jacksonville, FL|  81|30.36553| -81.67090|TRUE|TRUE|FALSE|TRUE
5695491|Hampton Inn Jacksonville-Downtown-I-95|Jacksonville, FL| 182|30.31661| -81.65675|FALSE|TRUE|TRUE|TRUE
5695491|Homewood Suites by Hilton Jacksonville Downtown-Southbank|Jacksonville, FL| 184|30.31232| -81.65358|FALSE|TRUE|TRUE|TRUE
5695491|Wyndham Garden Jacksonville|Jacksonville, FL|  96|30.24914| -81.58999|TRUE|FALSE|FALSE|TRUE
5695491|Econo Lodge|Jacksonville, FL|  87|30.48362| -81.64882|TRUE|FALSE|FALSE|TRUE
5695491|Stayable Suites Jacksonville West|Jacksonville, FL|  81|30.33473| -81.75988|TRUE|FALSE|FALSE|TRUE
5695491|Baymont by Wyndham Jacksonville/Butler Blvd|Jacksonville, FL|  95|30.24634| -81.59905|TRUE|FALSE|FALSE|TRUE
5695491|Southbank Hotel by Marriott Jacksonville Riverwalk|Jacksonville, FL| 173|30.24760| -81.58965|FALSE|FALSE|TRUE|TRUE
5695547|Home2 Suites by Hilton Buffalo Airport / Galleria Mall|Orchard Park, NY| 183|42.90555| -78.76556|TRUE|FALSE|FALSE|TRUE
5695547|Super 8 by Wyndham Hamburg|Orchard Park, NY| 226|42.73834| -78.84703|FALSE|TRUE|FALSE|TRUE
5695547|Hampton Inn East Aurora|Orchard Park, NY| 482|42.76626| -78.60822|FALSE|FALSE|TRUE|TRUE
5695547|Hampton Inn Buffalo South/I-90|Orchard Park, NY| 233|42.82988| -78.78885|FALSE|TRUE|TRUE|TRUE
5695547|Quality Inn Hamburg|Orchard Park, NY|  96|42.73895| -78.84579|TRUE|TRUE|FALSE|TRUE
5695547|Residence Inn by Marriott Buffalo Galleria Mall|Orchard Park, NY| 194|42.90729| -78.77037|TRUE|FALSE|FALSE|TRUE
5695547|Hampton Inn Buffalo-Airport / Galleria Mall|Orchard Park, NY| 144|42.90747| -78.77238|TRUE|FALSE|FALSE|TRUE
5695547|Courtyard Buffalo Downtown / Canalside|Orchard Park, NY| 828|42.87817| -78.87631|FALSE|TRUE|TRUE|TRUE
5695547|Best Western Plus Galleria Inn & Suites|Orchard Park, NY| 209|42.87699| -78.79392|TRUE|TRUE|FALSE|TRUE
5695547|Curtiss Hotel, Ascend Hotel Collection|Orchard Park, NY| 329|42.88951| -78.87597|FALSE|FALSE|TRUE|TRUE
5695547|Best Western on the Avenue|Orchard Park, NY| 399|42.89826| -78.87487|FALSE|FALSE|TRUE|TRUE
5695547|Hampton Inn Buffalo-Hamburg|Orchard Park, NY| 217|42.73895| -78.84579|FALSE|TRUE|FALSE|TRUE
5695547|Staybridge Suites West Seneca, an IHG Hotel|Orchard Park, NY| 235|42.83590| -78.75389|FALSE|TRUE|TRUE|TRUE
5695547|Baymont by Wyndham Buffalo|Orchard Park, NY| 193|42.90827| -78.75244|TRUE|FALSE|FALSE|TRUE
5695547|Comfort Inn And Suites Hamburg|Orchard Park, NY| 122|42.73984| -78.85089|TRUE|TRUE|FALSE|TRUE
5695547|Hotel at the Lafayette Trademark Collection by Wyndham|Orchard Park, NY| 202|42.88496| -78.87294|TRUE|TRUE|FALSE|TRUE
5695547|Hilton Garden Inn Buffalo Downtown|Orchard Park, NY| 250|42.88611| -78.87400|FALSE|FALSE|TRUE|TRUE
5695547|Econo Lodge South|Orchard Park, NY| 142|42.79112| -78.81852|TRUE|TRUE|FALSE|TRUE
5695547|Residence Inn by Marriott Buffalo Downtown|Orchard Park, NY| 828|42.90112| -78.87365|FALSE|FALSE|TRUE|TRUE
5695547|Holiday Inn Express Cheektowaga North East, an IHG Hotel|Orchard Park, NY| 153|42.90663| -78.77103|TRUE|FALSE|FALSE|TRUE
5695547|Wyndham Garden Buffalo Downtown|Orchard Park, NY| 272|42.90011| -78.86452|FALSE|FALSE|TRUE|TRUE
5695547|Aloft Buffalo Downtown, a Marriott Hotel|Orchard Park, NY| 454|42.89337| -78.87391|FALSE|FALSE|TRUE|TRUE
5695568|Americas Best Value Inn Denver|Denver, CO|  74|39.77242|-104.84902|TRUE|FALSE|FALSE|TRUE
5695568|The Curtis Denver - a DoubleTree by Hilton Hotel|Denver, CO| 148|39.74573|-104.99707|FALSE|TRUE|FALSE|TRUE
5695568|Grand Hyatt Denver|Denver, CO| 219|39.74582|-104.98920|FALSE|FALSE|TRUE|TRUE
5695568|Aiden by Best Western @ Denver West/Golden|Denver, CO|  93|39.73223|-105.16747|TRUE|FALSE|FALSE|TRUE
5695568|The Ritz-Carlton, Denver|Denver, CO| 589|39.75014|-104.99188|FALSE|FALSE|TRUE|TRUE
5695568|Life House, Lower Highlands|Denver, CO| 398|39.76758|-105.00375|FALSE|FALSE|TRUE|TRUE
5695568|Quality Inn Denver Westminster|Denver, CO|  83|39.85124|-105.04978|TRUE|FALSE|FALSE|TRUE
5695568|Four Seasons Hotel Denver|Denver, CO| 781|39.74648|-104.99819|FALSE|TRUE|TRUE|TRUE
5695568|The Westin Denver Downtown|Denver, CO| 156|39.74877|-104.99566|FALSE|TRUE|FALSE|TRUE
5695568|Rodeway Inn Denver Downtown|Denver, CO|  97|39.75575|-105.01639|FALSE|TRUE|FALSE|TRUE
5695568|SpringHill Suites by Marriott Denver Downtown|Denver, CO| 211|39.74729|-105.00414|FALSE|TRUE|TRUE|TRUE
5695568|La Quinta Inn by Wyndham Denver Golden|Denver, CO|  92|39.76414|-105.14435|TRUE|FALSE|FALSE|TRUE
5695568|HomeTowne Studios by Red Roof Denver - Thornton|Denver, CO|  84|39.91235|-104.98863|TRUE|FALSE|FALSE|TRUE
5695568|The Slate Denver, Tapestry Collection By Hilton|Denver, CO| 122|39.74091|-104.99477|FALSE|TRUE|FALSE|TRUE
5695568|Super 8 by Wyndham Denver Central|Denver, CO|  78|39.80329|-104.98653|TRUE|FALSE|FALSE|TRUE
5695568|Hilton Garden Inn Denver Downtown|Denver, CO| 169|39.74277|-104.99322|FALSE|TRUE|TRUE|TRUE
5695568|The Oxford Hotel|Denver, CO| 410|39.75226|-104.99923|FALSE|TRUE|TRUE|TRUE
5695568|HomeTowne Studios by Red Roof Denver - Glendale/Cherry Creek|Denver, CO|  80|39.70810|-104.93090|TRUE|FALSE|FALSE|TRUE
5695568|Hotel Indigo Denver Downtown, an IHG Hotel|Denver, CO| 198|39.75556|-105.00010|FALSE|TRUE|TRUE|TRUE
5695568|Super 8 by Wyndham Wheat Ridge/Denver West|Denver, CO|  85|39.78234|-105.10855|TRUE|FALSE|FALSE|TRUE
5695568|Days Inn by Wyndham Denver Downtown|Denver, CO|  93|39.73973|-104.97571|TRUE|FALSE|FALSE|TRUE
5695568|Hyatt Regency Denver at Colorado Convention Center|Denver, CO| 169|39.74340|-104.99365|FALSE|TRUE|TRUE|TRUE
5695568|Super 8 by Wyndham Henderson North East Denver|Denver, CO|  70|39.86165|-104.91073|TRUE|FALSE|FALSE|TRUE
5695568|The Ramble Hotel|Denver, CO| 404|39.75735|-104.98659|FALSE|FALSE|TRUE|TRUE
5695586|Bottleworks Hotel|Indianapolis, IN| 537|39.77909| -86.14340|FALSE|FALSE|TRUE|TRUE
5695586|Marriott Indianapolis Downtown|Indianapolis, IN| 490|39.76663| -86.16481|FALSE|TRUE|TRUE|TRUE
5695586|Hyatt Place Indianapolis Downtown|Indianapolis, IN| 483|39.76461| -86.15676|FALSE|TRUE|TRUE|TRUE
5695586|La Quinta Inn by Wyndham Indianapolis Airport Executive Dr|Indianapolis, IN|  85|39.72704| -86.25821|TRUE|FALSE|FALSE|TRUE
5695586|Rodeway Inn|Indianapolis, IN|  68|39.82140| -86.04500|TRUE|FALSE|FALSE|TRUE
5695586|Hotel Indy, Indianapolis, a Tribute Portfolio Hotel|Indianapolis, IN| 502|39.76633| -86.15474|FALSE|TRUE|TRUE|TRUE
5695586|Hyatt Regency Indianapolis|Indianapolis, IN| 490|39.76636| -86.16082|FALSE|TRUE|TRUE|TRUE
5695586|Le Méridien Indianapolis|Indianapolis, IN| 514|39.76514| -86.15965|FALSE|TRUE|TRUE|TRUE
5695586|Hampton Inn Indianapolis Downtown Across from Circle Centre|Indianapolis, IN| 560|39.76541| -86.15764|FALSE|TRUE|TRUE|TRUE
5695586|Baymont by Wyndham Indianapolis West|Indianapolis, IN|  90|39.82521| -86.27816|TRUE|FALSE|FALSE|TRUE
5695586|Tru By Hilton Indianapolis Downtown, IN|Indianapolis, IN| 479|39.75889| -86.15967|FALSE|TRUE|FALSE|TRUE
5695586|Super 8 by Wyndham Indianapolis South|Indianapolis, IN|  71|39.69757| -86.15026|TRUE|FALSE|FALSE|TRUE
5695586|Extended Stay America Suites Indianapolis Airport W Southern|Indianapolis, IN|  83|39.72960| -86.25363|TRUE|FALSE|FALSE|TRUE
5695586|Days Inn by Wyndham Indianapolis East Post Road|Indianapolis, IN|  82|39.79823| -86.01011|TRUE|FALSE|FALSE|TRUE
5695586|Residence Inn by Marriott Indianapolis Downtown on the Canal|Indianapolis, IN| 572|39.77216| -86.16492|FALSE|FALSE|TRUE|TRUE
5695586|Extended Stay America Suites Indianapolis Airport|Indianapolis, IN|  76|39.72538| -86.26306|TRUE|FALSE|FALSE|TRUE
5695586|Hyatt House Indianapolis Downtown|Indianapolis, IN| 438|39.76469| -86.15685|FALSE|TRUE|FALSE|TRUE
5695586|La Quinta Inn by Wyndham Indianapolis Airport Lynhurst|Indianapolis, IN|  79|39.72898| -86.25133|TRUE|FALSE|FALSE|TRUE
5695586|SpringHill Suites by Marriott Indianapolis Downtown|Indianapolis, IN| 432|39.76701| -86.16884|FALSE|TRUE|FALSE|TRUE
5695586|JW Marriott Indianapolis|Indianapolis, IN| 502|39.76659| -86.16769|FALSE|TRUE|TRUE|TRUE
5695586|Royal Inn|Indianapolis, IN|  52|39.76840| -86.15807|TRUE|FALSE|FALSE|TRUE
5695586|Homewood Suites by Hilton Indianapolis Canal IUPUI|Indianapolis, IN| 489|39.77309| -86.16580|FALSE|FALSE|TRUE|TRUE
5695586|Quality Inn & Suites|Indianapolis, IN|  88|39.84322| -86.25248|TRUE|FALSE|FALSE|TRUE
5695637|Delta Hotels by Marriott Green Bay|Green Bay, WI| 146|44.47603| -88.07774|FALSE|TRUE|TRUE|TRUE
5695637|Hyatt Regency Green Bay|Green Bay, WI| 126|44.51758| -88.01064|TRUE|FALSE|FALSE|TRUE
5695637|Aloft Green Bay, a Marriott Hotel|Green Bay, WI| 136|44.47844| -88.05245|FALSE|TRUE|FALSE|TRUE
5695637|Radisson Conference Center Green Bay|Green Bay, WI| 156|44.49726| -88.12233|FALSE|FALSE|TRUE|TRUE
5695637|Baymont by Wyndham Green Bay|Green Bay, WI|  78|44.47234| -88.07631|TRUE|TRUE|FALSE|TRUE
5695637|Hampton Inn Green Bay|Green Bay, WI| 126|44.47250| -88.07842|TRUE|FALSE|FALSE|TRUE
5695637|Lodge Kohler|Green Bay, WI| 322|44.50229| -88.06497|FALSE|TRUE|TRUE|TRUE
5695637|Hawthorn Suites by Wyndham Green Bay|Green Bay, WI| 143|44.48523| -88.02414|FALSE|FALSE|TRUE|TRUE
5695637|Hotel J Green Bay|Green Bay, WI| 114|44.49177| -88.10755|TRUE|FALSE|FALSE|TRUE
5695637|My Place Hotel - Green Bay|Green Bay, WI| 113|44.49021| -88.05939|TRUE|TRUE|FALSE|TRUE
5695637|Kress Inn, Ascend Hotel Collection|Green Bay, WI| 117|44.44574| -88.06906|TRUE|FALSE|FALSE|TRUE
5695637|AmericInn by Wyndham Green Bay East|Green Bay, WI| 164|44.47000| -87.95382|FALSE|FALSE|TRUE|TRUE
5695637|Hotel Northland, Autograph Collection|Green Bay, WI| 186|44.51578| -88.01287|FALSE|FALSE|TRUE|TRUE
5695637|Wingate by Wyndham Green Bay/Airport|Green Bay, WI| 103|44.49453| -88.12332|TRUE|FALSE|FALSE|TRUE
5695637|SpringHill Suites Green Bay|Green Bay, WI| 176|44.49633| -88.05121|FALSE|TRUE|TRUE|TRUE
5695637|St. Brendan's Inn|Green Bay, WI| 149|44.51239| -88.01794|FALSE|FALSE|TRUE|TRUE
5695637|Nuks Executive Suites|Green Bay, WI| 126|44.45023| -88.06188|TRUE|FALSE|FALSE|TRUE
5695637|Comfort Inn Green Bay|Green Bay, WI|  98|44.47263| -88.07697|TRUE|TRUE|FALSE|TRUE
5695637|Extended Stay Airport|Green Bay, WI|  98|44.49157| -88.10388|TRUE|FALSE|FALSE|TRUE
5695637|Best Western Green Bay Inn Conference Center|Green Bay, WI| 162|44.49878| -88.05316|FALSE|TRUE|TRUE|TRUE
5695637|AmericInn by Wyndham Green Bay Near Stadium|Green Bay, WI| 134|44.47346| -88.07673|FALSE|TRUE|FALSE|TRUE
5695637|Super 8 by Wyndham Green Bay I-43 Bus. Park|Green Bay, WI| 110|44.48638| -87.93742|TRUE|FALSE|FALSE|TRUE
5695637|Residence Inn by Marriott Green Bay Downtown|Green Bay, WI| 172|44.48014| -88.05150|FALSE|TRUE|TRUE|TRUE
5695654|Comfort Suites Cincinnati Airport|Cincinnati, OH| 100|39.07720| -84.66093|TRUE|FALSE|FALSE|TRUE
5695654|The Cincinnatian Hotel Curio Collection by Hilton|Cincinnati, OH| 184|39.10258| -84.51382|FALSE|TRUE|TRUE|TRUE
5695654|Hotel Covington Cincinnati Riverfront|Cincinnati, OH| 224|39.08364| -84.50997|FALSE|FALSE|TRUE|TRUE
5695654|Super 8 by Wyndham Fort Mitchell Cincinnati Area|Cincinnati, OH|  77|39.04846| -84.57065|TRUE|FALSE|FALSE|TRUE
5695654|Red Roof Inn Cincinnati Airport–Florence/ Erlanger|Cincinnati, OH|  79|39.02683| -84.61616|TRUE|FALSE|FALSE|TRUE
5695654|Courtyard by Marriott Cincinnati Downtown|Cincinnati, OH| 180|39.10018| -84.51251|FALSE|TRUE|TRUE|TRUE
5695654|Wingate by Wyndham Erlanger/Cincinnati|Cincinnati, OH|  93|39.02865| -84.61225|TRUE|FALSE|FALSE|TRUE
5695654|Days Inn by Wyndham Florence Cincinnati Area|Cincinnati, OH|  76|39.00929| -84.63429|TRUE|FALSE|FALSE|TRUE
5695654|Hilton Cincinnati Netherland Plaza|Cincinnati, OH| 206|39.10074| -84.51397|FALSE|TRUE|TRUE|TRUE
5695654|Homewood Suites by Hilton Cincinnati-Downtown|Cincinnati, OH| 200|39.10302| -84.51357|FALSE|TRUE|TRUE|TRUE
5695654|Renaissance Cincinnati Downtown Hotel|Cincinnati, OH| 502|39.10030| -84.51153|FALSE|TRUE|TRUE|TRUE
5695654|AC Hotel by Marriott Cincinnati at The Banks|Cincinnati, OH| 200|39.09686| -84.50870|FALSE|TRUE|TRUE|TRUE
5695654|Comfort Inn Airport Turfway Road|Cincinnati, OH|  99|39.01822| -84.63518|TRUE|FALSE|FALSE|TRUE
5695654|The Westin Cincinnati|Cincinnati, OH| 298|39.10075| -84.51230|FALSE|TRUE|TRUE|TRUE
5695654|Days Inn by Wyndham Fort Wright Cincinnati Area|Cincinnati, OH|  73|39.05662| -84.54476|TRUE|FALSE|FALSE|TRUE
5695654|Rodeway Inn Florence - Cincinnati South|Cincinnati, OH|  52|38.98984| -84.64132|TRUE|FALSE|FALSE|TRUE
5695654|Quality Inn & Suites|Cincinnati, OH|  86|39.10357| -84.52874|TRUE|FALSE|FALSE|TRUE
5695654|Best Western Inn Florence|Cincinnati, OH|  82|39.00272| -84.64350|TRUE|FALSE|FALSE|TRUE
5695654|TownePlace Suites by Marriott Cincinnati Downtown|Cincinnati, OH| 212|39.10361| -84.51569|FALSE|TRUE|TRUE|TRUE
5695654|Hyatt Regency Cincinnati|Cincinnati, OH| 306|39.10027| -84.51561|FALSE|TRUE|TRUE|TRUE
5695654|Embassy Suites by Hilton Cincinnati RiverCenter|Cincinnati, OH| 142|39.08998| -84.51117|FALSE|TRUE|FALSE|TRUE
5695730|Residence Inn by Marriott Pittsburgh North Shore|Pittsburgh, PA| 154|40.44791| -80.00721|FALSE|TRUE|FALSE|TRUE
5695730|Hyatt Place Pittsburgh-North Shore|Pittsburgh, PA| 176|40.44669| -80.00909|FALSE|TRUE|TRUE|TRUE
5695730|Wyndham Grand Pittsburgh Downtown|Pittsburgh, PA| 161|40.44167| -80.00642|FALSE|TRUE|FALSE|TRUE
5695730|Homewood Suites by Hilton Pittsburgh Downtown|Pittsburgh, PA| 177|40.44797| -79.98988|FALSE|FALSE|TRUE|TRUE
5695730|The Westin Pittsburgh, a Marriott Hotel|Pittsburgh, PA| 241|40.44409| -79.99506|FALSE|TRUE|TRUE|TRUE
5695730|DoubleTree by Hilton Hotel & Suites Pittsburgh Downtown|Pittsburgh, PA| 173|40.44047| -79.99398|FALSE|FALSE|TRUE|TRUE
5695730|Baywood Conference Center|Pittsburgh, PA| 402|40.50701| -80.18725|FALSE|FALSE|TRUE|TRUE
5695730|Wyndham Garden Pittsburgh Airport|Pittsburgh, PA| 101|40.46570| -80.19865|TRUE|FALSE|FALSE|TRUE
5695730|Extended Stay America Suites Pittsburgh West Mifflin|Pittsburgh, PA|  87|40.36340| -79.86644|TRUE|FALSE|FALSE|TRUE
5695730|Hilton Garden Inn Pittsburgh Downtown|Pittsburgh, PA| 203|40.44027| -80.00158|FALSE|TRUE|TRUE|TRUE
5695730|Extended Stay America Suites Pittsburgh Carnegie|Pittsburgh, PA| 103|40.44062| -79.99589|TRUE|FALSE|FALSE|TRUE
5695730|Econo Lodge Pittsburgh I-79|Pittsburgh, PA|  97|40.44931| -80.10605|TRUE|FALSE|FALSE|TRUE
5695730|Drury Plaza Hotel Pittsburgh Downtown|Pittsburgh, PA| 164|40.44300| -79.99506|FALSE|TRUE|FALSE|TRUE
5695730|Wingate by Wyndham West Mifflin|Pittsburgh, PA| 102|40.34556| -79.95755|TRUE|FALSE|FALSE|TRUE
5695730|Sheraton Pittsburgh Hotel at Station Square|Pittsburgh, PA| 203|40.43473| -80.00598|FALSE|TRUE|TRUE|TRUE
5695730|Comfort Suites|Pittsburgh, PA|  99|40.41991| -80.03026|TRUE|FALSE|FALSE|TRUE
5695730|Springhill Suites by Marriott Pittsburgh North Shore|Pittsburgh, PA| 136|40.44859| -80.00462|FALSE|TRUE|FALSE|TRUE
5695730|Red Roof Inn Pittsburgh - McKnight Rd|Pittsburgh, PA|  87|40.50569| -80.00892|TRUE|FALSE|FALSE|TRUE
5695730|Embassy Suites By Hilton Pittsburgh Downtown|Pittsburgh, PA| 173|40.44123| -79.99799|FALSE|TRUE|TRUE|TRUE
5695730|Extended Stay America Suites Pittsburgh Airport|Pittsburgh, PA|  92|40.44345| -80.15972|TRUE|FALSE|FALSE|TRUE
5695730|Red Roof Inn PLUS+ Pittsburgh South - Airport|Pittsburgh, PA|  91|40.44969| -80.15721|TRUE|FALSE|FALSE|TRUE
5695730|Quality Inn Pittsburgh Airport|Pittsburgh, PA| 103|40.44527| -80.17221|TRUE|FALSE|FALSE|TRUE
5695730|Omni William Penn Hotel|Pittsburgh, PA| 209|40.44060| -79.99659|FALSE|TRUE|TRUE|TRUE
5695730|Days Inn by Wyndham Pittsburgh|Pittsburgh, PA|  96|40.41923| -80.03035|TRUE|FALSE|FALSE|TRUE
5695730|Wyndham Pittsburgh University Center|Pittsburgh, PA| 175|40.44619| -79.95485|FALSE|FALSE|TRUE|TRUE
5735777|Courtyard by Marriott Lexington North|Lexington, KY| 127|38.07578| -84.49074|FALSE|TRUE|FALSE|TRUE
5735777|Hyatt Regency Lexington|Lexington, KY| 234|38.04845| -84.50154|FALSE|TRUE|TRUE|TRUE
5735777|Hilton Lexington/Downtown|Lexington, KY| 217|38.04842| -84.50009|FALSE|TRUE|TRUE|TRUE
5735777|Red Roof Inn Lexington - Hamburg|Lexington, KY|  72|38.04416| -84.42344|TRUE|FALSE|FALSE|TRUE
5735777|Super 8 by Wyndham Lexington/Hamburg Area|Lexington, KY|  75|38.04218| -84.42149|TRUE|FALSE|FALSE|TRUE
5735777|The Sire Hotel Lexington, Tapestry Collection by Hilton|Lexington, KY| 182|38.04858| -84.49508|FALSE|TRUE|TRUE|TRUE
5735777|Staybridge Suites Lexington S Medical Ctr Area, an IHG Hotel|Lexington, KY| 150|38.06673| -84.52880|FALSE|TRUE|FALSE|TRUE
5735777|Quality Inn Lexington East/Hamburg Area|Lexington, KY|  68|38.04410| -84.42134|TRUE|FALSE|FALSE|TRUE
5735777|Comfort Inn Lexington Southeast|Lexington, KY|  77|37.96313| -84.38569|TRUE|FALSE|FALSE|TRUE
5735777|Lexington Marriott City Center|Lexington, KY| 233|38.04636| -84.49804|FALSE|TRUE|TRUE|TRUE
5735777|Extended Stay America Suites Lexington Nicholasville Road|Lexington, KY|  84|37.99367| -84.52255|TRUE|FALSE|FALSE|TRUE
5735777|Lexington Griffin Gate Marriott Golf Resort & Spa|Lexington, KY| 172|38.09317| -84.48504|FALSE|TRUE|TRUE|TRUE
5735777|Extended Stay America Suites Lexington Tates Creek|Lexington, KY|  80|37.98404| -84.49517|TRUE|FALSE|FALSE|TRUE
5735777|Embassy Suites by Hilton Lexington/UK Coldstream|Lexington, KY| 196|38.09506| -84.48893|FALSE|FALSE|TRUE|TRUE
5735777|21c Museum Hotel Lexington|Lexington, KY| 230|38.04715| -84.49761|FALSE|TRUE|TRUE|TRUE
5735777|Microtel Inn by Wyndham Lexington|Lexington, KY|  69|38.04227| -84.42691|TRUE|FALSE|FALSE|TRUE
5735777|GuestHouse Lexington|Lexington, KY|  80|38.04296| -84.42383|TRUE|FALSE|FALSE|TRUE
5735777|Elwood Hotel & Suites|Lexington, KY| 138|38.03500| -84.52312|FALSE|TRUE|FALSE|TRUE
5735777|Embassy Suites by Hilton Lexington Green|Lexington, KY| 186|37.99566| -84.52500|FALSE|FALSE|TRUE|TRUE
5735777|Quality Inn Lexington|Lexington, KY|  88|38.04407| -84.42158|TRUE|FALSE|FALSE|TRUE
5735777|The Campbell House Lexington, Curio Collection by Hilton|Lexington, KY| 157|38.03482| -84.52506|FALSE|TRUE|TRUE|TRUE
5735777|Origin Lexington a Wyndham Hotel|Lexington, KY| 157|37.97629| -84.52592|FALSE|FALSE|TRUE|TRUE
5735777|Mainstay Suites|Lexington, KY|  88|38.10173| -84.48329|TRUE|FALSE|FALSE|TRUE
5735811|OYO Hotel Waco University Area/ I-35|Waco, TX|  61|31.56152| -97.11770|TRUE|TRUE|FALSE|TRUE
5735811|Element Waco|Waco, TX| 229|31.52295| -97.13114|FALSE|TRUE|TRUE|TRUE
5735811|Days Inn by Wyndham Waco|Waco, TX| 106|31.59837| -97.11001|TRUE|FALSE|FALSE|TRUE
5735811|Staybridge Suites Waco South Woodway, an IHG hotel|Waco, TX| 182|31.50353| -97.19909|FALSE|FALSE|TRUE|TRUE
5735811|Aloft Waco Baylor, a Marriott Hotel|Waco, TX| 321|31.54554| -97.12912|FALSE|TRUE|TRUE|TRUE
5735811|Homewood Suites by Hilton Waco|Waco, TX| 186|31.49305| -97.16026|FALSE|FALSE|TRUE|TRUE
5735811|Americas Best Value Inn Waco|Waco, TX|  98|31.52699| -97.16542|TRUE|FALSE|FALSE|TRUE
5735811|Hampton Inn Waco|Waco, TX| 177|31.60193| -97.10889|FALSE|FALSE|TRUE|TRUE
5735811|Candlewood Suites Waco, an IHG Hotel|Waco, TX| 186|31.50759| -97.14016|FALSE|FALSE|TRUE|TRUE
5735811|Studio 6 Waco, TX - Downtown - Baylor|Waco, TX|  75|31.53810| -97.12757|TRUE|TRUE|FALSE|TRUE
5735811|Sleep Inn & Suites Hewitt - South Waco|Waco, TX| 122|31.45915| -97.17309|TRUE|FALSE|FALSE|TRUE
5735811|Red Roof Inn Waco|Waco, TX| 114|31.56108| -97.11830|TRUE|TRUE|FALSE|TRUE
5735811|Days Inn by Wyndham Waco University Area|Waco, TX|  80|31.51939| -97.13451|TRUE|FALSE|FALSE|TRUE
5735811|Hotel Indigo WACO - BAYLOR, an IHG Hotel|Waco, TX| 294|31.55547| -97.12509|FALSE|TRUE|TRUE|TRUE
5735811|TownePlace Suites by Marriott Waco South|Waco, TX| 300|31.49368| -97.16109|FALSE|FALSE|TRUE|TRUE
5735811|1700 South 2nd|Waco, TX| 307|31.54609| -97.11277|FALSE|TRUE|TRUE|TRUE
5735811|Extended Stay America Suites Waco Woodway|Waco, TX|  92|31.54933| -97.14667|TRUE|TRUE|FALSE|TRUE
5735811|WoodSpring Suites Waco near University|Waco, TX|  87|31.58242| -97.10873|TRUE|TRUE|FALSE|TRUE
5735811|Comfort Suites Waco North - Near University Area|Waco, TX| 168|31.58508| -97.11078|FALSE|TRUE|FALSE|TRUE
5735811|Ramada by Wyndham South Waco|Waco, TX|  97|31.45888| -97.17508|TRUE|FALSE|FALSE|TRUE
5735811|SpringHill Suites Waco Woodway|Waco, TX| 263|31.50399| -97.20075|FALSE|FALSE|TRUE|TRUE
5735812|Drury Plaza Hotel Columbia East|Columbia, MO| 144|38.96065| -92.28959|FALSE|FALSE|TRUE|TRUE
5735812|Comfort Suites Columbia - University Area|Columbia, MO| 124|38.96602| -92.35411|TRUE|TRUE|FALSE|TRUE
5735812|Wingate by Wyndham - Columbia|Columbia, MO| 128|38.95827| -92.29132|TRUE|TRUE|FALSE|TRUE
5735812|Staybridge Suites Columbia, an IHG Hotel|Columbia, MO| 149|38.95885| -92.29115|FALSE|TRUE|TRUE|TRUE
5735812|Holiday Inn Columbia East, an IHG Hotel|Columbia, MO| 137|38.95811| -92.25256|FALSE|FALSE|TRUE|TRUE
5735812|La Quinta Inn & Suites by Wyndham Columbia|Columbia, MO|  76|38.96803| -92.37609|TRUE|FALSE|FALSE|TRUE
5735812|Hampton Inn Columbia|Columbia, MO| 135|38.96294| -92.28750|FALSE|FALSE|TRUE|TRUE
5735812|Ramada by Wyndham Columbia|Columbia, MO|  95|38.96032| -92.29371|TRUE|TRUE|FALSE|TRUE
5735812|Candlewood Suites Columbia East, an IHG Hotel|Columbia, MO| 128|38.96531| -92.28666|TRUE|FALSE|FALSE|TRUE
5735812|TownePlace Suites by Marriott Columbia|Columbia, MO| 178|38.90058| -92.28693|FALSE|FALSE|TRUE|TRUE
5735812|Stoney Creek Hotel Columbia|Columbia, MO| 139|38.92172| -92.33819|FALSE|TRUE|TRUE|TRUE
5735812|Holiday Inn Executive Center-Columbia Mall, an IHG Hotel|Columbia, MO| 123|38.96700| -92.37362|TRUE|FALSE|FALSE|TRUE
5735812|Red Roof Inn Columbia, MO|Columbia, MO|  64|38.97044| -92.33521|TRUE|TRUE|FALSE|TRUE
5735812|Hilton Garden Inn Columbia|Columbia, MO| 115|38.97470| -92.28922|TRUE|FALSE|FALSE|TRUE
5735812|Residence Inn by Marriott Columbia|Columbia, MO| 177|38.96227| -92.28418|FALSE|FALSE|TRUE|TRUE
5735812|SpringHill Suites by Marriott Columbia|Columbia, MO| 165|38.96508| -92.28535|FALSE|FALSE|TRUE|TRUE
5735812|voco The Tiger Hotel, an IHG Hotel|Columbia, MO| 229|38.95087| -92.32880|FALSE|TRUE|TRUE|TRUE
5735812|Extended Stay America Suites Columbia Stadium Blvd|Columbia, MO|  86|38.93925| -92.35196|TRUE|TRUE|FALSE|TRUE
5735812|Courtyard by Marriott Columbia Missouri|Columbia, MO| 163|38.91432| -92.29258|FALSE|TRUE|TRUE|TRUE
5735812|Super 8 by Wyndham Columbia East|Columbia, MO|  89|38.96089| -92.25079|TRUE|FALSE|FALSE|TRUE
5735812|Country Inn & Suites by Radisson, Columbia, MO|Columbia, MO| 112|38.95968| -92.28967|TRUE|TRUE|FALSE|TRUE
5735815|Quality Inn & Suites|Manhattan, KS| 109|39.18052| -96.55399|TRUE|TRUE|TRUE|TRUE
5735815|Super 8 by Wyndham Manhattan KS|Manhattan, KS|  83|39.18120| -96.55578|TRUE|TRUE|TRUE|TRUE
5735815|Hilton Garden Inn Manhattan|Manhattan, KS| 178|39.17522| -96.56066|TRUE|TRUE|TRUE|TRUE
5735815|Holiday Inn Manhattan at the Campus, an IHG Hotel|Manhattan, KS| 208|39.18551| -96.58258|TRUE|TRUE|TRUE|TRUE
5735815|Four Points by Sheraton Manhattan|Manhattan, KS| 128|39.17028| -96.59746|TRUE|TRUE|TRUE|TRUE
5735815|Courtyard by Marriott Manhattan Aggieville|Manhattan, KS| 146|39.18634| -96.57501|TRUE|TRUE|TRUE|TRUE
5735815|Parkwood Inn & Suites|Manhattan, KS| 123|39.17513| -96.58270|TRUE|TRUE|TRUE|TRUE
5735815|Comfort Suites Manhattan|Manhattan, KS| 159|39.19068| -96.55642|TRUE|TRUE|TRUE|TRUE
5735815|The Bluemont Hotel|Manhattan, KS| 171|39.18713| -96.57578|TRUE|TRUE|TRUE|TRUE
5735815|Best Western Manhattan Inn|Manhattan, KS| 115|39.18655| -96.54925|TRUE|TRUE|TRUE|TRUE
5735816|SureStay Plus Hotel by Best Western Norman|Norman, OK|  76|35.21569| -97.48871|TRUE|TRUE|TRUE|TRUE
5735816|Embassy Suites by Hilton Norman Hotel & Conference Center|Norman, OK| 145|35.24348| -97.47864|TRUE|TRUE|TRUE|TRUE
5735816|Courtyard by Marriott Norman|Norman, OK| 115|35.22802| -97.48761|TRUE|TRUE|TRUE|TRUE
5735816|Fairfield Inn & Suites Norman|Norman, OK| 105|35.21614| -97.48856|TRUE|TRUE|TRUE|TRUE
5735816|Super 8 by Wyndham Norman|Norman, OK|  75|35.21752| -97.48221|TRUE|TRUE|TRUE|TRUE
5735816|The Whispering Pines Inn Bed & Breakfast|Norman, OK| 156|35.18784| -97.32579|FALSE|TRUE|TRUE|TRUE
5735816|Hilton Garden Inn Norman|Norman, OK| 115|35.22621| -97.48796|TRUE|TRUE|TRUE|TRUE
5735816|Extended Stay America Select Suites - Oklahoma City - Norman|Norman, OK|  86|35.28389| -97.48361|TRUE|FALSE|TRUE|TRUE
5735816|Americas Best Value Inn Norman at Univ of Oklahoma|Norman, OK|  74|35.21756| -97.48158|TRUE|TRUE|FALSE|TRUE
5735816|Stone Hill Norman, Trademark Collection by Wyndham|Norman, OK| 132|35.25714| -97.48725|TRUE|TRUE|TRUE|TRUE
5735816|NCED Conference Center & Hotel|Norman, OK| 153|35.19124| -97.39799|TRUE|TRUE|TRUE|TRUE
5735819|Residence Inn by Marriott Stillwater|Stillwater, OK| 144|36.11253| -97.11693|TRUE|TRUE|TRUE|TRUE
5735819|Best Western Plus Cimarron Hotel & Suites|Stillwater, OK| 127|36.12580| -97.06004|TRUE|TRUE|TRUE|TRUE
5735819|Microtel Inn & Suites by Wyndham Stillwater|Stillwater, OK|  78|36.12557| -97.05305|TRUE|TRUE|TRUE|TRUE
5735819|Holiday Inn Stillwater - University West, an IHG Hotel|Stillwater, OK| 127|36.11363| -97.12223|TRUE|TRUE|TRUE|TRUE
5735819|The Atherton Hotel At OSU|Stillwater, OK| 230|36.12045| -97.06880|TRUE|TRUE|TRUE|TRUE
5735819|Hampton Inn & Suites Stillwater|Stillwater, OK|  98|36.11461| -97.12177|TRUE|TRUE|TRUE|TRUE
5735819|SpringHill Suites by Marriott Stillwater|Stillwater, OK| 127|36.11909| -97.11713|TRUE|TRUE|TRUE|TRUE
5735819|Home2 Suites by Hilton Stillwater|Stillwater, OK| 108|36.12741| -97.05581|TRUE|TRUE|TRUE|TRUE
5735819|Americas Best Value Inn Stillwater|Stillwater, OK|  49|36.11700| -97.12849|TRUE|TRUE|TRUE|TRUE
5735819|Executive Inn Stillwater|Stillwater, OK|  62|36.11739| -97.12639|TRUE|TRUE|TRUE|TRUE
5735821|Hilton Garden Inn Starkville|Starkville, MS| 155|33.48105| -88.79710|TRUE|TRUE|TRUE|TRUE
5735821|Hotel Chester|Starkville, MS| 125|33.46408| -88.81416|TRUE|TRUE|TRUE|TRUE
5735821|Hampton Inn Starkville|Starkville, MS| 165|33.45375| -88.80542|TRUE|TRUE|TRUE|TRUE
5735821|Courtyard Starkville MSU at The Mill Conference Center|Starkville, MS| 266|33.45666| -88.80229|TRUE|TRUE|TRUE|TRUE
5735821|Comfort Suites Starkville|Starkville, MS| 148|33.45860| -88.80038|TRUE|TRUE|TRUE|TRUE
5735822|Graduate Knoxville|Knoxville, TN| 374|35.95563| -83.93261|FALSE|TRUE|TRUE|TRUE
5735822|Microtel Inn by Wyndham Knoxville|Knoxville, TN|  70|35.91442| -84.09075|TRUE|FALSE|FALSE|TRUE
5735822|La Quinta Inn & Suites by Wyndham Knoxville Papermill|Knoxville, TN| 119|35.94583| -84.00054|FALSE|TRUE|FALSE|TRUE
5735822|Ancient Lore Village|Knoxville, TN| 410|35.91900| -83.84187|FALSE|FALSE|TRUE|TRUE
5735822|USA Inn|Knoxville, TN|  67|35.82326| -83.97602|TRUE|FALSE|FALSE|TRUE
5735822|Hilton Knoxville|Knoxville, TN| 181|35.96257| -83.92007|FALSE|TRUE|TRUE|TRUE
5735822|MainStay Suites Knoxville North I-75|Knoxville, TN|  99|36.00991| -83.96933|TRUE|TRUE|FALSE|TRUE
5735822|Days Inn by Wyndham Knoxville East|Knoxville, TN|  99|36.01047| -83.84407|TRUE|FALSE|FALSE|TRUE
5735822|Rodeway Inn|Knoxville, TN|  70|36.00621| -83.77502|TRUE|FALSE|FALSE|TRUE
5735822|OYO Hotel Knoxville TN Cedar Bluff I-40|Knoxville, TN|  70|35.92047| -84.09378|TRUE|FALSE|FALSE|TRUE
5735822|Courtyard by Marriott Knoxville Downtown|Knoxville, TN| 189|35.96333| -83.91621|FALSE|TRUE|TRUE|TRUE
5735822|Holiday Inn Knoxville N - Merchant Drive, an IHG Hotel|Knoxville, TN| 132|36.01197| -83.97704|FALSE|FALSE|TRUE|TRUE
5735822|Red Roof Inn Knoxville Central - Papermill Road|Knoxville, TN|  87|35.94602| -84.00024|TRUE|TRUE|FALSE|TRUE
5735822|Best Western Knoxville Suites - Downtown|Knoxville, TN| 127|36.01395| -83.96945|FALSE|FALSE|TRUE|TRUE
5735822|Marriott Knoxville Downtown|Knoxville, TN| 189|35.96270| -83.92267|FALSE|TRUE|TRUE|TRUE
5735822|Hampton Inn Knoxville - Airport|Knoxville, TN|  97|35.81538| -83.97977|TRUE|FALSE|FALSE|TRUE
5735822|Super 8 by Wyndham Knoxville Downtown Area|Knoxville, TN|  66|36.00870| -83.97670|TRUE|TRUE|FALSE|TRUE
5735822|Baymont by Wyndham Knoxville I-75|Knoxville, TN|  98|36.02673| -83.99088|TRUE|FALSE|FALSE|TRUE
5735822|Crowne Plaza Hotel Knoxville Downtown University, an IHG Hotel|Knoxville, TN| 210|35.96729| -83.92058|FALSE|TRUE|TRUE|TRUE
5735822|Hyatt Place Knoxville Downtown|Knoxville, TN| 222|35.96449| -83.91764|FALSE|TRUE|TRUE|TRUE
5735822|Tru by Hilton Knoxville North I75|Knoxville, TN| 135|36.01561| -83.97078|FALSE|FALSE|TRUE|TRUE
5735822|Quality Inn Merchants Drive|Knoxville, TN|  84|36.01350| -83.97058|TRUE|FALSE|FALSE|TRUE
5735825|Courtyard by Marriott Baton Rouge Downtown|Baton Rouge, LA| 177|30.44916| -91.18783|FALSE|TRUE|TRUE|TRUE
5735825|Sonesta ES Suites Baton Rouge University at Southgate|Baton Rouge, LA| 145|30.40017| -91.17942|FALSE|TRUE|TRUE|TRUE
5735825|Econo Lodge Baton Rouge University Area|Baton Rouge, LA|  85|30.41953| -91.13766|FALSE|TRUE|FALSE|TRUE
5735825|Quality Inn Baton Rouge East I-12|Baton Rouge, LA|  71|30.42678| -91.07831|TRUE|FALSE|FALSE|TRUE
5735825|DoubleTree by Hilton Hotel Baton Rouge|Baton Rouge, LA| 137|30.42150| -91.13151|FALSE|FALSE|TRUE|TRUE
5735825|Renaissance Baton Rouge Hotel|Baton Rouge, LA| 605|30.38706| -91.09477|FALSE|FALSE|TRUE|TRUE
5735825|FairBridge Inn Express Baton Rouge|Baton Rouge, LA|  58|30.43100| -91.05860|TRUE|FALSE|FALSE|TRUE
5735825|OYO Hotel Port Allen LA|Baton Rouge, LA|  58|30.42500| -91.21572|TRUE|TRUE|FALSE|TRUE
5735825|WoodSpring Suites Baton Rouge East I-12|Baton Rouge, LA|  73|30.43169| -91.05343|TRUE|FALSE|FALSE|TRUE
5735825|Audubon Inn|Baton Rouge, LA|  59|30.44550| -91.24499|TRUE|FALSE|FALSE|TRUE
5735825|OYO Hotel Baton Rouge East I-12|Baton Rouge, LA|  58|30.42815| -91.07616|TRUE|FALSE|FALSE|TRUE
5735825|Embassy Suites Hotel Baton Rouge|Baton Rouge, LA| 167|30.42102| -91.13313|FALSE|TRUE|TRUE|TRUE
5735825|The Cook Hotel & Conference Center|Baton Rouge, LA| 173|30.41351| -91.16985|FALSE|TRUE|TRUE|TRUE
5735825|Comfort Inn University Area|Baton Rouge, LA| 118|30.42144| -91.13230|FALSE|TRUE|FALSE|TRUE
5735825|Crowne Plaza Baton Rouge, an IHG Hotel|Baton Rouge, LA| 171|30.42128| -91.13613|FALSE|TRUE|TRUE|TRUE
5735825|Quality Inn & Suites Baton Rouge West – Port Allen|Baton Rouge, LA|  57|30.45058| -91.24385|TRUE|FALSE|FALSE|TRUE
5735825|Courtyard by Marriott Baton Rouge Acadian Centre/LSU Area|Baton Rouge, LA| 140|30.42312| -91.14982|FALSE|TRUE|TRUE|TRUE
5735825|OYO Hotel Baton Rouge Mid City|Baton Rouge, LA|  65|30.42707| -91.07601|TRUE|FALSE|FALSE|TRUE
5735825|Hilton Baton Rouge Capitol Center|Baton Rouge, LA| 174|30.44874| -91.18973|FALSE|TRUE|TRUE|TRUE
5735825|Red Roof Inn Port Allen|Baton Rouge, LA|  62|30.44880| -91.24538|TRUE|FALSE|FALSE|TRUE
5735825|Marriott Baton Rouge|Baton Rouge, LA| 176|30.38026| -91.06476|FALSE|FALSE|TRUE|TRUE
5735825|OYO Hotel Baton Rouge - Mead Rd|Baton Rouge, LA|  54|30.42747| -91.05926|TRUE|FALSE|FALSE|TRUE
5735826|Hotel Morgan a Wyndham Hotel|Morgantown, WV| 180|39.62843| -79.95759|FALSE|FALSE|TRUE|TRUE
5735826|Hilton Garden Inn Morgantown|Morgantown, WV| 150|39.65385| -79.94443|FALSE|FALSE|TRUE|TRUE
5735826|Suburban Studios|Morgantown, WV|  96|39.62797| -79.92684|TRUE|FALSE|FALSE|TRUE
5735826|Hampton Inn Morgantown|Morgantown, WV| 146|39.65351| -79.96428|FALSE|TRUE|TRUE|TRUE
5735826|Morgantown Marriott at Waterfront Place|Morgantown, WV| 225|39.62397| -79.96379|FALSE|FALSE|TRUE|TRUE
5735826|Quality Inn|Morgantown, WV|  95|39.58631| -79.95282|TRUE|FALSE|FALSE|TRUE
5735826|Holiday Inn Morgantown - University Area, an IHG Hotel|Morgantown, WV| 146|39.65920| -79.95375|FALSE|TRUE|TRUE|TRUE
5735826|Super 8 by Wyndham Morgantown|Morgantown, WV|  85|39.64894| -79.89710|TRUE|FALSE|FALSE|TRUE
5735826|Candlewood Suites Morgantown-Univ West Virginia, an IHG Hotel|Morgantown, WV| 117|39.65852| -80.01466|TRUE|FALSE|FALSE|TRUE
5735826|Econo Lodge|Morgantown, WV|  53|39.65574| -79.98542|TRUE|TRUE|FALSE|TRUE
5735826|Lakeview Golf Resort, Trademark Collection by Wyndham|Morgantown, WV|  85|39.66646| -79.85385|TRUE|FALSE|FALSE|TRUE
5735826|Residence Inn by Marriott Morgantown Medical Center Area|Morgantown, WV| 166|39.65378| -79.95244|FALSE|TRUE|TRUE|TRUE
5735826|Euro Suites Hotel|Morgantown, WV| 123|39.65841| -79.96225|TRUE|TRUE|FALSE|TRUE
5735826|Scholar Morgantown, Tapestry Collection by Hilton|Morgantown, WV| 191|39.63104| -79.95635|FALSE|TRUE|TRUE|TRUE
5735826|The Cranberry, Ascend Hotel Collection|Morgantown, WV| 167|39.67114| -79.85656|FALSE|FALSE|TRUE|TRUE
5735826|Courtyard Morgantown|Morgantown, WV| 212|39.64540| -79.99448|FALSE|TRUE|TRUE|TRUE
5735826|Fairfield Inn & Suites by Marriott Morgantown|Morgantown, WV| 133|39.65333| -80.00727|FALSE|TRUE|TRUE|TRUE
5735826|Springhill Suites by Marriott Morgantown|Morgantown, WV| 118|39.61881| -79.92391|TRUE|FALSE|FALSE|TRUE
5735826|Hotel M Morgantown - WVU Area|Morgantown, WV|  55|39.65435| -79.98575|TRUE|TRUE|FALSE|TRUE
5735826|SureStay Plus Hotel by Best Western Morgantown|Morgantown, WV| 104|39.62673| -79.99184|TRUE|TRUE|FALSE|TRUE
5739593|DoubleTree by Hilton Hotel Newark Airport|Newark, NJ| 214|40.71284| -74.16429|FALSE|TRUE|FALSE|TRUE
5739593|Equinox Hotel New York|Newark, NJ| 773|40.75465| -74.00221|FALSE|FALSE|TRUE|TRUE
5739593|Pendry Manhattan West|Newark, NJ| 779|40.75339| -73.99859|FALSE|FALSE|TRUE|TRUE
5739593|Hotel Barriere Fouquets New York|Newark, NJ| 896|40.72362| -74.00975|FALSE|FALSE|TRUE|TRUE
5739593|St Marks Hotel|Newark, NJ| 100|40.72928| -73.98965|TRUE|FALSE|FALSE|TRUE
5739593|Element Harrison - Newark, a Marriott Hotel|Newark, NJ| 185|40.74045| -74.15638|FALSE|TRUE|FALSE|TRUE
5739593|Americana Inn|Newark, NJ| 117|40.75229| -73.98555|TRUE|FALSE|FALSE|TRUE
5739593|Four Seasons Hotel New York Downtown|Newark, NJ| 835|40.71263| -74.00919|FALSE|FALSE|TRUE|TRUE
5739593|Midtown Convention Center Hotel|Newark, NJ| 115|40.75746| -73.99860|TRUE|FALSE|FALSE|TRUE
5739593|Casa Cipriani New York|Newark, NJ| 864|40.70110| -74.01188|FALSE|FALSE|TRUE|TRUE
5739593|Courtyard by Marriott Newark Downtown|Newark, NJ| 165|40.73352| -74.17293|FALSE|TRUE|FALSE|TRUE
5739593|Extended Stay America Suites Elizabeth Newark Airport|Newark, NJ| 111|40.66395| -74.17663|TRUE|FALSE|FALSE|TRUE
5739593|Days Inn by Wyndham Jersey City / NYC Area|Newark, NJ| 109|40.75580| -74.05475|TRUE|FALSE|FALSE|TRUE
5739593|The Dominick|Newark, NJ| 543|40.72547| -74.00533|FALSE|FALSE|TRUE|TRUE
5739593|Howard Johnson by Wyndham North Bergen|Newark, NJ| 105|40.76433| -74.04720|TRUE|FALSE|FALSE|TRUE
5739593|Robert Treat Hotel, BW Premier Collection|Newark, NJ| 117|40.73920| -74.16831|TRUE|TRUE|FALSE|TRUE
5739593|Howard Johnson by Wyndham Clifton NJ|Newark, NJ| 116|40.83551| -74.14954|TRUE|FALSE|FALSE|TRUE
5739593|Fairfield Inn & Suites Newark Liberty International Airport|Newark, NJ| 132|40.70958| -74.17089|FALSE|TRUE|FALSE|TRUE
5739593|The Ritz-Carlton New York, NoMad|Newark, NJ| 916|40.74554| -73.98884|FALSE|FALSE|TRUE|TRUE
5739593|The Knickerbocker Hotel|Newark, NJ| 485|40.73566| -74.17237|FALSE|TRUE|FALSE|TRUE
5739593|Holiday Inn Newark International Airport, an IHG Hotel|Newark, NJ| 137|40.71291| -74.16644|FALSE|TRUE|FALSE|TRUE
5739593|The New York EDITION|Newark, NJ| 808|40.74129| -73.98736|FALSE|FALSE|TRUE|TRUE
5739593|Rodeway Inn Meadowlands|Newark, NJ|  94|40.79292| -74.05712|TRUE|FALSE|FALSE|TRUE
5739593|DoubleTree by Hilton Newark Penn Station|Newark, NJ| 175|40.73542| -74.16537|FALSE|TRUE|FALSE|TRUE
5739593|1 Hotel Brooklyn Bridge|Newark, NJ| 658|40.70241| -73.99553|FALSE|FALSE|TRUE|TRUE
5739593|Windsor Hotel|Newark, NJ| 119|40.73566| -74.17237|FALSE|TRUE|FALSE|TRUE
5739593|The Langham, New York, Fifth Avenue|Newark, NJ| 723|40.75014| -73.98353|FALSE|FALSE|TRUE|TRUE
5739593|TRYP by Wyndham Newark Downtown|Newark, NJ| 130|40.73831| -74.16799|FALSE|TRUE|FALSE|TRUE
5739593|The Jane Hotel|Newark, NJ| 114|40.73830| -74.00942|TRUE|FALSE|FALSE|TRUE
5739595|DoubleTree by Hilton Newark Penn Station|Newark, NJ| 175|40.73542| -74.16537|FALSE|TRUE|FALSE|TRUE
5739595|St Marks Hotel|Newark, NJ| 100|40.72928| -73.98965|TRUE|FALSE|FALSE|TRUE
5739595|Four Seasons Hotel New York Downtown|Newark, NJ| 835|40.71263| -74.00919|FALSE|FALSE|TRUE|TRUE
5739595|Days Inn by Wyndham Jersey City / NYC Area|Newark, NJ| 109|40.75580| -74.05475|TRUE|FALSE|FALSE|TRUE
5739595|The Dominick|Newark, NJ| 543|40.72547| -74.00533|FALSE|FALSE|TRUE|TRUE
5739595|Equinox Hotel New York|Newark, NJ| 773|40.75465| -74.00221|FALSE|FALSE|TRUE|TRUE
5739595|Howard Johnson by Wyndham Clifton NJ|Newark, NJ| 116|40.83551| -74.14954|TRUE|FALSE|FALSE|TRUE
5739595|Casa Cipriani New York|Newark, NJ| 864|40.70110| -74.01188|FALSE|FALSE|TRUE|TRUE
5739595|Windsor Hotel|Newark, NJ| 119|40.73566| -74.17237|FALSE|TRUE|FALSE|TRUE
5739595|Hotel Barriere Fouquets New York|Newark, NJ| 896|40.72362| -74.00975|FALSE|FALSE|TRUE|TRUE
5739595|The Ritz-Carlton New York, NoMad|Newark, NJ| 916|40.74554| -73.98884|FALSE|FALSE|TRUE|TRUE
5739595|Americana Inn|Newark, NJ| 117|40.75229| -73.98555|TRUE|FALSE|FALSE|TRUE
5739595|Courtyard by Marriott Newark Downtown|Newark, NJ| 165|40.73352| -74.17293|FALSE|TRUE|FALSE|TRUE
5739595|Pendry Manhattan West|Newark, NJ| 779|40.75339| -73.99859|FALSE|FALSE|TRUE|TRUE
5739595|DoubleTree by Hilton Hotel Newark Airport|Newark, NJ| 214|40.71284| -74.16429|FALSE|TRUE|FALSE|TRUE
5739595|The Knickerbocker Hotel|Newark, NJ| 485|40.73566| -74.17237|FALSE|TRUE|FALSE|TRUE
5739595|Extended Stay America Suites Elizabeth Newark Airport|Newark, NJ| 111|40.66395| -74.17663|TRUE|FALSE|FALSE|TRUE
5739595|The New York EDITION|Newark, NJ| 808|40.74129| -73.98736|FALSE|FALSE|TRUE|TRUE
5739595|Robert Treat Hotel, BW Premier Collection|Newark, NJ| 117|40.73920| -74.16831|TRUE|TRUE|FALSE|TRUE
5739595|Rodeway Inn Meadowlands|Newark, NJ|  94|40.79292| -74.05712|TRUE|FALSE|FALSE|TRUE
5739595|Howard Johnson by Wyndham North Bergen|Newark, NJ| 105|40.76433| -74.04720|TRUE|FALSE|FALSE|TRUE
5739595|Element Harrison - Newark, a Marriott Hotel|Newark, NJ| 185|40.74045| -74.15638|FALSE|TRUE|FALSE|TRUE
5739595|Midtown Convention Center Hotel|Newark, NJ| 115|40.75746| -73.99860|TRUE|FALSE|FALSE|TRUE
5739595|The Langham, New York, Fifth Avenue|Newark, NJ| 723|40.75014| -73.98353|FALSE|FALSE|TRUE|TRUE
5739595|TRYP by Wyndham Newark Downtown|Newark, NJ| 130|40.73831| -74.16799|FALSE|TRUE|FALSE|TRUE
5739595|The Jane Hotel|Newark, NJ| 114|40.73830| -74.00942|TRUE|FALSE|FALSE|TRUE
5739595|Holiday Inn Newark International Airport, an IHG Hotel|Newark, NJ| 137|40.71291| -74.16644|FALSE|TRUE|FALSE|TRUE
5739595|Fairfield Inn & Suites Newark Liberty International Airport|Newark, NJ| 132|40.70958| -74.17089|FALSE|TRUE|FALSE|TRUE
5739595|1 Hotel Brooklyn Bridge|Newark, NJ| 658|40.70241| -73.99553|FALSE|FALSE|TRUE|TRUE
5739598|Americana Inn|Newark, NJ| 117|40.75229| -73.98555|TRUE|FALSE|FALSE|TRUE
5739598|The Ritz-Carlton New York, NoMad|Newark, NJ| 916|40.74554| -73.98884|FALSE|FALSE|TRUE|TRUE
5739598|DoubleTree by Hilton Newark Penn Station|Newark, NJ| 175|40.73542| -74.16537|FALSE|TRUE|FALSE|TRUE
5739598|Casa Cipriani New York|Newark, NJ| 864|40.70110| -74.01188|FALSE|FALSE|TRUE|TRUE
5739598|Four Seasons Hotel New York Downtown|Newark, NJ| 835|40.71263| -74.00919|FALSE|FALSE|TRUE|TRUE
5739598|The Jane Hotel|Newark, NJ| 114|40.73830| -74.00942|TRUE|FALSE|FALSE|TRUE
5739598|TRYP by Wyndham Newark Downtown|Newark, NJ| 130|40.73831| -74.16799|FALSE|TRUE|FALSE|TRUE
5739598|Extended Stay America Suites Elizabeth Newark Airport|Newark, NJ| 111|40.66395| -74.17663|TRUE|FALSE|FALSE|TRUE
5739598|Windsor Hotel|Newark, NJ| 119|40.73566| -74.17237|FALSE|TRUE|FALSE|TRUE
5739598|Equinox Hotel New York|Newark, NJ| 773|40.75465| -74.00221|FALSE|FALSE|TRUE|TRUE
5739598|Howard Johnson by Wyndham Clifton NJ|Newark, NJ| 116|40.83551| -74.14954|TRUE|FALSE|FALSE|TRUE
5739598|The Langham, New York, Fifth Avenue|Newark, NJ| 723|40.75014| -73.98353|FALSE|FALSE|TRUE|TRUE
5739598|DoubleTree by Hilton Hotel Newark Airport|Newark, NJ| 214|40.71284| -74.16429|FALSE|TRUE|FALSE|TRUE
5739598|Pendry Manhattan West|Newark, NJ| 779|40.75339| -73.99859|FALSE|FALSE|TRUE|TRUE
5739598|Fairfield Inn & Suites Newark Liberty International Airport|Newark, NJ| 132|40.70958| -74.17089|FALSE|TRUE|FALSE|TRUE
5739598|Days Inn by Wyndham Jersey City / NYC Area|Newark, NJ| 109|40.75580| -74.05475|TRUE|FALSE|FALSE|TRUE
5739598|Hotel Barriere Fouquets New York|Newark, NJ| 896|40.72362| -74.00975|FALSE|FALSE|TRUE|TRUE
5739598|Courtyard by Marriott Newark Downtown|Newark, NJ| 165|40.73352| -74.17293|FALSE|TRUE|FALSE|TRUE
5739598|The Dominick|Newark, NJ| 543|40.72547| -74.00533|FALSE|FALSE|TRUE|TRUE
5739598|The New York EDITION|Newark, NJ| 808|40.74129| -73.98736|FALSE|FALSE|TRUE|TRUE
5739598|Robert Treat Hotel, BW Premier Collection|Newark, NJ| 117|40.73920| -74.16831|TRUE|TRUE|FALSE|TRUE
5739598|St Marks Hotel|Newark, NJ| 100|40.72928| -73.98965|TRUE|FALSE|FALSE|TRUE
5739598|Rodeway Inn Meadowlands|Newark, NJ|  94|40.79292| -74.05712|TRUE|FALSE|FALSE|TRUE
5739598|The Knickerbocker Hotel|Newark, NJ| 485|40.73566| -74.17237|FALSE|TRUE|FALSE|TRUE
5739598|Holiday Inn Newark International Airport, an IHG Hotel|Newark, NJ| 137|40.71291| -74.16644|FALSE|TRUE|FALSE|TRUE
5739598|1 Hotel Brooklyn Bridge|Newark, NJ| 658|40.70241| -73.99553|FALSE|FALSE|TRUE|TRUE
5739598|Element Harrison - Newark, a Marriott Hotel|Newark, NJ| 185|40.74045| -74.15638|FALSE|TRUE|FALSE|TRUE
5739598|Midtown Convention Center Hotel|Newark, NJ| 115|40.75746| -73.99860|TRUE|FALSE|FALSE|TRUE
5739598|Howard Johnson by Wyndham North Bergen|Newark, NJ| 105|40.76433| -74.04720|TRUE|FALSE|FALSE|TRUE
5739599|Four Seasons Hotel New York Downtown|Newark, NJ| 835|40.71263| -74.00919|FALSE|FALSE|TRUE|TRUE
5739599|Midtown Convention Center Hotel|Newark, NJ| 115|40.75746| -73.99860|TRUE|FALSE|FALSE|TRUE
5739599|Courtyard by Marriott Newark Downtown|Newark, NJ| 165|40.73352| -74.17293|FALSE|TRUE|FALSE|TRUE
5739599|The Dominick|Newark, NJ| 543|40.72547| -74.00533|FALSE|FALSE|TRUE|TRUE
5739599|DoubleTree by Hilton Newark Penn Station|Newark, NJ| 175|40.73542| -74.16537|FALSE|TRUE|FALSE|TRUE
5739599|Fairfield Inn & Suites Newark Liberty International Airport|Newark, NJ| 132|40.70958| -74.17089|FALSE|TRUE|FALSE|TRUE
5739599|Rodeway Inn Meadowlands|Newark, NJ|  94|40.79292| -74.05712|TRUE|FALSE|FALSE|TRUE
5739599|Days Inn by Wyndham Jersey City / NYC Area|Newark, NJ| 109|40.75580| -74.05475|TRUE|FALSE|FALSE|TRUE
5739599|Americana Inn|Newark, NJ| 117|40.75229| -73.98555|TRUE|FALSE|FALSE|TRUE
5739599|Pendry Manhattan West|Newark, NJ| 779|40.75339| -73.99859|FALSE|FALSE|TRUE|TRUE
5739599|Howard Johnson by Wyndham Clifton NJ|Newark, NJ| 116|40.83551| -74.14954|TRUE|FALSE|FALSE|TRUE
5739599|Extended Stay America Suites Elizabeth Newark Airport|Newark, NJ| 111|40.66395| -74.17663|TRUE|FALSE|FALSE|TRUE
5739599|The Langham, New York, Fifth Avenue|Newark, NJ| 723|40.75014| -73.98353|FALSE|FALSE|TRUE|TRUE
5739599|Howard Johnson by Wyndham North Bergen|Newark, NJ| 105|40.76433| -74.04720|TRUE|FALSE|FALSE|TRUE
5739599|Casa Cipriani New York|Newark, NJ| 864|40.70110| -74.01188|FALSE|FALSE|TRUE|TRUE
5739599|St Marks Hotel|Newark, NJ| 100|40.72928| -73.98965|TRUE|FALSE|FALSE|TRUE
5739599|Holiday Inn Newark International Airport, an IHG Hotel|Newark, NJ| 137|40.71291| -74.16644|FALSE|TRUE|FALSE|TRUE
5739599|The Ritz-Carlton New York, NoMad|Newark, NJ| 916|40.74554| -73.98884|FALSE|FALSE|TRUE|TRUE
5739599|Equinox Hotel New York|Newark, NJ| 773|40.75465| -74.00221|FALSE|FALSE|TRUE|TRUE
5739599|Hotel Barriere Fouquets New York|Newark, NJ| 896|40.72362| -74.00975|FALSE|FALSE|TRUE|TRUE
5739599|1 Hotel Brooklyn Bridge|Newark, NJ| 658|40.70241| -73.99553|FALSE|FALSE|TRUE|TRUE
5739599|The Knickerbocker Hotel|Newark, NJ| 485|40.73566| -74.17237|FALSE|TRUE|FALSE|TRUE
5739599|The New York EDITION|Newark, NJ| 808|40.74129| -73.98736|FALSE|FALSE|TRUE|TRUE
5739599|Windsor Hotel|Newark, NJ| 119|40.73566| -74.17237|FALSE|TRUE|FALSE|TRUE
5739599|DoubleTree by Hilton Hotel Newark Airport|Newark, NJ| 214|40.71284| -74.16429|FALSE|TRUE|FALSE|TRUE
5739599|The Jane Hotel|Newark, NJ| 114|40.73830| -74.00942|TRUE|FALSE|FALSE|TRUE
5739599|Robert Treat Hotel, BW Premier Collection|Newark, NJ| 117|40.73920| -74.16831|TRUE|TRUE|FALSE|TRUE
5739599|TRYP by Wyndham Newark Downtown|Newark, NJ| 130|40.73831| -74.16799|FALSE|TRUE|FALSE|TRUE
5739599|Element Harrison - Newark, a Marriott Hotel|Newark, NJ| 185|40.74045| -74.15638|FALSE|TRUE|FALSE|TRUE
5739602|Hotel Barriere Fouquets New York|Newark, NJ| 896|40.72362| -74.00975|FALSE|FALSE|TRUE|TRUE
5739602|Days Inn by Wyndham Jersey City / NYC Area|Newark, NJ| 109|40.75580| -74.05475|TRUE|FALSE|FALSE|TRUE
5739602|The Langham, New York, Fifth Avenue|Newark, NJ| 723|40.75014| -73.98353|FALSE|FALSE|TRUE|TRUE
5739602|Rodeway Inn Meadowlands|Newark, NJ|  94|40.79292| -74.05712|TRUE|FALSE|FALSE|TRUE
5739602|Americana Inn|Newark, NJ| 117|40.75229| -73.98555|TRUE|FALSE|FALSE|TRUE
5739602|Howard Johnson by Wyndham Clifton NJ|Newark, NJ| 116|40.83551| -74.14954|TRUE|FALSE|FALSE|TRUE
5739602|DoubleTree by Hilton Newark Penn Station|Newark, NJ| 175|40.73542| -74.16537|FALSE|TRUE|FALSE|TRUE
5739602|Element Harrison - Newark, a Marriott Hotel|Newark, NJ| 185|40.74045| -74.15638|FALSE|TRUE|FALSE|TRUE
5739602|DoubleTree by Hilton Hotel Newark Airport|Newark, NJ| 214|40.71284| -74.16429|FALSE|TRUE|FALSE|TRUE
5739602|Pendry Manhattan West|Newark, NJ| 779|40.75339| -73.99859|FALSE|FALSE|TRUE|TRUE
5739602|Four Seasons Hotel New York Downtown|Newark, NJ| 835|40.71263| -74.00919|FALSE|FALSE|TRUE|TRUE
5739602|Howard Johnson by Wyndham North Bergen|Newark, NJ| 105|40.76433| -74.04720|TRUE|FALSE|FALSE|TRUE
5739602|The Knickerbocker Hotel|Newark, NJ| 485|40.73566| -74.17237|FALSE|TRUE|FALSE|TRUE
5739602|The Dominick|Newark, NJ| 543|40.72547| -74.00533|FALSE|FALSE|TRUE|TRUE
5739602|Casa Cipriani New York|Newark, NJ| 864|40.70110| -74.01188|FALSE|FALSE|TRUE|TRUE
5739602|Windsor Hotel|Newark, NJ| 119|40.73566| -74.17237|FALSE|TRUE|FALSE|TRUE
5739602|Holiday Inn Newark International Airport, an IHG Hotel|Newark, NJ| 137|40.71291| -74.16644|FALSE|TRUE|FALSE|TRUE
5739602|Extended Stay America Suites Elizabeth Newark Airport|Newark, NJ| 111|40.66395| -74.17663|TRUE|FALSE|FALSE|TRUE
5739602|St Marks Hotel|Newark, NJ| 100|40.72928| -73.98965|TRUE|FALSE|FALSE|TRUE
5739602|The Ritz-Carlton New York, NoMad|Newark, NJ| 916|40.74554| -73.98884|FALSE|FALSE|TRUE|TRUE
5739602|Fairfield Inn & Suites Newark Liberty International Airport|Newark, NJ| 132|40.70958| -74.17089|FALSE|TRUE|FALSE|TRUE
5739602|The New York EDITION|Newark, NJ| 808|40.74129| -73.98736|FALSE|FALSE|TRUE|TRUE
5739602|Equinox Hotel New York|Newark, NJ| 773|40.75465| -74.00221|FALSE|FALSE|TRUE|TRUE
5739602|Courtyard by Marriott Newark Downtown|Newark, NJ| 165|40.73352| -74.17293|FALSE|TRUE|FALSE|TRUE
5739602|Midtown Convention Center Hotel|Newark, NJ| 115|40.75746| -73.99860|TRUE|FALSE|FALSE|TRUE
5739602|1 Hotel Brooklyn Bridge|Newark, NJ| 658|40.70241| -73.99553|FALSE|FALSE|TRUE|TRUE
5739602|TRYP by Wyndham Newark Downtown|Newark, NJ| 130|40.73831| -74.16799|FALSE|TRUE|FALSE|TRUE
5739602|Robert Treat Hotel, BW Premier Collection|Newark, NJ| 117|40.73920| -74.16831|TRUE|TRUE|FALSE|TRUE
5739602|The Jane Hotel|Newark, NJ| 114|40.73830| -74.00942|TRUE|FALSE|FALSE|TRUE
5739778|Extended Stay America Suites - Boston - Saugus|Boston, MA| 111|42.46514| -71.01105|TRUE|FALSE|FALSE|TRUE
5739778|Fairmont Copley Plaza, Boston|Boston, MA| 395|42.34906| -71.07618|FALSE|FALSE|TRUE|TRUE
5739778|Mandarin Oriental Boston|Boston, MA| 751|42.34869| -71.08160|FALSE|FALSE|TRUE|TRUE
5739778|The Whitney Hotel|Boston, MA| 385|42.36064| -71.07107|FALSE|TRUE|FALSE|TRUE
5739778|Harborside Inn Of Boston|Boston, MA| 185|42.35927| -71.05283|FALSE|TRUE|FALSE|TRUE
5739778|The Bostonian Boston|Boston, MA| 189|42.36106| -71.05591|FALSE|TRUE|FALSE|TRUE
5739778|Courtyard by Marriott Woburn/Boston North|Boston, MA| 113|42.48808| -71.11657|TRUE|FALSE|FALSE|TRUE
5739778|Residence Inn by Marriott Boston Harbor on Tudor Wharf|Boston, MA| 165|42.37047| -71.06037|FALSE|TRUE|FALSE|TRUE
5739778|Four Points by Sheraton Boston Logan Airport Revere|Boston, MA| 106|42.42940| -71.01504|TRUE|FALSE|FALSE|TRUE
5739778|The Verb Hotel|Boston, MA| 484|42.34534| -71.09678|FALSE|FALSE|TRUE|TRUE
5739778|The Langham, Boston|Boston, MA| 519|42.35648| -71.05450|FALSE|FALSE|TRUE|TRUE
5739778|citizenM Boston North Station|Boston, MA| 162|42.36556| -71.06185|FALSE|TRUE|FALSE|TRUE
5739778|Best Western Plus New Englander|Boston, MA| 110|42.48082| -71.11883|TRUE|FALSE|FALSE|TRUE
5739778|Hampton Inn Boston Logan Airport Chelsea|Boston, MA| 106|42.39411| -71.04454|TRUE|FALSE|FALSE|TRUE
5739778|The Farrington Inn|Boston, MA| 104|42.35426| -71.13089|TRUE|FALSE|FALSE|TRUE
5739778|The Newbury Boston|Boston, MA| 660|42.35293| -71.07149|FALSE|FALSE|TRUE|TRUE
5739778|The Boxer|Boston, MA| 172|42.36388| -71.06252|FALSE|TRUE|FALSE|TRUE
5739778|Hampton Inn Boston - Logan Airport|Boston, MA| 118|42.40126| -71.00636|TRUE|FALSE|FALSE|TRUE
5739778|Howard Johnson by Wyndham Quincy/Boston|Boston, MA| 118|42.26248| -71.01213|TRUE|FALSE|FALSE|TRUE
5739778|Four Points by Sheraton Boston Newton|Boston, MA| 111|42.35677| -71.18701|TRUE|FALSE|FALSE|TRUE
5739778|Onyx Boston Downtown|Boston, MA| 150|42.36420| -71.06145|FALSE|TRUE|FALSE|TRUE
5739778|DoubleTree by Hilton Hotel Boston Bayside|Boston, MA| 103|42.32028| -71.04789|TRUE|FALSE|FALSE|TRUE
5739778|Boston Omni Parker House Hotel|Boston, MA| 204|42.35776| -71.06011|FALSE|TRUE|FALSE|TRUE
5739778|XV Beacon|Boston, MA| 576|42.35832| -71.06193|FALSE|TRUE|TRUE|TRUE
5739778|The Ritz-Carlton, Boston|Boston, MA| 751|42.35317| -71.06369|FALSE|FALSE|TRUE|TRUE
5739778|Four Seasons Hotel One Dalton Street, Boston|Boston, MA| 757|42.34571| -71.08394|FALSE|FALSE|TRUE|TRUE
5739778|Comfort Inn Woburn - Boston|Boston, MA|  94|42.47895| -71.11530|TRUE|FALSE|FALSE|TRUE
5739778|The Charles Hotel|Boston, MA| 416|42.37229| -71.12298|FALSE|FALSE|TRUE|TRUE
5739778|Boston Harbor Hotel|Boston, MA| 664|42.35666| -71.05032|FALSE|FALSE|TRUE|TRUE
5739778|Courtyard by Marriott Boston Downtown/North Station|Boston, MA| 167|42.36587| -71.05964|FALSE|TRUE|FALSE|TRUE
5739782|citizenM Boston North Station|Boston, MA| 162|42.36556| -71.06185|FALSE|TRUE|FALSE|TRUE
5739782|Howard Johnson by Wyndham Quincy/Boston|Boston, MA| 118|42.26248| -71.01213|TRUE|FALSE|FALSE|TRUE
5739782|The Ritz-Carlton, Boston|Boston, MA| 751|42.35317| -71.06369|FALSE|FALSE|TRUE|TRUE
5739782|Harborside Inn Of Boston|Boston, MA| 185|42.35927| -71.05283|FALSE|TRUE|FALSE|TRUE
5739782|The Boxer|Boston, MA| 172|42.36388| -71.06252|FALSE|TRUE|FALSE|TRUE
5739782|Boston Harbor Hotel|Boston, MA| 664|42.35666| -71.05032|FALSE|FALSE|TRUE|TRUE
5739782|Fairmont Copley Plaza, Boston|Boston, MA| 395|42.34906| -71.07618|FALSE|FALSE|TRUE|TRUE
5739782|Best Western Plus New Englander|Boston, MA| 110|42.48082| -71.11883|TRUE|FALSE|FALSE|TRUE
5739782|The Whitney Hotel|Boston, MA| 385|42.36064| -71.07107|FALSE|TRUE|FALSE|TRUE
5739782|DoubleTree by Hilton Hotel Boston Bayside|Boston, MA| 103|42.32028| -71.04789|TRUE|FALSE|FALSE|TRUE
5739782|The Newbury Boston|Boston, MA| 660|42.35293| -71.07149|FALSE|FALSE|TRUE|TRUE
5739782|Boston Omni Parker House Hotel|Boston, MA| 204|42.35776| -71.06011|FALSE|TRUE|FALSE|TRUE
5739782|Comfort Inn Woburn - Boston|Boston, MA|  94|42.47895| -71.11530|TRUE|FALSE|FALSE|TRUE
5739782|The Verb Hotel|Boston, MA| 484|42.34534| -71.09678|FALSE|FALSE|TRUE|TRUE
5739782|Four Points by Sheraton Boston Newton|Boston, MA| 111|42.35677| -71.18701|TRUE|FALSE|FALSE|TRUE
5739782|Four Seasons Hotel One Dalton Street, Boston|Boston, MA| 757|42.34571| -71.08394|FALSE|FALSE|TRUE|TRUE
5739782|The Farrington Inn|Boston, MA| 104|42.35426| -71.13089|TRUE|FALSE|FALSE|TRUE
5739782|The Langham, Boston|Boston, MA| 519|42.35648| -71.05450|FALSE|FALSE|TRUE|TRUE
5739782|Onyx Boston Downtown|Boston, MA| 150|42.36420| -71.06145|FALSE|TRUE|FALSE|TRUE
5739782|Four Points by Sheraton Boston Logan Airport Revere|Boston, MA| 106|42.42940| -71.01504|TRUE|FALSE|FALSE|TRUE
5739782|Courtyard by Marriott Woburn/Boston North|Boston, MA| 113|42.48808| -71.11657|TRUE|FALSE|FALSE|TRUE
5739782|The Charles Hotel|Boston, MA| 416|42.37229| -71.12298|FALSE|FALSE|TRUE|TRUE
5739782|The Bostonian Boston|Boston, MA| 189|42.36106| -71.05591|FALSE|TRUE|FALSE|TRUE
5739782|Mandarin Oriental Boston|Boston, MA| 751|42.34869| -71.08160|FALSE|FALSE|TRUE|TRUE
5739782|Residence Inn by Marriott Boston Harbor on Tudor Wharf|Boston, MA| 165|42.37047| -71.06037|FALSE|TRUE|FALSE|TRUE
5739782|Hampton Inn Boston - Logan Airport|Boston, MA| 118|42.40126| -71.00636|TRUE|FALSE|FALSE|TRUE
5739782|Hampton Inn Boston Logan Airport Chelsea|Boston, MA| 106|42.39411| -71.04454|TRUE|FALSE|FALSE|TRUE
5739782|Courtyard by Marriott Boston Downtown/North Station|Boston, MA| 167|42.36587| -71.05964|FALSE|TRUE|FALSE|TRUE
5739782|XV Beacon|Boston, MA| 576|42.35832| -71.06193|FALSE|TRUE|TRUE|TRUE
5739782|Extended Stay America Suites - Boston - Saugus|Boston, MA| 111|42.46514| -71.01105|TRUE|FALSE|FALSE|TRUE
5739789|Hampton Inn Boston - Logan Airport|Boston, MA| 118|42.40126| -71.00636|TRUE|FALSE|FALSE|TRUE
5739789|The Verb Hotel|Boston, MA| 484|42.34534| -71.09678|FALSE|FALSE|TRUE|TRUE
5739789|Howard Johnson by Wyndham Quincy/Boston|Boston, MA| 118|42.26248| -71.01213|TRUE|FALSE|FALSE|TRUE
5739789|Extended Stay America Suites - Boston - Saugus|Boston, MA| 111|42.46514| -71.01105|TRUE|FALSE|FALSE|TRUE
5739789|Fairmont Copley Plaza, Boston|Boston, MA| 395|42.34906| -71.07618|FALSE|FALSE|TRUE|TRUE
5739789|Comfort Inn Woburn - Boston|Boston, MA|  94|42.47895| -71.11530|TRUE|FALSE|FALSE|TRUE
5739789|Four Points by Sheraton Boston Logan Airport Revere|Boston, MA| 106|42.42940| -71.01504|TRUE|FALSE|FALSE|TRUE
5739789|Courtyard by Marriott Woburn/Boston North|Boston, MA| 113|42.48808| -71.11657|TRUE|FALSE|FALSE|TRUE
5739789|The Bostonian Boston|Boston, MA| 189|42.36106| -71.05591|FALSE|TRUE|FALSE|TRUE
5739789|Boston Harbor Hotel|Boston, MA| 664|42.35666| -71.05032|FALSE|FALSE|TRUE|TRUE
5739789|Onyx Boston Downtown|Boston, MA| 150|42.36420| -71.06145|FALSE|TRUE|FALSE|TRUE
5739789|citizenM Boston North Station|Boston, MA| 162|42.36556| -71.06185|FALSE|TRUE|FALSE|TRUE
5739789|The Langham, Boston|Boston, MA| 519|42.35648| -71.05450|FALSE|FALSE|TRUE|TRUE
5739789|The Farrington Inn|Boston, MA| 104|42.35426| -71.13089|TRUE|FALSE|FALSE|TRUE
5739789|The Charles Hotel|Boston, MA| 416|42.37229| -71.12298|FALSE|FALSE|TRUE|TRUE
5739789|The Ritz-Carlton, Boston|Boston, MA| 751|42.35317| -71.06369|FALSE|FALSE|TRUE|TRUE
5739789|Four Points by Sheraton Boston Newton|Boston, MA| 111|42.35677| -71.18701|TRUE|FALSE|FALSE|TRUE
5739789|Residence Inn by Marriott Boston Harbor on Tudor Wharf|Boston, MA| 165|42.37047| -71.06037|FALSE|TRUE|FALSE|TRUE
5739789|The Whitney Hotel|Boston, MA| 385|42.36064| -71.07107|FALSE|TRUE|FALSE|TRUE
5739789|Best Western Plus New Englander|Boston, MA| 110|42.48082| -71.11883|TRUE|FALSE|FALSE|TRUE
5739789|DoubleTree by Hilton Hotel Boston Bayside|Boston, MA| 103|42.32028| -71.04789|TRUE|FALSE|FALSE|TRUE
5739789|Mandarin Oriental Boston|Boston, MA| 751|42.34869| -71.08160|FALSE|FALSE|TRUE|TRUE
5739789|The Newbury Boston|Boston, MA| 660|42.35293| -71.07149|FALSE|FALSE|TRUE|TRUE
5739789|Boston Omni Parker House Hotel|Boston, MA| 204|42.35776| -71.06011|FALSE|TRUE|FALSE|TRUE
5739789|Courtyard by Marriott Boston Downtown/North Station|Boston, MA| 167|42.36587| -71.05964|FALSE|TRUE|FALSE|TRUE
5739789|Hampton Inn Boston Logan Airport Chelsea|Boston, MA| 106|42.39411| -71.04454|TRUE|FALSE|FALSE|TRUE
5739789|Harborside Inn Of Boston|Boston, MA| 185|42.35927| -71.05283|FALSE|TRUE|FALSE|TRUE
5739789|XV Beacon|Boston, MA| 576|42.35832| -71.06193|FALSE|TRUE|TRUE|TRUE
5739789|Four Seasons Hotel One Dalton Street, Boston|Boston, MA| 757|42.34571| -71.08394|FALSE|FALSE|TRUE|TRUE
5739789|The Boxer|Boston, MA| 172|42.36388| -71.06252|FALSE|TRUE|FALSE|TRUE
5739799|XV Beacon|Boston, MA| 576|42.35832| -71.06193|FALSE|TRUE|TRUE|TRUE
5739799|Boston Harbor Hotel|Boston, MA| 664|42.35666| -71.05032|FALSE|FALSE|TRUE|TRUE
5739799|The Newbury Boston|Boston, MA| 660|42.35293| -71.07149|FALSE|FALSE|TRUE|TRUE
5739799|Extended Stay America Suites - Boston - Saugus|Boston, MA| 111|42.46514| -71.01105|TRUE|FALSE|FALSE|TRUE
5739799|Hampton Inn Boston - Logan Airport|Boston, MA| 118|42.40126| -71.00636|TRUE|FALSE|FALSE|TRUE
5739799|The Farrington Inn|Boston, MA| 104|42.35426| -71.13089|TRUE|FALSE|FALSE|TRUE
5739799|Courtyard by Marriott Woburn/Boston North|Boston, MA| 113|42.48808| -71.11657|TRUE|FALSE|FALSE|TRUE
5739799|Howard Johnson by Wyndham Quincy/Boston|Boston, MA| 118|42.26248| -71.01213|TRUE|FALSE|FALSE|TRUE
5739799|The Bostonian Boston|Boston, MA| 189|42.36106| -71.05591|FALSE|TRUE|FALSE|TRUE
5739799|Best Western Plus New Englander|Boston, MA| 110|42.48082| -71.11883|TRUE|FALSE|FALSE|TRUE
5739799|Onyx Boston Downtown|Boston, MA| 150|42.36420| -71.06145|FALSE|TRUE|FALSE|TRUE
5739799|DoubleTree by Hilton Hotel Boston Bayside|Boston, MA| 103|42.32028| -71.04789|TRUE|FALSE|FALSE|TRUE
5739799|Mandarin Oriental Boston|Boston, MA| 751|42.34869| -71.08160|FALSE|FALSE|TRUE|TRUE
5739799|Four Points by Sheraton Boston Logan Airport Revere|Boston, MA| 106|42.42940| -71.01504|TRUE|FALSE|FALSE|TRUE
5739799|Fairmont Copley Plaza, Boston|Boston, MA| 395|42.34906| -71.07618|FALSE|FALSE|TRUE|TRUE
5739799|Four Seasons Hotel One Dalton Street, Boston|Boston, MA| 757|42.34571| -71.08394|FALSE|FALSE|TRUE|TRUE
5739799|The Verb Hotel|Boston, MA| 484|42.34534| -71.09678|FALSE|FALSE|TRUE|TRUE
5739799|Harborside Inn Of Boston|Boston, MA| 185|42.35927| -71.05283|FALSE|TRUE|FALSE|TRUE
5739799|The Ritz-Carlton, Boston|Boston, MA| 751|42.35317| -71.06369|FALSE|FALSE|TRUE|TRUE
5739799|Residence Inn by Marriott Boston Harbor on Tudor Wharf|Boston, MA| 165|42.37047| -71.06037|FALSE|TRUE|FALSE|TRUE
5739799|The Langham, Boston|Boston, MA| 519|42.35648| -71.05450|FALSE|FALSE|TRUE|TRUE
5739799|The Whitney Hotel|Boston, MA| 385|42.36064| -71.07107|FALSE|TRUE|FALSE|TRUE
5739799|citizenM Boston North Station|Boston, MA| 162|42.36556| -71.06185|FALSE|TRUE|FALSE|TRUE
5739799|Courtyard by Marriott Boston Downtown/North Station|Boston, MA| 167|42.36587| -71.05964|FALSE|TRUE|FALSE|TRUE
5739799|Comfort Inn Woburn - Boston|Boston, MA|  94|42.47895| -71.11530|TRUE|FALSE|FALSE|TRUE
5739799|Hampton Inn Boston Logan Airport Chelsea|Boston, MA| 106|42.39411| -71.04454|TRUE|FALSE|FALSE|TRUE
5739799|Four Points by Sheraton Boston Newton|Boston, MA| 111|42.35677| -71.18701|TRUE|FALSE|FALSE|TRUE
5739799|Boston Omni Parker House Hotel|Boston, MA| 204|42.35776| -71.06011|FALSE|TRUE|FALSE|TRUE
5739799|The Charles Hotel|Boston, MA| 416|42.37229| -71.12298|FALSE|FALSE|TRUE|TRUE
5739799|The Boxer|Boston, MA| 172|42.36388| -71.06252|FALSE|TRUE|FALSE|TRUE
5739809|Four Points by Sheraton Boston Logan Airport Revere|Boston, MA| 106|42.42940| -71.01504|TRUE|FALSE|FALSE|TRUE
5739809|The Verb Hotel|Boston, MA| 484|42.34534| -71.09678|FALSE|FALSE|TRUE|TRUE
5739809|Four Points by Sheraton Boston Newton|Boston, MA| 111|42.35677| -71.18701|TRUE|FALSE|FALSE|TRUE
5739809|Mandarin Oriental Boston|Boston, MA| 751|42.34869| -71.08160|FALSE|FALSE|TRUE|TRUE
5739809|Hampton Inn Boston - Logan Airport|Boston, MA| 118|42.40126| -71.00636|TRUE|FALSE|FALSE|TRUE
5739809|The Whitney Hotel|Boston, MA| 385|42.36064| -71.07107|FALSE|TRUE|FALSE|TRUE
5739809|Boston Harbor Hotel|Boston, MA| 664|42.35666| -71.05032|FALSE|FALSE|TRUE|TRUE
5739809|The Boxer|Boston, MA| 172|42.36388| -71.06252|FALSE|TRUE|FALSE|TRUE
5739809|Residence Inn by Marriott Boston Harbor on Tudor Wharf|Boston, MA| 165|42.37047| -71.06037|FALSE|TRUE|FALSE|TRUE
5739809|Courtyard by Marriott Boston Downtown/North Station|Boston, MA| 167|42.36587| -71.05964|FALSE|TRUE|FALSE|TRUE
5739809|The Newbury Boston|Boston, MA| 660|42.35293| -71.07149|FALSE|FALSE|TRUE|TRUE
5739809|Howard Johnson by Wyndham Quincy/Boston|Boston, MA| 118|42.26248| -71.01213|TRUE|FALSE|FALSE|TRUE
5739809|Courtyard by Marriott Woburn/Boston North|Boston, MA| 113|42.48808| -71.11657|TRUE|FALSE|FALSE|TRUE
5739809|citizenM Boston North Station|Boston, MA| 162|42.36556| -71.06185|FALSE|TRUE|FALSE|TRUE
5739809|Best Western Plus New Englander|Boston, MA| 110|42.48082| -71.11883|TRUE|FALSE|FALSE|TRUE
5739809|Comfort Inn Woburn - Boston|Boston, MA|  94|42.47895| -71.11530|TRUE|FALSE|FALSE|TRUE
5739809|XV Beacon|Boston, MA| 576|42.35832| -71.06193|FALSE|TRUE|TRUE|TRUE
5739809|Hampton Inn Boston Logan Airport Chelsea|Boston, MA| 106|42.39411| -71.04454|TRUE|FALSE|FALSE|TRUE
5739809|Four Seasons Hotel One Dalton Street, Boston|Boston, MA| 757|42.34571| -71.08394|FALSE|FALSE|TRUE|TRUE
5739809|DoubleTree by Hilton Hotel Boston Bayside|Boston, MA| 103|42.32028| -71.04789|TRUE|FALSE|FALSE|TRUE
5739809|The Ritz-Carlton, Boston|Boston, MA| 751|42.35317| -71.06369|FALSE|FALSE|TRUE|TRUE
5739809|Boston Omni Parker House Hotel|Boston, MA| 204|42.35776| -71.06011|FALSE|TRUE|FALSE|TRUE
5739809|The Bostonian Boston|Boston, MA| 189|42.36106| -71.05591|FALSE|TRUE|FALSE|TRUE
5739809|The Farrington Inn|Boston, MA| 104|42.35426| -71.13089|TRUE|FALSE|FALSE|TRUE
5739809|The Charles Hotel|Boston, MA| 416|42.37229| -71.12298|FALSE|FALSE|TRUE|TRUE
5739809|Harborside Inn Of Boston|Boston, MA| 185|42.35927| -71.05283|FALSE|TRUE|FALSE|TRUE
5739809|Extended Stay America Suites - Boston - Saugus|Boston, MA| 111|42.46514| -71.01105|TRUE|FALSE|FALSE|TRUE
5739809|Fairmont Copley Plaza, Boston|Boston, MA| 395|42.34906| -71.07618|FALSE|FALSE|TRUE|TRUE
5739809|The Langham, Boston|Boston, MA| 519|42.35648| -71.05450|FALSE|FALSE|TRUE|TRUE
5739809|Onyx Boston Downtown|Boston, MA| 150|42.36420| -71.06145|FALSE|TRUE|FALSE|TRUE
5739851|DoubleTree by Hilton New York Times Square West|New York, NY| 169|40.75664| -73.99307|FALSE|TRUE|FALSE|TRUE
5739851|The Towers at Lotte New York Palace|New York, NY| 864|40.75797| -73.97487|FALSE|FALSE|TRUE|TRUE
5739851|Flushing Hotel|New York, NY|  90|40.76208| -73.83163|TRUE|FALSE|FALSE|TRUE
5739851|Knights Inn Brooklyn Sunset Park|New York, NY|  94|40.64684| -73.99677|TRUE|FALSE|FALSE|TRUE
5739851|Voyage Hotel|New York, NY|  86|40.75973| -73.94108|TRUE|FALSE|FALSE|TRUE
5739851|Hilton Garden Inn New York Times Square South|New York, NY| 153|40.75448| -73.99360|FALSE|TRUE|FALSE|TRUE
5739851|The Dominick|New York, NY| 543|40.72532| -74.00550|FALSE|FALSE|TRUE|TRUE
5739851|Truss Hotel Times Square |New York, NY| 147|40.75650| -73.99449|FALSE|TRUE|FALSE|TRUE
5739851|Days Inn by Wyndham Ridgefield NJ|New York, NY| 103|40.84481| -74.00768|TRUE|FALSE|FALSE|TRUE
5739851|Rodeway Inn Meadowlands|New York, NY|  94|40.79292| -74.05712|TRUE|FALSE|FALSE|TRUE
5739851|TRYP by Wyndham New York City Times Square / Midtown|New York, NY| 163|40.75378| -73.99462|FALSE|TRUE|FALSE|TRUE
5739851|Hotel 21 Nyc|New York, NY|  86|40.75367| -73.94228|TRUE|FALSE|FALSE|TRUE
5739851|Hotel Barriere Fouquets New York|New York, NY| 896|40.72362| -74.00975|FALSE|FALSE|TRUE|TRUE
5739851|Four Points by Sheraton Manhattan - Chelsea|New York, NY| 168|40.74491| -73.99426|FALSE|TRUE|FALSE|TRUE
5739851|The Peninsula New York|New York, NY| 973|40.76166| -73.97534|FALSE|FALSE|TRUE|TRUE
5739851|St Marks Hotel|New York, NY| 100|40.72928| -73.98965|TRUE|FALSE|FALSE|TRUE
5739851|The L Hotel, Ascend Hotel Collection|New York, NY|  95|40.65720| -74.00275|TRUE|FALSE|FALSE|TRUE
5739851|Loews Regency New York Hotel|New York, NY| 498|40.76457| -73.96901|FALSE|FALSE|TRUE|TRUE
5739851|Equinox Hotel New York|New York, NY| 773|40.75465| -74.00221|FALSE|TRUE|TRUE|TRUE
5739851|The Langham, New York, Fifth Avenue|New York, NY| 723|40.75014| -73.98353|FALSE|FALSE|TRUE|TRUE
5739851|The Times Square EDITION|New York, NY| 493|40.75915| -73.98416|FALSE|FALSE|TRUE|TRUE
5739851|Moxy NYC Times Square, a Marriott Hotel|New York, NY| 187|40.75231| -73.98912|FALSE|TRUE|FALSE|TRUE
5739851|Doubletree by Hilton New York Times Square South|New York, NY| 188|40.75380| -73.99272|FALSE|TRUE|FALSE|TRUE
5739851|Quality Inn near Sunset Park|New York, NY| 100|40.65099| -74.01178|TRUE|FALSE|FALSE|TRUE
5739851|Neptune Hotel|New York, NY| 100|40.68786| -73.91880|TRUE|FALSE|FALSE|TRUE
5739851|Hilton Garden Inn New York/West 35th Street|New York, NY| 174|40.75037| -73.98651|FALSE|TRUE|FALSE|TRUE
5739851|The Mark|New York, NY|1145|40.77533| -73.96326|FALSE|FALSE|TRUE|TRUE
5739851|Americana Inn|New York, NY| 117|40.75229| -73.98555|FALSE|TRUE|FALSE|TRUE
5739851|The Carlyle, A Rosewood Hotel|New York, NY|1174|40.77445| -73.96307|FALSE|FALSE|TRUE|TRUE
5739858|The Langham, New York, Fifth Avenue|New York, NY| 723|40.75014| -73.98353|FALSE|FALSE|TRUE|TRUE
5739858|St Marks Hotel|New York, NY| 100|40.72928| -73.98965|TRUE|FALSE|FALSE|TRUE
5739858|Four Points by Sheraton Manhattan - Chelsea|New York, NY| 168|40.74491| -73.99426|FALSE|TRUE|FALSE|TRUE
5739858|DoubleTree by Hilton New York Times Square West|New York, NY| 169|40.75664| -73.99307|FALSE|TRUE|FALSE|TRUE
5739858|The Times Square EDITION|New York, NY| 493|40.75915| -73.98416|FALSE|FALSE|TRUE|TRUE
5739858|Flushing Hotel|New York, NY|  90|40.76208| -73.83163|TRUE|FALSE|FALSE|TRUE
5739858|Hotel Barriere Fouquets New York|New York, NY| 896|40.72362| -74.00975|FALSE|FALSE|TRUE|TRUE
5739858|Neptune Hotel|New York, NY| 100|40.68786| -73.91880|TRUE|FALSE|FALSE|TRUE
5739858|Equinox Hotel New York|New York, NY| 773|40.75465| -74.00221|FALSE|TRUE|TRUE|TRUE
5739858|Voyage Hotel|New York, NY|  86|40.75973| -73.94108|TRUE|FALSE|FALSE|TRUE
5739858|Doubletree by Hilton New York Times Square South|New York, NY| 188|40.75380| -73.99272|FALSE|TRUE|FALSE|TRUE
5739858|Days Inn by Wyndham Ridgefield NJ|New York, NY| 103|40.84481| -74.00768|TRUE|FALSE|FALSE|TRUE
5739858|Rodeway Inn Meadowlands|New York, NY|  94|40.79292| -74.05712|TRUE|FALSE|FALSE|TRUE
5739858|The Carlyle, A Rosewood Hotel|New York, NY|1174|40.77445| -73.96307|FALSE|FALSE|TRUE|TRUE
5739858|Knights Inn Brooklyn Sunset Park|New York, NY|  94|40.64684| -73.99677|TRUE|FALSE|FALSE|TRUE
5739858|The Towers at Lotte New York Palace|New York, NY| 864|40.75797| -73.97487|FALSE|FALSE|TRUE|TRUE
5739858|The Dominick|New York, NY| 543|40.72532| -74.00550|FALSE|FALSE|TRUE|TRUE
5739858|The Peninsula New York|New York, NY| 973|40.76166| -73.97534|FALSE|FALSE|TRUE|TRUE
5739858|The L Hotel, Ascend Hotel Collection|New York, NY|  95|40.65720| -74.00275|TRUE|FALSE|FALSE|TRUE
5739858|Truss Hotel Times Square |New York, NY| 147|40.75650| -73.99449|FALSE|TRUE|FALSE|TRUE
5739858|Loews Regency New York Hotel|New York, NY| 498|40.76457| -73.96901|FALSE|FALSE|TRUE|TRUE
5739858|Quality Inn near Sunset Park|New York, NY| 100|40.65099| -74.01178|TRUE|FALSE|FALSE|TRUE
5739858|Hilton Garden Inn New York/West 35th Street|New York, NY| 174|40.75037| -73.98651|FALSE|TRUE|FALSE|TRUE
5739858|Hilton Garden Inn New York Times Square South|New York, NY| 153|40.75448| -73.99360|FALSE|TRUE|FALSE|TRUE
5739858|Moxy NYC Times Square, a Marriott Hotel|New York, NY| 187|40.75231| -73.98912|FALSE|TRUE|FALSE|TRUE
5739858|Hotel 21 Nyc|New York, NY|  86|40.75367| -73.94228|TRUE|FALSE|FALSE|TRUE
5739858|TRYP by Wyndham New York City Times Square / Midtown|New York, NY| 163|40.75378| -73.99462|FALSE|TRUE|FALSE|TRUE
5739858|Americana Inn|New York, NY| 117|40.75229| -73.98555|FALSE|TRUE|FALSE|TRUE
5739858|The Mark|New York, NY|1145|40.77533| -73.96326|FALSE|FALSE|TRUE|TRUE
5739859|Quality Inn Denver Westminster|Denver, CO|  83|39.85124|-105.04978|TRUE|FALSE|FALSE|TRUE
5739859|Super 8 by Wyndham Denver Central|Denver, CO|  78|39.80329|-104.98653|TRUE|FALSE|FALSE|TRUE
5739859|Hotel Indigo Denver Downtown, an IHG Hotel|Denver, CO| 198|39.75556|-105.00010|FALSE|TRUE|TRUE|TRUE
5739859|Days Inn by Wyndham Denver Downtown|Denver, CO|  93|39.73973|-104.97571|TRUE|FALSE|FALSE|TRUE
5739859|Life House, Lower Highlands|Denver, CO| 398|39.76758|-105.00375|FALSE|FALSE|TRUE|TRUE
5739859|The Ritz-Carlton, Denver|Denver, CO| 589|39.75014|-104.99188|FALSE|FALSE|TRUE|TRUE
5739859|Four Seasons Hotel Denver|Denver, CO| 781|39.74648|-104.99819|FALSE|TRUE|TRUE|TRUE
5739859|La Quinta Inn by Wyndham Denver Golden|Denver, CO|  90|39.76414|-105.14435|TRUE|FALSE|FALSE|TRUE
5739859|Thompson Denver|Denver, CO| 313|39.74987|-104.99779|FALSE|TRUE|TRUE|TRUE
5739859|Kimpton Hotel Born, an IHG Hotel|Denver, CO| 368|39.75327|-105.00203|FALSE|TRUE|TRUE|TRUE
5739859|The Westin Denver Downtown|Denver, CO| 156|39.74877|-104.99566|FALSE|TRUE|FALSE|TRUE
5739859|The Oxford Hotel|Denver, CO| 410|39.75226|-104.99923|FALSE|TRUE|TRUE|TRUE
5739859|The Curtis Denver - a DoubleTree by Hilton Hotel|Denver, CO| 145|39.74573|-104.99707|FALSE|TRUE|FALSE|TRUE
5739859|Rodeway Inn Denver Downtown|Denver, CO|  97|39.75575|-105.01639|FALSE|TRUE|FALSE|TRUE
5739859|Aiden by Best Western @ Denver West/Golden|Denver, CO|  93|39.73223|-105.16747|TRUE|FALSE|FALSE|TRUE
5739859|HomeTowne Studios by Red Roof Denver - Thornton|Denver, CO|  84|39.91235|-104.98863|TRUE|FALSE|FALSE|TRUE
5739859|Hilton Garden Inn Denver Union Station, CO|Denver, CO| 166|39.75754|-104.99931|FALSE|TRUE|FALSE|TRUE
5739859|Grand Hyatt Denver|Denver, CO| 219|39.74582|-104.98920|FALSE|FALSE|TRUE|TRUE
5739859|Super 8 by Wyndham Wheat Ridge/Denver West|Denver, CO|  85|39.78234|-105.10855|TRUE|FALSE|FALSE|TRUE
5739859|HomeTowne Studios by Red Roof Denver - Glendale/Cherry Creek|Denver, CO|  80|39.70810|-104.93090|TRUE|FALSE|FALSE|TRUE
5739859|Americas Best Value Inn Denver|Denver, CO|  74|39.77242|-104.84902|TRUE|FALSE|FALSE|TRUE
5739859|SpringHill Suites by Marriott Denver Downtown|Denver, CO| 211|39.74729|-105.00414|FALSE|TRUE|TRUE|TRUE
5739859|Super 8 by Wyndham Henderson North East Denver|Denver, CO|  70|39.86165|-104.91073|TRUE|FALSE|FALSE|TRUE
5739859|The Ramble Hotel|Denver, CO| 404|39.75735|-104.98659|FALSE|FALSE|TRUE|TRUE
5739864|Equinox Hotel New York|New York, NY| 773|40.75465| -74.00221|FALSE|TRUE|TRUE|TRUE
5739864|Quality Inn near Sunset Park|New York, NY| 100|40.65099| -74.01178|TRUE|FALSE|FALSE|TRUE
5739864|Truss Hotel Times Square |New York, NY| 147|40.75650| -73.99449|FALSE|TRUE|FALSE|TRUE
5739864|Hotel Barriere Fouquets New York|New York, NY| 896|40.72362| -74.00975|FALSE|FALSE|TRUE|TRUE
5739864|The Mark|New York, NY|1145|40.77533| -73.96326|FALSE|FALSE|TRUE|TRUE
5739864|The Dominick|New York, NY| 543|40.72532| -74.00550|FALSE|FALSE|TRUE|TRUE
5739864|The Langham, New York, Fifth Avenue|New York, NY| 723|40.75014| -73.98353|FALSE|FALSE|TRUE|TRUE
5739864|Neptune Hotel|New York, NY| 100|40.68786| -73.91880|TRUE|FALSE|FALSE|TRUE
