id|name|city|price|lat|long|p|t|l|fresh
5612248|Guild House Hotel|Philadelphia, PA| 530|39.94819| -75.16268|FALSE|TRUE|TRUE|TRUE
5612248|Fitler Club|Philadelphia, PA| 404|39.95349| -75.17914|FALSE|FALSE|TRUE|TRUE
5612248|Lokal Hotel Fishtown|Philadelphia, PA| 393|39.97245| -75.13503|FALSE|FALSE|TRUE|TRUE
5612248|Radisson Hotel Philadelphia, PA|Philadelphia, PA| 123|39.94917| -75.16954|FALSE|TRUE|FALSE|TRUE
5612248|Wyndham Garden Philadelphia Airport|Philadelphia, PA| 110|39.86764| -75.30377|TRUE|FALSE|FALSE|TRUE
5612248|The Rittenhouse Philadelphia|Philadelphia, PA| 592|39.94966| -75.16482|FALSE|TRUE|TRUE|TRUE
5612248|Club Quarters Hotel Rittenhouse Square, Philadelphia|Philadelphia, PA| 148|39.95122| -75.16840|FALSE|TRUE|FALSE|TRUE
5612248|Philly Inn & Suites|Philadelphia, PA| 118|39.95258| -75.16522|TRUE|FALSE|FALSE|TRUE
5612248|The Ritz-Carlton, Philadelphia|Philadelphia, PA| 450|39.95128| -75.16427|FALSE|TRUE|TRUE|TRUE
5612248|Warwick Hotel Rittenhouse Square|Philadelphia, PA| 187|39.94917| -75.16954|FALSE|TRUE|FALSE|TRUE
5612248|Motto by Hilton Philadelphia Rittenhouse Square|Philadelphia, PA| 118|39.95250| -75.17158|TRUE|FALSE|FALSE|TRUE
5612248|Courtyard Philadelphia South at The Navy Yard|Philadelphia, PA| 210|39.89545| -75.17173|FALSE|TRUE|FALSE|TRUE
5612248|AKA University City|Philadelphia, PA| 372|39.95191| -75.18365|FALSE|FALSE|TRUE|TRUE
5612248|Parkway Inn|Philadelphia, PA| 109|39.91875| -75.32845|TRUE|FALSE|FALSE|TRUE
5612248|Travelodge by Wyndham Bellmawr|Philadelphia, PA|  92|39.86208| -75.07705|TRUE|FALSE|FALSE|TRUE
5612248|Wm. Mulherin's Sons Hotel|Philadelphia, PA| 572|39.97171| -75.13506|FALSE|FALSE|TRUE|TRUE
5612248|BnB Philadelphia - Boutique Hotel|Philadelphia, PA| 621|39.97993| -75.12262|FALSE|FALSE|TRUE|TRUE
5612248|Red Carpet Inn Philadelphia Airport|Philadelphia, PA|  93|39.87242| -75.28119|TRUE|FALSE|FALSE|TRUE
5612248|Days Inn by Wyndham Philadelphia - Roosevelt Boulevard|Philadelphia, PA| 119|40.02974| -75.10607|TRUE|FALSE|FALSE|TRUE
5612248|Four Seasons Hotel Philadelphia at Comcast Center|Philadelphia, PA| 908|39.95509| -75.17090|FALSE|FALSE|TRUE|TRUE
5612248|Days Inn by Wyndham Springfield/Phil.Intl Airport|Philadelphia, PA| 106|39.91948| -75.32802|TRUE|FALSE|FALSE|TRUE
5612248|Clarion Hotel Philadelphia International Airport|Philadelphia, PA| 120|39.86626| -75.31162|TRUE|FALSE|FALSE|TRUE
5612248|DoubleTree by Hilton Philadelphia Center City|Philadelphia, PA| 168|39.94792| -75.16413|FALSE|TRUE|FALSE|TRUE
5612248|Loews Philadelphia Hotel|Philadelphia, PA| 232|39.95143| -75.16032|FALSE|FALSE|TRUE|TRUE
5612248|Hilton Garden Inn Camden Waterfront Philadelphia|Philadelphia, PA| 122|39.94991| -75.13029|TRUE|FALSE|FALSE|TRUE
5612248|Sofitel Philadelphia at Rittenhouse Square|Philadelphia, PA| 207|39.95085| -75.16911|FALSE|TRUE|FALSE|TRUE
5612248|W Philadelphia|Philadelphia, PA| 219|39.95124| -75.16490|FALSE|TRUE|FALSE|TRUE
5655684|Hotel Indigo Cleveland Downtown, an IHG Hotel|Cleveland, OH| 211|41.49820| -81.68767|FALSE|TRUE|FALSE|TRUE
5655684|DoubleTree by Hilton Cleveland - Independence|Cleveland, OH| 109|41.39331| -81.65011|TRUE|FALSE|FALSE|TRUE
5655684|Renaissance Cleveland Hotel|Cleveland, OH| 246|41.49856| -81.69471|FALSE|TRUE|TRUE|TRUE
5655684|Residence Inn By Marriott Cleveland Downtown|Cleveland, OH| 210|41.49871| -81.68902|FALSE|TRUE|FALSE|TRUE
5655684|Hampton Inn Cleveland-Downtown|Cleveland, OH| 235|41.50249| -81.68908|FALSE|FALSE|TRUE|TRUE
5655684|Metropolitan at The 9, Autograph Collection|Cleveland, OH| 269|41.49978| -81.68605|FALSE|TRUE|TRUE|TRUE
5655684|Days Inn by Wyndham Cleveland Lakewood|Cleveland, OH|  87|41.48959| -81.77313|TRUE|FALSE|FALSE|TRUE
5655684|Hilton Cleveland Downtown|Cleveland, OH| 256|41.50279| -81.69562|FALSE|FALSE|TRUE|TRUE
5655684|Extended Stay America Suites Cleveland Brooklyn|Cleveland, OH| 109|41.42483| -81.75763|TRUE|FALSE|FALSE|TRUE
5655684|Cleveland Marriott Downtown at Key Tower|Cleveland, OH| 263|41.50133| -81.69440|FALSE|FALSE|TRUE|TRUE
5655684|Four Points By Sheraton Cleveland Airport|Cleveland, OH| 115|41.44073| -81.79997|TRUE|FALSE|FALSE|TRUE
5655684|The Ritz-Carlton, Cleveland|Cleveland, OH| 458|41.49726| -81.69469|FALSE|TRUE|TRUE|TRUE
5655684|Hilton Garden Inn Cleveland Downtown|Cleveland, OH| 166|41.49617| -81.68131|FALSE|TRUE|FALSE|TRUE
5655684|Crowne Plaza Cleveland at Playhouse Square, an IHG Hotel|Cleveland, OH| 168|41.50049| -81.68329|FALSE|TRUE|FALSE|TRUE
5655684|La Quinta Inn by Wyndham Cleveland Independence|Cleveland, OH| 105|41.39373| -81.64880|TRUE|FALSE|FALSE|TRUE
5655684|Travelodge by Wyndham Cleveland Airport|Cleveland, OH|  71|41.41807| -81.79263|TRUE|FALSE|FALSE|TRUE
5655684|Red Roof Inn Cleveland - Independence|Cleveland, OH|  95|41.39458| -81.64999|TRUE|FALSE|FALSE|TRUE
5655684|Hyatt Regency Cleveland At The Arcade|Cleveland, OH| 247|41.50076| -81.69075|FALSE|TRUE|TRUE|TRUE
5655684|Holiday Inn Express Cleveland Downtown, an IHG Hotel|Cleveland, OH| 233|41.50039| -81.68879|FALSE|TRUE|TRUE|TRUE
5655684|Travelodge by Wyndham Cleveland Lakewood|Cleveland, OH|  87|41.49014| -81.77088|TRUE|FALSE|FALSE|TRUE
5655684|Kimpton Schofield Hotel, an IHG Hotel|Cleveland, OH| 306|41.49961| -81.68674|FALSE|TRUE|TRUE|TRUE
5655684|Extended Stay America Premier Suites - Cleveland - Independence|Cleveland, OH| 110|41.40293| -81.65252|TRUE|FALSE|FALSE|TRUE
5655684|Comfort Inn|Cleveland, OH| 106|41.50092| -81.67835|TRUE|FALSE|FALSE|TRUE
5655684|Drury Plaza Hotel Cleveland Downtown|Cleveland, OH| 233|41.50221| -81.69202|FALSE|FALSE|TRUE|TRUE
5685036|Comfort Suites Frisco|Frisco, TX| 116|33.15818| -96.83935|FALSE|TRUE|FALSE|TRUE
5685036|Cambria Hotel Plano Frisco|Frisco, TX| 100|33.08107| -96.81749|TRUE|FALSE|FALSE|TRUE
5685036|Quality Inn West Plano - Dallas|Frisco, TX|  83|33.01727| -96.79788|TRUE|FALSE|FALSE|TRUE
5685036|Hyatt Regency Frisco-Dallas|Frisco, TX| 214|33.09931| -96.81311|FALSE|FALSE|TRUE|TRUE
5685036|The Westin Dallas Stonebriar Golf Resort & Spa|Frisco, TX| 171|33.09155| -96.84028|FALSE|FALSE|TRUE|TRUE
5685036|Extended Stay America Suites Dallas Plano Parkway|Frisco, TX|  74|33.01687| -96.79448|TRUE|FALSE|FALSE|TRUE
5685036|Hyatt Place Dallas / The Colony|Frisco, TX|  96|33.07176| -96.88155|TRUE|FALSE|FALSE|TRUE
5685036|StayOvr at Legacy West - Windrose|Frisco, TX| 243|33.08106| -96.82635|FALSE|FALSE|TRUE|TRUE
5685036|Sonesta Simply Suites Plano Frisco|Frisco, TX| 100|33.07135| -96.79227|TRUE|FALSE|FALSE|TRUE
5685036|Kasa Frisco Dallas|Frisco, TX| 248|33.09887| -96.82124|FALSE|TRUE|TRUE|TRUE
5685036|Aloft Frisco|Frisco, TX| 123|33.10547| -96.81557|FALSE|TRUE|FALSE|TRUE
5685036|Renaissance Dallas at Plano Legacy West Hotel|Frisco, TX| 265|33.07836| -96.82741|FALSE|FALSE|TRUE|TRUE
5685036|Courtyard by Marriott Dallas Plano in Legacy Park|Frisco, TX|  95|33.08177| -96.85642|TRUE|FALSE|FALSE|TRUE
5685036|Hilton Dallas/Plano Granite Park|Frisco, TX| 153|33.08893| -96.82040|FALSE|FALSE|TRUE|TRUE
5685036|Residence Inn By Marriott Dallas Plano/Legacy|Frisco, TX|  95|33.05877| -96.79679|TRUE|FALSE|FALSE|TRUE
5685036|Embassy Suites by Hilton Dallas Frisco Hotel & Convention Center|Frisco, TX| 136|33.09950| -96.81776|FALSE|TRUE|FALSE|TRUE
5685036|AC Hotel by Marriott Dallas Frisco|Frisco, TX| 123|33.11400| -96.82868|FALSE|TRUE|FALSE|TRUE
5685036|Comfort Suites The Colony - Plano West|Frisco, TX|  92|33.06982| -96.88570|TRUE|FALSE|FALSE|TRUE
5685036|Candlewood Suites Dallas-Frisco NW Toyota Ctr, an IHG Hotel|Frisco, TX| 128|33.15801| -96.83308|FALSE|TRUE|FALSE|TRUE
5685036|Omni Frisco Hotel|Frisco, TX| 341|33.10959| -96.82768|FALSE|TRUE|TRUE|TRUE
5685036|Urbanlights at Legacy West|Frisco, TX| 231|33.07836| -96.82741|FALSE|FALSE|TRUE|TRUE
5685036|Hotel Indigo Frisco, an IHG Hotel|Frisco, TX| 101|33.10297| -96.81901|TRUE|TRUE|FALSE|TRUE
5685036|Tru by Hilton The Colony Dallas|Frisco, TX| 100|33.07220| -96.88071|TRUE|FALSE|FALSE|TRUE
5685036|Dallas/Plano Marriott at Legacy Town Center|Frisco, TX| 212|33.07451| -96.82221|FALSE|FALSE|TRUE|TRUE
5685036|Canopy by Hilton Dallas Frisco Station, TX|Frisco, TX| 121|33.11537| -96.82928|FALSE|TRUE|FALSE|TRUE
5685036|Kasa Frisco Bridges Dallas|Frisco, TX| 297|33.10281| -96.81488|FALSE|TRUE|TRUE|TRUE
5685265|Homewood Suites by Hilton New Orleans French Quarter|New Orleans, LA| 134|29.95075| -90.07313|FALSE|TRUE|FALSE|TRUE
5685265|The Frenchmen|New Orleans, LA|1569|30.00757| -90.06095|FALSE|FALSE|TRUE|TRUE
5685265|Four Points By Sheraton French Quarter|New Orleans, LA| 167|29.95765| -90.06675|FALSE|FALSE|TRUE|TRUE
5685265|Hampton Inn & Suites New Orleans Convention Center|New Orleans, LA| 109|29.93974| -90.06516|TRUE|FALSE|FALSE|TRUE
5685265|Holiday Inn New Orleans - Downtown Superdome, an IHG Hotel|New Orleans, LA| 145|29.95299| -90.07497|FALSE|TRUE|FALSE|TRUE
5685265|Federal City Inn & Suites|New Orleans, LA| 110|29.94753| -90.03280|TRUE|FALSE|FALSE|TRUE
5685265|Riverside Hotel|New Orleans, LA| 110|29.85646| -89.98640|TRUE|FALSE|FALSE|TRUE
5685265|The Roosevelt New Orleans, A Waldorf Astoria Hotel|New Orleans, LA| 361|29.95434| -90.07230|FALSE|TRUE|TRUE|TRUE
5685265|Hyatt Regency New Orleans|New Orleans, LA| 151|29.94955| -90.07727|FALSE|TRUE|FALSE|TRUE
5685265|Sonesta ES Suites New Orleans|New Orleans, LA| 139|29.95409| -90.07462|FALSE|TRUE|FALSE|TRUE
5685265|Selina Catahoula New Orleans|New Orleans, LA| 115|29.95185| -90.07321|TRUE|TRUE|FALSE|TRUE
5685265|New Orleans Marriott|New Orleans, LA| 181|29.95288| -90.06733|FALSE|FALSE|TRUE|TRUE
5685265|Quality Inn New Orleans I-10 East|New Orleans, LA|  78|30.03715| -89.97409|TRUE|FALSE|FALSE|TRUE
5685265|Midtown Hotel - Downtown New Orleans|New Orleans, LA| 107|29.94978| -90.06771|TRUE|FALSE|FALSE|TRUE
5685265|Four Seasons Hotel New Orleans|New Orleans, LA| 570|29.94888| -90.06389|FALSE|FALSE|TRUE|TRUE
5685265|Days Inn by Wyndham New Orleans Pontchartrain|New Orleans, LA| 104|30.00213| -90.03978|TRUE|FALSE|FALSE|TRUE
5685265|Hilton New Orleans Riverside|New Orleans, LA| 167|29.94751| -90.06345|FALSE|FALSE|TRUE|TRUE
5685265|Loews New Orleans Hotel|New Orleans, LA| 205|29.94797| -90.06621|FALSE|FALSE|TRUE|TRUE
5685265|Virgin Hotels New Orleans|New Orleans, LA| 264|29.94894| -90.07313|FALSE|TRUE|TRUE|TRUE
5685265|Lafayette Hotel|New Orleans, LA| 405|29.94827| -90.07034|FALSE|TRUE|TRUE|TRUE
5685265|Hyatt Place New Orleans Convention Center|New Orleans, LA| 115|29.94248| -90.06474|TRUE|FALSE|FALSE|TRUE
5685265|Olde Town Inn|New Orleans, LA| 103|29.96776| -90.05529|TRUE|FALSE|FALSE|TRUE
5685265|La Quinta Inn by Wyndham New Orleans Veterans / Metairie|New Orleans, LA|  91|30.00483| -90.20567|TRUE|FALSE|FALSE|TRUE
5685265|The Windsor Court|New Orleans, LA| 428|29.94984| -90.06644|FALSE|FALSE|TRUE|TRUE
5685265|Royal Frenchmen Hotel and Bar|New Orleans, LA| 360|29.96463| -90.05796|FALSE|FALSE|TRUE|TRUE
5685265|Astor Crowne Plaza New Orleans French Quarter, an IHG Hotel|New Orleans, LA| 157|29.95384| -90.06956|FALSE|TRUE|FALSE|TRUE
5685265|Blake Hotel New Orleans, BW Premier Collection|New Orleans, LA| 131|29.94925| -90.07060|FALSE|TRUE|FALSE|TRUE
5685266|Olde Town Inn|New Orleans, LA| 103|29.96776| -90.05529|TRUE|FALSE|FALSE|TRUE
5685266|Selina Catahoula New Orleans|New Orleans, LA| 115|29.95185| -90.07321|TRUE|TRUE|FALSE|TRUE
5685266|Hyatt Place New Orleans Convention Center|New Orleans, LA| 115|29.94248| -90.06474|TRUE|FALSE|FALSE|TRUE
5685266|Hampton Inn & Suites New Orleans Convention Center|New Orleans, LA| 109|29.93974| -90.06516|TRUE|FALSE|FALSE|TRUE
5685266|Four Points By Sheraton French Quarter|New Orleans, LA| 167|29.95765| -90.06675|FALSE|FALSE|TRUE|TRUE
5685266|Riverside Hotel|New Orleans, LA| 110|29.85646| -89.98640|TRUE|FALSE|FALSE|TRUE
5685266|Midtown Hotel - Downtown New Orleans|New Orleans, LA| 107|29.94978| -90.06771|TRUE|FALSE|FALSE|TRUE
5685266|Quality Inn New Orleans I-10 East|New Orleans, LA|  78|30.03715| -89.97409|TRUE|FALSE|FALSE|TRUE
5685266|New Orleans Marriott|New Orleans, LA| 181|29.95288| -90.06733|FALSE|FALSE|TRUE|TRUE
5685266|The Frenchmen|New Orleans, LA|1569|30.00757| -90.06095|FALSE|FALSE|TRUE|TRUE
5685266|Blake Hotel New Orleans, BW Premier Collection|New Orleans, LA| 131|29.94925| -90.07060|FALSE|TRUE|FALSE|TRUE
5685266|La Quinta Inn by Wyndham New Orleans Veterans / Metairie|New Orleans, LA|  91|30.00483| -90.20567|TRUE|FALSE|FALSE|TRUE
5685266|The Roosevelt New Orleans, A Waldorf Astoria Hotel|New Orleans, LA| 361|29.95434| -90.07230|FALSE|TRUE|TRUE|TRUE
5685266|Loews New Orleans Hotel|New Orleans, LA| 205|29.94797| -90.06621|FALSE|FALSE|TRUE|TRUE
5685266|Virgin Hotels New Orleans|New Orleans, LA| 264|29.94894| -90.07313|FALSE|TRUE|TRUE|TRUE
5685266|Four Seasons Hotel New Orleans|New Orleans, LA| 570|29.94888| -90.06389|FALSE|FALSE|TRUE|TRUE
5685266|Hyatt Regency New Orleans|New Orleans, LA| 151|29.94955| -90.07727|FALSE|TRUE|FALSE|TRUE
5685266|Astor Crowne Plaza New Orleans French Quarter, an IHG Hotel|New Orleans, LA| 157|29.95384| -90.06956|FALSE|TRUE|FALSE|TRUE
5685266|Holiday Inn New Orleans - Downtown Superdome, an IHG Hotel|New Orleans, LA| 145|29.95299| -90.07497|FALSE|TRUE|FALSE|TRUE
5685266|Federal City Inn & Suites|New Orleans, LA| 110|29.94753| -90.03280|TRUE|FALSE|FALSE|TRUE
5685266|Homewood Suites by Hilton New Orleans French Quarter|New Orleans, LA| 134|29.95075| -90.07313|FALSE|TRUE|FALSE|TRUE
5685266|Days Inn by Wyndham New Orleans Pontchartrain|New Orleans, LA| 104|30.00213| -90.03978|TRUE|FALSE|FALSE|TRUE
5685266|Sonesta ES Suites New Orleans|New Orleans, LA| 139|29.95409| -90.07462|FALSE|TRUE|FALSE|TRUE
5685266|Lafayette Hotel|New Orleans, LA| 405|29.94827| -90.07034|FALSE|TRUE|TRUE|TRUE
5685266|Royal Frenchmen Hotel and Bar|New Orleans, LA| 360|29.96463| -90.05796|FALSE|FALSE|TRUE|TRUE
5685266|The Windsor Court|New Orleans, LA| 428|29.94984| -90.06644|FALSE|FALSE|TRUE|TRUE
5685266|Hilton New Orleans Riverside|New Orleans, LA| 167|29.94751| -90.06345|FALSE|FALSE|TRUE|TRUE
5685308|Best Western Tolleson Hotel|Glendale, AZ| 140|33.46469|-112.24145|FALSE|FALSE|TRUE|TRUE
5685308|Red Roof Inn Phoenix - Midtown|Glendale, AZ|  97|33.49583|-112.11374|TRUE|FALSE|FALSE|TRUE
5685308|Tru By Hilton Phoenix Glendale Westgate, AZ|Glendale, AZ| 174|33.53125|-112.26562|FALSE|TRUE|TRUE|TRUE
5685308|Courtyard by Marriott Phoenix West/Avondale|Glendale, AZ| 126|33.46610|-112.26699|FALSE|TRUE|TRUE|TRUE
5685308|Super 8 by Wyndham Phoenix Metro North|Glendale, AZ|  75|33.55603|-112.11363|TRUE|FALSE|FALSE|TRUE
5685308|Aloft Glendale at Westgate|Glendale, AZ| 174|33.53637|-112.25928|FALSE|TRUE|TRUE|TRUE
5685308|Days Hotel by Wyndham Peoria Glendale Area|Glendale, AZ| 105|33.59079|-112.25157|TRUE|TRUE|FALSE|TRUE
5685308|Residence Inn Phoenix Glendale Sports & Entertainment District|Glendale, AZ| 175|33.54214|-112.26034|FALSE|TRUE|TRUE|TRUE
5685308|DoubleTree by Hilton Phoenix North|Glendale, AZ| 131|33.57931|-112.11996|FALSE|FALSE|TRUE|TRUE
5685308|Springhill Suites Phoenix Glendale Sports & Entertainment District|Glendale, AZ| 195|33.54272|-112.25994|FALSE|TRUE|TRUE|TRUE
5685308|Travelers Inn|Glendale, AZ| 107|33.53865|-112.18599|TRUE|TRUE|FALSE|TRUE
5685308|Premier Inns Metro Center|Glendale, AZ| 102|33.58004|-112.11823|TRUE|FALSE|FALSE|TRUE
5685308|Comfort Suites Glendale - State Farm Stadium Area|Glendale, AZ| 144|33.50993|-112.27045|FALSE|TRUE|TRUE|TRUE
5685308|HomeTowne Studios by Red Roof Phoenix - West|Glendale, AZ| 107|33.46438|-112.17166|TRUE|FALSE|FALSE|TRUE
5685308|Super 8 by Wyndham Phoenix West|Glendale, AZ|  75|33.49607|-112.11553|TRUE|FALSE|FALSE|TRUE
5685308|Staybridge Suites Phoenix - Glendale Sports Dist, an IHG Hotel|Glendale, AZ| 154|33.54119|-112.26119|FALSE|TRUE|TRUE|TRUE
5685308|Premier Inns Tolleson|Glendale, AZ| 106|33.46392|-112.24006|TRUE|FALSE|FALSE|TRUE
5685308|Travel Inn - In Phoenix (Alhambra)|Glendale, AZ|  90|33.49380|-112.11609|TRUE|FALSE|FALSE|TRUE
5685308|Red Roof Inn PLUS+ Phoenix West|Glendale, AZ| 108|33.46438|-112.17166|TRUE|FALSE|FALSE|TRUE
5685308|Home2 Suites by Hilton Glendale - Westgate|Glendale, AZ| 195|33.53138|-112.26659|FALSE|TRUE|TRUE|TRUE
5685308|Super 8 by Wyndham Goodyear/Phoenix Area|Glendale, AZ| 108|33.45534|-112.34258|TRUE|FALSE|FALSE|TRUE
5685308|Sheraton Crescent Hotel|Glendale, AZ| 126|33.56851|-112.11560|FALSE|FALSE|TRUE|TRUE
5685337|Staybridge Suites Phoenix - Glendale Sports Dist, an IHG Hotel|Glendale, AZ| 154|33.54119|-112.26119|FALSE|TRUE|TRUE|TRUE
5685337|Residence Inn Phoenix Glendale Sports & Entertainment District|Glendale, AZ| 175|33.54214|-112.26034|FALSE|TRUE|TRUE|TRUE
5685337|Tru By Hilton Phoenix Glendale Westgate, AZ|Glendale, AZ| 174|33.53125|-112.26562|FALSE|TRUE|TRUE|TRUE
5685337|Super 8 by Wyndham Phoenix West|Glendale, AZ|  75|33.49607|-112.11553|TRUE|FALSE|FALSE|TRUE
5685337|Sheraton Crescent Hotel|Glendale, AZ| 126|33.56851|-112.11560|FALSE|FALSE|TRUE|TRUE
5685337|DoubleTree by Hilton Phoenix North|Glendale, AZ| 131|33.57931|-112.11996|FALSE|FALSE|TRUE|TRUE
5685337|Premier Inns Tolleson|Glendale, AZ| 106|33.46392|-112.24006|TRUE|FALSE|FALSE|TRUE
5685337|Aloft Glendale at Westgate|Glendale, AZ| 174|33.53637|-112.25928|FALSE|TRUE|TRUE|TRUE
5685337|Courtyard by Marriott Phoenix West/Avondale|Glendale, AZ| 126|33.46610|-112.26699|FALSE|TRUE|TRUE|TRUE
5685337|Red Roof Inn Phoenix - Midtown|Glendale, AZ|  97|33.49583|-112.11374|TRUE|FALSE|FALSE|TRUE
5685337|Super 8 by Wyndham Phoenix Metro North|Glendale, AZ|  75|33.55603|-112.11363|TRUE|FALSE|FALSE|TRUE
5685337|Travelers Inn|Glendale, AZ| 107|33.53865|-112.18599|TRUE|TRUE|FALSE|TRUE
5685337|Springhill Suites Phoenix Glendale Sports & Entertainment District|Glendale, AZ| 195|33.54272|-112.25994|FALSE|TRUE|TRUE|TRUE
5685337|HomeTowne Studios by Red Roof Phoenix - West|Glendale, AZ| 107|33.46438|-112.17166|TRUE|FALSE|FALSE|TRUE
5685337|Best Western Tolleson Hotel|Glendale, AZ| 140|33.46469|-112.24145|FALSE|FALSE|TRUE|TRUE
5685337|Days Hotel by Wyndham Peoria Glendale Area|Glendale, AZ| 105|33.59079|-112.25157|TRUE|TRUE|FALSE|TRUE
5685337|Home2 Suites by Hilton Glendale - Westgate|Glendale, AZ| 195|33.53138|-112.26659|FALSE|TRUE|TRUE|TRUE
5685337|Travel Inn - In Phoenix (Alhambra)|Glendale, AZ|  90|33.49380|-112.11609|TRUE|FALSE|FALSE|TRUE
5685337|Comfort Suites Glendale - State Farm Stadium Area|Glendale, AZ| 144|33.50993|-112.27045|FALSE|TRUE|TRUE|TRUE
5685337|Red Roof Inn PLUS+ Phoenix West|Glendale, AZ| 108|33.46438|-112.17166|TRUE|FALSE|FALSE|TRUE
5685337|Super 8 by Wyndham Goodyear/Phoenix Area|Glendale, AZ| 108|33.45534|-112.34258|TRUE|FALSE|FALSE|TRUE
5685337|Premier Inns Metro Center|Glendale, AZ| 102|33.58004|-112.11823|TRUE|FALSE|FALSE|TRUE
5685503|Extended Stay America Suites Arlington|Arlington, TX| 113|32.73569| -97.10807|TRUE|TRUE|FALSE|TRUE
5685503|Comfort Suites Arlington - Entertainment District|Arlington, TX| 251|32.75869| -97.11011|FALSE|TRUE|TRUE|TRUE
5685503|Hilton Arlington|Arlington, TX| 255|32.76248| -97.06729|FALSE|TRUE|TRUE|TRUE
5685503|Sleep Inn Arlington Near Six Flags|Arlington, TX| 150|32.75355| -97.06618|FALSE|TRUE|FALSE|TRUE
5685503|Holiday Inn Arlington NE-Rangers Ballpark, an IHG Hotel|Arlington, TX| 292|32.76136| -97.09205|FALSE|TRUE|TRUE|TRUE
5685503|Baymont by Wyndham Arlington At Six Flags Dr|Arlington, TX| 181|32.75387| -97.06519|FALSE|TRUE|TRUE|TRUE
5685503|Arya Inn & Suites|Arlington, TX|  84|32.83452| -96.99184|TRUE|FALSE|FALSE|TRUE
5685503|Hyatt Place Fort Worth/Hurst|Arlington, TX| 124|32.84196| -97.18917|TRUE|FALSE|FALSE|TRUE
5685503|SpringHill Suites Dallas Arlington North|Arlington, TX| 170|32.76329| -97.07872|FALSE|TRUE|TRUE|TRUE
5685503|Tru By Hilton Euless DFW West|Arlington, TX| 121|32.87493| -97.09862|TRUE|FALSE|FALSE|TRUE
5685503|Best Western Plus DFW Airport West Euless|Arlington, TX| 120|32.83691| -97.08907|TRUE|FALSE|FALSE|TRUE
5685503|HomeTowne Studios by Red Roof Dallas - Irving|Arlington, TX|  82|32.86436| -96.99415|TRUE|FALSE|FALSE|TRUE
5685503|OYO Hotel Irving DFW Airport South|Arlington, TX|  67|32.83824| -96.98151|TRUE|FALSE|FALSE|TRUE
5685503|Howard Johnson by Wyndham Arlington Ballpark / Six Flags|Arlington, TX| 213|32.75889| -97.07810|FALSE|TRUE|TRUE|TRUE
5685503|Crowne Plaza Suites Arlington - Ballpark - Stadium, an IHG Hotel|Arlington, TX| 191|32.76056| -97.05647|FALSE|FALSE|TRUE|TRUE
5685503|Hawthorn Suites by Wyndham Irving DFW South|Arlington, TX| 117|32.83954| -96.98900|TRUE|FALSE|FALSE|TRUE
5685503|Super 8 by Wyndham Irving DFW Airport/South|Arlington, TX|  92|32.83844| -97.01175|TRUE|FALSE|FALSE|TRUE
5685503|Courtyard by Marriott Dallas Arlington/Entertainment Dist|Arlington, TX| 400|32.75760| -97.08895|FALSE|TRUE|TRUE|TRUE
5685503|Hilton Garden Inn Dallas at Hurst Conference Center|Arlington, TX| 119|32.84180| -97.19189|TRUE|FALSE|FALSE|TRUE
5685503|Sheraton Arlington Hotel|Arlington, TX| 411|32.75686| -97.08185|FALSE|TRUE|TRUE|TRUE
5685503|Comfort Suites Grand Prairie - Arlington North|Arlington, TX| 168|32.78874| -97.05594|FALSE|FALSE|TRUE|TRUE
5685507|Hyatt Place Fort Worth/Hurst|Arlington, TX| 124|32.84196| -97.18917|TRUE|FALSE|FALSE|TRUE
5685507|Best Western Plus DFW Airport West Euless|Arlington, TX| 120|32.83691| -97.08907|TRUE|FALSE|FALSE|TRUE
5685507|Tru By Hilton Euless DFW West|Arlington, TX| 121|32.87493| -97.09862|TRUE|FALSE|FALSE|TRUE
5685507|Crowne Plaza Suites Arlington - Ballpark - Stadium, an IHG Hotel|Arlington, TX| 191|32.76056| -97.05647|FALSE|FALSE|TRUE|TRUE
5685507|Howard Johnson by Wyndham Arlington Ballpark / Six Flags|Arlington, TX| 213|32.75889| -97.07810|FALSE|TRUE|TRUE|TRUE
5685507|Comfort Suites Grand Prairie - Arlington North|Arlington, TX| 168|32.78874| -97.05594|FALSE|FALSE|TRUE|TRUE
5685507|Extended Stay America Suites Arlington|Arlington, TX| 113|32.73569| -97.10807|TRUE|TRUE|FALSE|TRUE
5685507|HomeTowne Studios by Red Roof Dallas - Irving|Arlington, TX|  82|32.86436| -96.99415|TRUE|FALSE|FALSE|TRUE
5685507|Super 8 by Wyndham Irving DFW Airport/South|Arlington, TX|  92|32.83844| -97.01175|TRUE|FALSE|FALSE|TRUE
5685507|SpringHill Suites Dallas Arlington North|Arlington, TX| 170|32.76329| -97.07872|FALSE|TRUE|TRUE|TRUE
5685507|Hilton Garden Inn Dallas at Hurst Conference Center|Arlington, TX| 119|32.84180| -97.19189|TRUE|FALSE|FALSE|TRUE
5685507|Arya Inn & Suites|Arlington, TX|  84|32.83452| -96.99184|TRUE|FALSE|FALSE|TRUE
5685507|Comfort Suites Arlington - Entertainment District|Arlington, TX| 251|32.75869| -97.11011|FALSE|TRUE|TRUE|TRUE
5685507|Hawthorn Suites by Wyndham Irving DFW South|Arlington, TX| 117|32.83954| -96.98900|TRUE|FALSE|FALSE|TRUE
5685507|Courtyard by Marriott Dallas Arlington/Entertainment Dist|Arlington, TX| 400|32.75760| -97.08895|FALSE|TRUE|TRUE|TRUE
5685507|Holiday Inn Arlington NE-Rangers Ballpark, an IHG Hotel|Arlington, TX| 292|32.76136| -97.09205|FALSE|TRUE|TRUE|TRUE
5685507|Sleep Inn Arlington Near Six Flags|Arlington, TX| 150|32.75355| -97.06618|FALSE|TRUE|FALSE|TRUE
5685507|Hilton Arlington|Arlington, TX| 255|32.76248| -97.06729|FALSE|TRUE|TRUE|TRUE
5685507|Sheraton Arlington Hotel|Arlington, TX| 411|32.75686| -97.08185|FALSE|TRUE|TRUE|TRUE
5685507|Baymont by Wyndham Arlington At Six Flags Dr|Arlington, TX| 181|32.75387| -97.06519|FALSE|TRUE|TRUE|TRUE
5685507|OYO Hotel Irving DFW Airport South|Arlington, TX|  67|32.83824| -96.98151|TRUE|FALSE|FALSE|TRUE
5691889|Hollywood Guest Inn|Inglewood, CA|  84|34.09773|-118.33696|TRUE|FALSE|FALSE|TRUE
5691889|Best Western Plus Suites Hotel - Los Angeles LAX Airport|Inglewood, CA| 152|33.94579|-118.36570|FALSE|TRUE|FALSE|TRUE
5691889|H3 Inn & Suites - LAX Airport - Los Angeles|Inglewood, CA|  91|33.94569|-118.36044|TRUE|TRUE|FALSE|TRUE
5691889|Royal Century Hotel|Inglewood, CA|  92|33.94491|-118.35159|TRUE|TRUE|FALSE|TRUE
5691889|Holiday Inn Los Angeles - LAX Airport, an IHG Hotel|Inglewood, CA| 125|33.94620|-118.37092|FALSE|TRUE|FALSE|TRUE
5691889|La Quinta Inn & Suites by Wyndham Inglewood|Inglewood, CA| 117|33.93125|-118.34332|FALSE|TRUE|FALSE|TRUE
5691889|Beverly Wilshire - Beverly Hills, A Four Seasons Hotel|Inglewood, CA|1024|34.06674|-118.40077|FALSE|FALSE|TRUE|TRUE
5691889|Casa Del Mar|Inglewood, CA| 882|34.00627|-118.49147|FALSE|FALSE|TRUE|TRUE
5691889|The Peninsula Beverly Hills|Inglewood, CA|1041|34.06576|-118.41072|FALSE|FALSE|TRUE|TRUE
5691889|Comet Motel|Inglewood, CA|  91|33.93788|-118.26499|TRUE|FALSE|FALSE|TRUE
5691889|Shutters on the Beach|Inglewood, CA| 939|34.00692|-118.49169|FALSE|FALSE|TRUE|TRUE
5691889|The London West Hollywood at Beverly Hills|Inglewood, CA| 531|34.08996|-118.38507|FALSE|FALSE|TRUE|TRUE
5691889|The Maybourne Beverly Hills|Inglewood, CA|1213|34.06797|-118.39875|FALSE|FALSE|TRUE|TRUE
5691889|Hollywood Inn Suites Hotel|Inglewood, CA|  72|33.91615|-118.29309|TRUE|FALSE|FALSE|TRUE
5691889|Four Seasons Los Angeles at Beverly Hills|Inglewood, CA| 988|34.07305|-118.38934|FALSE|FALSE|TRUE|TRUE
5691889|L'Ermitage Beverly Hills|Inglewood, CA| 776|34.07254|-118.39540|FALSE|FALSE|TRUE|TRUE
5691889|Pendry West Hollywood|Inglewood, CA| 626|34.09440|-118.37379|FALSE|FALSE|TRUE|TRUE
5691889|The Beverly Hills Hotel|Inglewood, CA|1571|33.96168|-118.35313|FALSE|TRUE|TRUE|TRUE
5691889|City Center Hotel|Inglewood, CA|  92|34.05151|-118.26500|TRUE|FALSE|FALSE|TRUE
5691889|LAX Stadium Inn - El Segundo/Inglewood|Inglewood, CA|  86|33.93112|-118.35535|TRUE|TRUE|FALSE|TRUE
5691889|Gardena Terrace Inn|Inglewood, CA|  89|33.88616|-118.30890|TRUE|FALSE|FALSE|TRUE
5691889|Antonio Hotel|Inglewood, CA|  97|33.96168|-118.35313|FALSE|TRUE|FALSE|TRUE
5691889|Rodeway Inn South Gate - Los Angeles South|Inglewood, CA|  92|33.95086|-118.18297|TRUE|FALSE|FALSE|TRUE
5691889|Wingate by Wyndham Los Angeles International Airport LAX|Inglewood, CA| 105|33.94273|-118.36961|FALSE|TRUE|FALSE|TRUE
5691889|Quality Inn & Suites Los Angeles Airport - LAX|Inglewood, CA| 113|33.94493|-118.36455|FALSE|TRUE|FALSE|TRUE
5691889|Central Inn Motel|Inglewood, CA|  87|34.00935|-118.25629|TRUE|FALSE|FALSE|TRUE
5691889|Satellite Motel|Inglewood, CA|  91|33.92324|-118.28229|TRUE|FALSE|FALSE|TRUE
5692975|Quality Inn & Suites Los Angeles Airport - LAX|Inglewood, CA| 113|33.94493|-118.36455|FALSE|TRUE|FALSE|TRUE
5692975|Beverly Wilshire - Beverly Hills, A Four Seasons Hotel|Inglewood, CA|1024|34.06674|-118.40077|FALSE|FALSE|TRUE|TRUE
5692975|Hollywood Inn Suites Hotel|Inglewood, CA|  72|33.91615|-118.29309|TRUE|FALSE|FALSE|TRUE
5692975|La Quinta Inn & Suites by Wyndham Inglewood|Inglewood, CA| 117|33.93125|-118.34332|FALSE|TRUE|FALSE|TRUE
5692975|Hollywood Guest Inn|Inglewood, CA|  84|34.09773|-118.33696|TRUE|FALSE|FALSE|TRUE
5692975|The Beverly Hills Hotel|Inglewood, CA|1571|33.96168|-118.35313|FALSE|TRUE|TRUE|TRUE
5692975|Central Inn Motel|Inglewood, CA|  87|34.00935|-118.25629|TRUE|FALSE|FALSE|TRUE
5692975|LAX Stadium Inn - El Segundo/Inglewood|Inglewood, CA|  86|33.93112|-118.35535|TRUE|TRUE|FALSE|TRUE
5692975|Pendry West Hollywood|Inglewood, CA| 626|34.09440|-118.37379|FALSE|FALSE|TRUE|TRUE
5692975|Best Western Plus Suites Hotel - Los Angeles LAX Airport|Inglewood, CA| 152|33.94579|-118.36570|FALSE|TRUE|FALSE|TRUE
5692975|Casa Del Mar|Inglewood, CA| 882|34.00627|-118.49147|FALSE|FALSE|TRUE|TRUE
5692975|Gardena Terrace Inn|Inglewood, CA|  89|33.88616|-118.30890|TRUE|FALSE|FALSE|TRUE
5692975|Satellite Motel|Inglewood, CA|  91|33.92324|-118.28229|TRUE|FALSE|FALSE|TRUE
5692975|The Maybourne Beverly Hills|Inglewood, CA|1213|34.06797|-118.39875|FALSE|FALSE|TRUE|TRUE
5692975|The Peninsula Beverly Hills|Inglewood, CA|1041|34.06576|-118.41072|FALSE|FALSE|TRUE|TRUE
5692975|The London West Hollywood at Beverly Hills|Inglewood, CA| 531|34.08996|-118.38507|FALSE|FALSE|TRUE|TRUE
5692975|Rodeway Inn South Gate - Los Angeles South|Inglewood, CA|  92|33.95086|-118.18297|TRUE|FALSE|FALSE|TRUE
5692975|Holiday Inn Los Angeles - LAX Airport, an IHG Hotel|Inglewood, CA| 125|33.94620|-118.37092|FALSE|TRUE|FALSE|TRUE
5692975|Wingate by Wyndham Los Angeles International Airport LAX|Inglewood, CA| 105|33.94273|-118.36961|FALSE|TRUE|FALSE|TRUE
5692975|Comet Motel|Inglewood, CA|  91|33.93788|-118.26499|TRUE|FALSE|FALSE|TRUE
5692975|City Center Hotel|Inglewood, CA|  92|34.05151|-118.26500|TRUE|FALSE|FALSE|TRUE
5692975|Shutters on the Beach|Inglewood, CA| 939|34.00692|-118.49169|FALSE|FALSE|TRUE|TRUE
5692975|Antonio Hotel|Inglewood, CA|  97|33.96168|-118.35313|FALSE|TRUE|FALSE|TRUE
5692975|L'Ermitage Beverly Hills|Inglewood, CA| 776|34.07254|-118.39540|FALSE|FALSE|TRUE|TRUE
5692975|Four Seasons Los Angeles at Beverly Hills|Inglewood, CA| 988|34.07305|-118.38934|FALSE|FALSE|TRUE|TRUE
5692975|Royal Century Hotel|Inglewood, CA|  92|33.94491|-118.35159|TRUE|TRUE|FALSE|TRUE
5692975|H3 Inn & Suites - LAX Airport - Los Angeles|Inglewood, CA|  91|33.94569|-118.36044|TRUE|TRUE|FALSE|TRUE
5695225|The Oasis Tower at Seminole Hard Rock|Miami Gardens, FL| 669|26.05187| -80.21052|FALSE|FALSE|TRUE|TRUE
5695225|Grand Beach Hotel Surfside|Miami Gardens, FL|1087|25.88445| -80.12222|FALSE|FALSE|TRUE|TRUE
5695225|Red Carpet Inn Airport/Cruiseport|Miami Gardens, FL| 136|26.08635| -80.17466|TRUE|FALSE|FALSE|TRUE
5695225|Shalimar Motel|Miami Gardens, FL| 183|25.83379| -80.18447|TRUE|FALSE|FALSE|TRUE
5695225|AC Hotel by Marriott Miami Aventura|Miami Gardens, FL| 374|25.96770| -80.14225|FALSE|TRUE|FALSE|TRUE
5695225|Grand Beach Hotel Surfside West|Miami Gardens, FL| 838|25.88365| -80.12259|FALSE|FALSE|TRUE|TRUE
5695225|Sonesta Select Miami Lakes|Miami Gardens, FL| 236|25.91614| -80.32612|FALSE|TRUE|FALSE|TRUE
5695225|Hilton Aventura Miami|Miami Gardens, FL| 415|25.95325| -80.14345|FALSE|TRUE|FALSE|TRUE
5695225|Stadium Hotel|Miami Gardens, FL| 220|25.95790| -80.23885|FALSE|TRUE|FALSE|TRUE
5695225|Home2 Suites by Hilton Miramar FT. Lauderdale|Miami Gardens, FL| 172|25.98326| -80.34737|TRUE|FALSE|FALSE|TRUE
5695225|Pousada Suites|Miami Gardens, FL| 164|26.02938| -80.11573|TRUE|FALSE|FALSE|TRUE
5695225|Dream Inn|Miami Gardens, FL| 238|25.94204| -80.24560|FALSE|TRUE|FALSE|TRUE
5695225|The Harrison Hotel Downtown Hollywood|Miami Gardens, FL| 163|26.01073| -80.14622|TRUE|FALSE|FALSE|TRUE
5695225|Trump International Beach Resort|Miami Gardens, FL| 629|25.94320| -80.12061|FALSE|FALSE|TRUE|TRUE
5695225|Seminole Hard Rock Hotel and Casino|Miami Gardens, FL| 633|26.05082| -80.21155|FALSE|FALSE|TRUE|TRUE
5695225|Travelodge by Wyndham Miami Biscayne Bay|Miami Gardens, FL| 141|25.82499| -80.18661|TRUE|FALSE|FALSE|TRUE
5695225|The St. Regis Bal Harbour Resort|Miami Gardens, FL|1931|25.88909| -80.12241|FALSE|FALSE|TRUE|TRUE
5695225|Greniers|Miami Gardens, FL| 180|26.02505| -80.11578|TRUE|FALSE|FALSE|TRUE
5695225|SpringHill Suites by Marriott Fort Lauderdale Miramar|Miami Gardens, FL| 191|25.97424| -80.29263|FALSE|TRUE|FALSE|TRUE
5695225|Hyde Beach House|Miami Gardens, FL| 813|25.98685| -80.12071|FALSE|FALSE|TRUE|TRUE
5695225|Shell Motel|Miami Gardens, FL| 140|26.00112| -80.14249|TRUE|FALSE|FALSE|TRUE
5695225|May-Dee Suites|Miami Gardens, FL| 187|26.01073| -80.19495|TRUE|TRUE|FALSE|TRUE
5695225|The Altair Hotel Bay Harbor|Miami Gardens, FL| 758|25.88625| -80.13357|FALSE|FALSE|TRUE|TRUE
5695225|Hollywood Beach Hotels|Miami Gardens, FL| 208|25.94204| -80.24560|FALSE|TRUE|FALSE|TRUE
5695225|Miami Lakes Hotel|Miami Gardens, FL| 191|25.91206| -80.31126|FALSE|TRUE|FALSE|TRUE
5695225|Hilton Garden Inn Ft. Lauderdale SW/Miramar|Miami Gardens, FL| 168|25.98293| -80.34113|TRUE|FALSE|FALSE|TRUE
5695225|The Ritz-Carlton Bal Harbour, Miami|Miami Gardens, FL|1589|25.89900| -80.12330|FALSE|FALSE|TRUE|TRUE
5695225|WoodSpring Suites Miramar|Miami Gardens, FL| 190|25.97539| -80.29685|FALSE|TRUE|FALSE|TRUE
5695225|Four Seasons Hotel at The Surf Club|Miami Gardens, FL|3302|25.87772| -80.12142|FALSE|FALSE|TRUE|TRUE
5695240|Hollywood Beach Hotels|Miami Gardens, FL| 208|25.94204| -80.24560|FALSE|TRUE|FALSE|TRUE
5695240|AC Hotel by Marriott Miami Aventura|Miami Gardens, FL| 374|25.96770| -80.14225|FALSE|TRUE|FALSE|TRUE
5695240|Hilton Aventura Miami|Miami Gardens, FL| 415|25.95325| -80.14345|FALSE|TRUE|FALSE|TRUE
5695240|Dream Inn|Miami Gardens, FL| 238|25.94204| -80.24560|FALSE|TRUE|FALSE|TRUE
5695240|Seminole Hard Rock Hotel and Casino|Miami Gardens, FL| 633|26.05082| -80.21155|FALSE|FALSE|TRUE|TRUE
5695240|Sonesta Select Miami Lakes|Miami Gardens, FL| 236|25.91614| -80.32612|FALSE|TRUE|FALSE|TRUE
5695240|Travelodge by Wyndham Miami Biscayne Bay|Miami Gardens, FL| 141|25.82499| -80.18661|TRUE|FALSE|FALSE|TRUE
5695240|Four Seasons Hotel at The Surf Club|Miami Gardens, FL|3302|25.87772| -80.12142|FALSE|FALSE|TRUE|TRUE
5695240|Red Carpet Inn Airport/Cruiseport|Miami Gardens, FL| 136|26.08635| -80.17466|TRUE|FALSE|FALSE|TRUE
5695240|The Oasis Tower at Seminole Hard Rock|Miami Gardens, FL| 669|26.05187| -80.21052|FALSE|FALSE|TRUE|TRUE
5695240|Trump International Beach Resort|Miami Gardens, FL| 629|25.94320| -80.12061|FALSE|FALSE|TRUE|TRUE
5695240|Home2 Suites by Hilton Miramar FT. Lauderdale|Miami Gardens, FL| 172|25.98326| -80.34737|TRUE|FALSE|FALSE|TRUE
5695240|The St. Regis Bal Harbour Resort|Miami Gardens, FL|1931|25.88909| -80.12241|FALSE|FALSE|TRUE|TRUE
5695240|Grand Beach Hotel Surfside|Miami Gardens, FL|1087|25.88445| -80.12222|FALSE|FALSE|TRUE|TRUE
5695240|Stadium Hotel|Miami Gardens, FL| 220|25.95790| -80.23885|FALSE|TRUE|FALSE|TRUE
5695240|Pousada Suites|Miami Gardens, FL| 164|26.02938| -80.11573|TRUE|FALSE|FALSE|TRUE
5695240|The Ritz-Carlton Bal Harbour, Miami|Miami Gardens, FL|1589|25.89900| -80.12330|FALSE|FALSE|TRUE|TRUE
5695240|Grand Beach Hotel Surfside West|Miami Gardens, FL| 838|25.88365| -80.12259|FALSE|FALSE|TRUE|TRUE
5695240|Miami Lakes Hotel|Miami Gardens, FL| 191|25.91206| -80.31126|FALSE|TRUE|FALSE|TRUE
5695240|Shalimar Motel|Miami Gardens, FL| 183|25.83379| -80.18447|TRUE|FALSE|FALSE|TRUE
5695240|The Harrison Hotel Downtown Hollywood|Miami Gardens, FL| 163|26.01073| -80.14622|TRUE|FALSE|FALSE|TRUE
5695240|WoodSpring Suites Miramar|Miami Gardens, FL| 190|25.97539| -80.29685|FALSE|TRUE|FALSE|TRUE
5695240|Hyde Beach House|Miami Gardens, FL| 813|25.98685| -80.12071|FALSE|FALSE|TRUE|TRUE
5695240|SpringHill Suites by Marriott Fort Lauderdale Miramar|Miami Gardens, FL| 191|25.97424| -80.29263|FALSE|TRUE|FALSE|TRUE
5695240|The Altair Hotel Bay Harbor|Miami Gardens, FL| 758|25.88625| -80.13357|FALSE|FALSE|TRUE|TRUE
5695240|May-Dee Suites|Miami Gardens, FL| 187|26.01073| -80.19495|TRUE|TRUE|FALSE|TRUE
5695240|Hilton Garden Inn Ft. Lauderdale SW/Miramar|Miami Gardens, FL| 168|25.98293| -80.34113|TRUE|FALSE|FALSE|TRUE
5695240|Shell Motel|Miami Gardens, FL| 140|26.00112| -80.14249|TRUE|FALSE|FALSE|TRUE
5695240|Greniers|Miami Gardens, FL| 180|26.02505| -80.11578|TRUE|FALSE|FALSE|TRUE
5695243|Trump International Hotel & Tower Chicago|Chicago, IL| 616|41.88890| -87.62643|FALSE|FALSE|TRUE|TRUE
5695243|Sable at Navy Pier Chicago, Curio Collection by Hilton|Chicago, IL| 212|41.89179| -87.60354|FALSE|FALSE|TRUE|TRUE
5695243|The Blackstone, Autograph Collection|Chicago, IL| 139|41.87328| -87.62474|FALSE|TRUE|FALSE|TRUE
5695243|Ruby Room|Chicago, IL| 386|41.90320| -87.67168|FALSE|FALSE|TRUE|TRUE
5695243|Hilton Garden Inn Chicago McCormick Place|Chicago, IL| 106|41.85270| -87.62268|TRUE|TRUE|FALSE|TRUE
5695243|Club Quarters Hotel, Central Loop, Chicago|Chicago, IL| 101|41.87927| -87.63119|TRUE|FALSE|FALSE|TRUE
5695243|Hilton Garden Inn Chicago Downtown South Loop|Chicago, IL| 130|41.86909| -87.62566|FALSE|TRUE|FALSE|TRUE
5695243|Freehand Chicago|Chicago, IL|  84|41.89238| -87.62732|TRUE|FALSE|FALSE|TRUE
5695243|Hampton Inn Chicago McCormick Place|Chicago, IL| 109|41.85273| -87.62323|TRUE|TRUE|FALSE|TRUE
5695243|Central Loop Hotel|Chicago, IL| 110|41.87925| -87.63111|FALSE|TRUE|FALSE|TRUE
5695243|The Ritz-Carlton, Chicago|Chicago, IL| 633|41.89782| -87.62228|FALSE|FALSE|TRUE|TRUE
5695243|Nobu Hotel Chicago|Chicago, IL| 440|41.88473| -87.64949|FALSE|FALSE|TRUE|TRUE
5695243|Home2 Suites by Hilton Chicago McCormick Place|Chicago, IL| 102|41.85269| -87.62282|TRUE|TRUE|FALSE|TRUE
5695243|The Whitehall Hotel|Chicago, IL|  99|41.89891| -87.62571|TRUE|FALSE|FALSE|TRUE
5695243|The Peninsula Chicago|Chicago, IL| 763|41.89620| -87.62515|FALSE|FALSE|TRUE|TRUE
5695243|Travelodge by Wyndham Downtown Chicago|Chicago, IL| 109|41.87429| -87.62539|TRUE|TRUE|FALSE|TRUE
5695243|Best Western Grant Park Hotel|Chicago, IL|  95|41.86909| -87.62468|TRUE|TRUE|FALSE|TRUE
5695243|Hotel BnB-2|Chicago, IL|  92|41.89585| -87.63797|TRUE|FALSE|FALSE|TRUE
5695243|Hilton Chicago|Chicago, IL| 180|41.87246| -87.62478|FALSE|TRUE|FALSE|TRUE
5695243|Four Seasons Hotel Chicago|Chicago, IL| 581|41.89961| -87.62488|FALSE|FALSE|TRUE|TRUE
5695243|Waldorf Astoria Chicago|Chicago, IL| 681|41.89974| -87.62748|FALSE|FALSE|TRUE|TRUE
5695243|The Langham, Chicago|Chicago, IL| 608|41.88842| -87.62751|FALSE|FALSE|TRUE|TRUE
5695243|Selina Chicago|Chicago, IL|  92|41.89848| -87.62562|TRUE|FALSE|FALSE|TRUE
5695243|Found Hotel Chicago River North|Chicago, IL|  84|41.89287| -87.63377|TRUE|FALSE|FALSE|TRUE
5695243|Congress Plaza Hotel|Chicago, IL| 147|41.87491| -87.62482|FALSE|TRUE|FALSE|TRUE
5695243|Park Hyatt Chicago|Chicago, IL| 586|41.89724| -87.62527|FALSE|FALSE|TRUE|TRUE
5695257|Hampton Inn Chicago McCormick Place|Chicago, IL| 109|41.85273| -87.62323|TRUE|TRUE|FALSE|TRUE
5695257|The Langham, Chicago|Chicago, IL| 608|41.88842| -87.62751|FALSE|FALSE|TRUE|TRUE
5695257|Nobu Hotel Chicago|Chicago, IL| 440|41.88473| -87.64949|FALSE|FALSE|TRUE|TRUE
5695257|The Peninsula Chicago|Chicago, IL| 763|41.89620| -87.62515|FALSE|FALSE|TRUE|TRUE
5695257|Trump International Hotel & Tower Chicago|Chicago, IL| 616|41.88890| -87.62643|FALSE|FALSE|TRUE|TRUE
5695257|The Blackstone, Autograph Collection|Chicago, IL| 139|41.87328| -87.62474|FALSE|TRUE|FALSE|TRUE
5695257|Best Western Grant Park Hotel|Chicago, IL|  95|41.86909| -87.62468|TRUE|TRUE|FALSE|TRUE
5695257|Sable at Navy Pier Chicago, Curio Collection by Hilton|Chicago, IL| 212|41.89179| -87.60354|FALSE|FALSE|TRUE|TRUE
5695257|Waldorf Astoria Chicago|Chicago, IL| 681|41.89974| -87.62748|FALSE|FALSE|TRUE|TRUE
5695257|Park Hyatt Chicago|Chicago, IL| 586|41.89724| -87.62527|FALSE|FALSE|TRUE|TRUE
5695257|Hilton Garden Inn Chicago McCormick Place|Chicago, IL| 106|41.85270| -87.62268|TRUE|TRUE|FALSE|TRUE
5695257|Congress Plaza Hotel|Chicago, IL| 147|41.87491| -87.62482|FALSE|TRUE|FALSE|TRUE
5695257|Four Seasons Hotel Chicago|Chicago, IL| 581|41.89961| -87.62488|FALSE|FALSE|TRUE|TRUE
5695257|Ruby Room|Chicago, IL| 386|41.90320| -87.67168|FALSE|FALSE|TRUE|TRUE
5695257|Hotel BnB-2|Chicago, IL|  92|41.89585| -87.63797|TRUE|FALSE|FALSE|TRUE
5695257|Hilton Chicago|Chicago, IL| 180|41.87246| -87.62478|FALSE|TRUE|FALSE|TRUE
5695257|Freehand Chicago|Chicago, IL|  84|41.89238| -87.62732|TRUE|FALSE|FALSE|TRUE
5695257|Central Loop Hotel|Chicago, IL| 110|41.87925| -87.63111|FALSE|TRUE|FALSE|TRUE
5695257|The Whitehall Hotel|Chicago, IL|  99|41.89891| -87.62571|TRUE|FALSE|FALSE|TRUE
5695257|Hilton Garden Inn Chicago Downtown South Loop|Chicago, IL| 130|41.86909| -87.62566|FALSE|TRUE|FALSE|TRUE
5695257|Travelodge by Wyndham Downtown Chicago|Chicago, IL| 109|41.87429| -87.62539|TRUE|TRUE|FALSE|TRUE
5695257|The Ritz-Carlton, Chicago|Chicago, IL| 633|41.89782| -87.62228|FALSE|FALSE|TRUE|TRUE
5695257|Home2 Suites by Hilton Chicago McCormick Place|Chicago, IL| 102|41.85269| -87.62282|TRUE|TRUE|FALSE|TRUE
5695257|Found Hotel Chicago River North|Chicago, IL|  84|41.89287| -87.63377|TRUE|FALSE|FALSE|TRUE
5695257|Selina Chicago|Chicago, IL|  92|41.89848| -87.62562|TRUE|FALSE|FALSE|TRUE
5695257|Club Quarters Hotel, Central Loop, Chicago|Chicago, IL| 101|41.87927| -87.63119|TRUE|FALSE|FALSE|TRUE
5695259|Hilton Chicago|Chicago, IL| 180|41.87246| -87.62478|FALSE|TRUE|FALSE|TRUE
5695259|The Blackstone, Autograph Collection|Chicago, IL| 139|41.87328| -87.62474|FALSE|TRUE|FALSE|TRUE
5695259|Selina Chicago|Chicago, IL|  92|41.89848| -87.62562|TRUE|FALSE|FALSE|TRUE
5695259|The Whitehall Hotel|Chicago, IL|  99|41.89891| -87.62571|TRUE|FALSE|FALSE|TRUE
5695259|The Ritz-Carlton, Chicago|Chicago, IL| 633|41.89782| -87.62228|FALSE|FALSE|TRUE|TRUE
5695259|Waldorf Astoria Chicago|Chicago, IL| 681|41.89974| -87.62748|FALSE|FALSE|TRUE|TRUE
5695259|Hampton Inn Chicago McCormick Place|Chicago, IL| 109|41.85273| -87.62323|TRUE|TRUE|FALSE|TRUE
5695259|Travelodge by Wyndham Downtown Chicago|Chicago, IL| 109|41.87429| -87.62539|TRUE|TRUE|FALSE|TRUE
5695259|Found Hotel Chicago River North|Chicago, IL|  84|41.89287| -87.63377|TRUE|FALSE|FALSE|TRUE
5695259|Club Quarters Hotel, Central Loop, Chicago|Chicago, IL| 101|41.87927| -87.63119|TRUE|FALSE|FALSE|TRUE
5695259|Sable at Navy Pier Chicago, Curio Collection by Hilton|Chicago, IL| 212|41.89179| -87.60354|FALSE|FALSE|TRUE|TRUE
5695259|Freehand Chicago|Chicago, IL|  84|41.89238| -87.62732|TRUE|FALSE|FALSE|TRUE
5695259|Trump International Hotel & Tower Chicago|Chicago, IL| 616|41.88890| -87.62643|FALSE|FALSE|TRUE|TRUE
5695259|Hilton Garden Inn Chicago Downtown South Loop|Chicago, IL| 130|41.86909| -87.62566|FALSE|TRUE|FALSE|TRUE
5695259|Hotel BnB-2|Chicago, IL|  92|41.89585| -87.63797|TRUE|FALSE|FALSE|TRUE
5695259|The Langham, Chicago|Chicago, IL| 608|41.88842| -87.62751|FALSE|FALSE|TRUE|TRUE
5695259|The Peninsula Chicago|Chicago, IL| 763|41.89620| -87.62515|FALSE|FALSE|TRUE|TRUE
5695259|Home2 Suites by Hilton Chicago McCormick Place|Chicago, IL| 102|41.85269| -87.62282|TRUE|TRUE|FALSE|TRUE
5695259|Hilton Garden Inn Chicago McCormick Place|Chicago, IL| 106|41.85270| -87.62268|TRUE|TRUE|FALSE|TRUE
5695259|Central Loop Hotel|Chicago, IL| 110|41.87925| -87.63111|FALSE|TRUE|FALSE|TRUE
5695259|Park Hyatt Chicago|Chicago, IL| 586|41.89724| -87.62527|FALSE|FALSE|TRUE|TRUE
5695259|Four Seasons Hotel Chicago|Chicago, IL| 581|41.89961| -87.62488|FALSE|FALSE|TRUE|TRUE
5695259|Nobu Hotel Chicago|Chicago, IL| 440|41.88473| -87.64949|FALSE|FALSE|TRUE|TRUE
5695259|Best Western Grant Park Hotel|Chicago, IL|  95|41.86909| -87.62468|TRUE|TRUE|FALSE|TRUE
5695259|Ruby Room|Chicago, IL| 386|41.90320| -87.67168|FALSE|FALSE|TRUE|TRUE
5695259|Congress Plaza Hotel|Chicago, IL| 147|41.87491| -87.62482|FALSE|TRUE|FALSE|TRUE
5695261|Comfort Inn Foxboro – Mansfield|Foxborough, MA| 177|42.03943| -71.23985|TRUE|TRUE|TRUE|TRUE
5695261|Best Western North Attleboro / Providence Beltway|Foxborough, MA| 149|41.95922| -71.34274|TRUE|FALSE|TRUE|TRUE
5695261|Hampton Inn Boston - Norwood|Foxborough, MA| 123|42.19696| -71.18431|TRUE|FALSE|FALSE|TRUE
5695261|Residence Inn by Marriott Foxborough|Foxborough, MA| 216|42.04473| -71.23833|FALSE|TRUE|TRUE|TRUE
5695261|Econo Lodge Sharon|Foxborough, MA|  85|42.12519| -71.23042|TRUE|TRUE|FALSE|TRUE
5695261|SpringHill Suites by Marriott Wrentham Plainville|Foxborough, MA| 462|42.03871| -71.31233|FALSE|FALSE|TRUE|TRUE
5695261|Best Western Plus The Inn at Sharon/Foxboro|Foxborough, MA| 178|42.12324| -71.23031|FALSE|TRUE|TRUE|TRUE
5695261|Sonesta Select Boston Foxborough Mansfield|Foxborough, MA| 189|42.03978| -71.23689|FALSE|TRUE|TRUE|TRUE
5695261|Courtyard by Marriott Boston Norwood/Canton|Foxborough, MA| 141|42.17532| -71.19010|TRUE|FALSE|FALSE|TRUE
5695261|Home2 Suites by Hilton Walpole Foxboro|Foxborough, MA| 221|42.10473| -71.25585|FALSE|TRUE|TRUE|TRUE
5695261|Residence Inn by Marriott Boston Norwood|Foxborough, MA| 140|42.16943| -71.20033|TRUE|FALSE|FALSE|TRUE
5695261|Best Western Plus Executive Residency Franklin|Foxborough, MA| 110|42.06149| -71.39714|TRUE|FALSE|FALSE|TRUE
5695261|Hampton Inn Franklin/Milford|Foxborough, MA| 151|42.06515| -71.39754|TRUE|FALSE|TRUE|TRUE
5695261|Hilton Garden Inn Foxborough Patriot Place|Foxborough, MA| 356|42.09150| -71.26865|FALSE|TRUE|TRUE|TRUE
5695261|Americas Best Value Inn Foxboro|Foxborough, MA| 100|42.08196| -71.28072|TRUE|TRUE|FALSE|TRUE
5695261|Renaissance by Marriott Boston Patriot Place Hotel|Foxborough, MA| 345|42.09045| -71.26853|FALSE|TRUE|TRUE|TRUE
5695261|Red Roof Inn PLUS+ Boston - Mansfield/ Foxboro|Foxborough, MA| 108|42.03411| -71.23668|TRUE|TRUE|FALSE|TRUE
5695277|Best Western Plus The Inn at Sharon/Foxboro|Foxborough, MA| 178|42.12324| -71.23031|FALSE|TRUE|TRUE|TRUE
5695277|Best Western Plus Executive Residency Franklin|Foxborough, MA| 110|42.06149| -71.39714|TRUE|FALSE|FALSE|TRUE
5695277|Courtyard by Marriott Boston Norwood/Canton|Foxborough, MA| 141|42.17532| -71.19010|TRUE|FALSE|FALSE|TRUE
5695277|Econo Lodge Sharon|Foxborough, MA|  85|42.12519| -71.23042|TRUE|TRUE|FALSE|TRUE
5695277|Hilton Garden Inn Foxborough Patriot Place|Foxborough, MA| 356|42.09150| -71.26865|FALSE|TRUE|TRUE|TRUE
5695277|Best Western North Attleboro / Providence Beltway|Foxborough, MA| 149|41.95922| -71.34274|TRUE|FALSE|TRUE|TRUE
5695277|SpringHill Suites by Marriott Wrentham Plainville|Foxborough, MA| 462|42.03871| -71.31233|FALSE|FALSE|TRUE|TRUE
5695277|Comfort Inn Foxboro – Mansfield|Foxborough, MA| 177|42.03943| -71.23985|TRUE|TRUE|TRUE|TRUE
5695277|Hampton Inn Boston - Norwood|Foxborough, MA| 123|42.19696| -71.18431|TRUE|FALSE|FALSE|TRUE
5695277|Residence Inn by Marriott Boston Norwood|Foxborough, MA| 140|42.16943| -71.20033|TRUE|FALSE|FALSE|TRUE
5695277|Residence Inn by Marriott Foxborough|Foxborough, MA| 216|42.04473| -71.23833|FALSE|TRUE|TRUE|TRUE
5695277|Hampton Inn Franklin/Milford|Foxborough, MA| 151|42.06515| -71.39754|TRUE|FALSE|TRUE|TRUE
5695277|Sonesta Select Boston Foxborough Mansfield|Foxborough, MA| 189|42.03978| -71.23689|FALSE|TRUE|TRUE|TRUE
5695277|Home2 Suites by Hilton Walpole Foxboro|Foxborough, MA| 221|42.10473| -71.25585|FALSE|TRUE|TRUE|TRUE
5695277|Americas Best Value Inn Foxboro|Foxborough, MA| 100|42.08196| -71.28072|TRUE|TRUE|FALSE|TRUE
5695277|Renaissance by Marriott Boston Patriot Place Hotel|Foxborough, MA| 345|42.09045| -71.26853|FALSE|TRUE|TRUE|TRUE
5695277|Red Roof Inn PLUS+ Boston - Mansfield/ Foxboro|Foxborough, MA| 108|42.03411| -71.23668|TRUE|TRUE|FALSE|TRUE
5695279|Conrad Washington, DC|Landover, MD| 387|38.90137| -77.02528|FALSE|FALSE|TRUE|TRUE
5695279|Salamander Washington DC|Landover, MD| 401|38.88366| -77.03032|FALSE|FALSE|TRUE|TRUE
5695279|Extended Stay America Suites Washington DC Landover|Landover, MD| 113|38.93400| -76.89664|FALSE|TRUE|FALSE|TRUE
5695279|Wyndham Garden Washington DC Area|Landover, MD| 124|38.93725| -76.91708|FALSE|FALSE|TRUE|TRUE
5695279|Metro Points Hotel|Landover, MD|  97|38.95892| -76.86889|TRUE|FALSE|FALSE|TRUE
5695279|Waldorf Astoria Washington DC|Landover, MD| 552|38.89411| -77.02758|FALSE|FALSE|TRUE|TRUE
5695279|Hyatt Place Washington DC/US Capitol|Landover, MD|  97|38.90728| -77.00774|TRUE|FALSE|FALSE|TRUE
5695279|Generator Hotel Washington DC|Landover, MD| 116|38.92562| -76.88939|FALSE|TRUE|FALSE|TRUE
5695279|Super 8 by Wyndham Camp Springs/Andrews AFB DC Area|Landover, MD|  91|38.81399| -76.89603|TRUE|FALSE|FALSE|TRUE
5695279|Holiday Inn Express Washington DC - BW Parkway, an IHG Hotel|Landover, MD| 124|38.93820| -76.91022|FALSE|FALSE|TRUE|TRUE
5695279|Quality Inn Takoma Park|Landover, MD| 100|38.98395| -76.98675|TRUE|FALSE|FALSE|TRUE
5695279|Courtyard Largo Medical Center Drive|Landover, MD| 123|38.90692| -76.84692|FALSE|TRUE|FALSE|TRUE
5695279|Coda on Half a Placemakr Experience|Landover, MD| 161|38.87716| -77.00789|FALSE|FALSE|TRUE|TRUE
5695279|Homewood Suites by Hilton Largo/Washington, D.C.|Landover, MD| 158|38.91444| -76.84935|FALSE|TRUE|TRUE|TRUE
5695279|Red Roof Inn Washington DC - Lanham|Landover, MD| 100|38.96478| -76.85962|TRUE|FALSE|FALSE|TRUE
5695279|Comfort Inn Largo-Washington DC East|Landover, MD| 109|38.89449| -76.84227|FALSE|TRUE|FALSE|TRUE
5695279|Staybridge Suites Washington DC East - Largo, an IHG Hotel|Landover, MD| 155|38.90699| -76.84066|FALSE|TRUE|TRUE|TRUE
5695279|Days Inn by Wyndham Camp Springs/Andrews AFB DC Area|Landover, MD|  72|38.81392| -76.89562|TRUE|FALSE|FALSE|TRUE
5695279|Days Inn by Wyndham Lanham Washington D.C|Landover, MD|  86|38.96226| -76.86088|TRUE|FALSE|FALSE|TRUE
5695279|Best Western Capital Beltway|Landover, MD|  91|38.96184| -76.86511|TRUE|FALSE|FALSE|TRUE
5695279|Pendry Washington DC - The Wharf|Landover, MD| 431|38.87756| -77.02241|FALSE|FALSE|TRUE|TRUE
5695279|Courtyard by Marriott New Carrollton|Landover, MD| 114|38.94771| -76.86331|FALSE|TRUE|FALSE|TRUE
5695279|Econo Lodge Andrews Air Force Base|Landover, MD|  90|38.78201| -76.89081|TRUE|FALSE|FALSE|TRUE
5695279|WoodSpring Suites Washington DC East Arena Drive|Landover, MD|  88|38.90793| -76.85133|TRUE|TRUE|FALSE|TRUE
5695279|Holiday Inn Express I-95 Capitol Beltway-Largo, an IHG Hotel|Landover, MD| 116|38.91377| -76.84897|FALSE|TRUE|FALSE|TRUE
5695279|DoubleTree by Hilton Largo/Washington DC|Landover, MD| 143|38.91566| -76.84879|FALSE|TRUE|TRUE|TRUE
5695281|Staybridge Suites Washington DC East - Largo, an IHG Hotel|Landover, MD| 155|38.90699| -76.84066|FALSE|TRUE|TRUE|TRUE
5695281|Wyndham Garden Washington DC Area|Landover, MD| 124|38.93725| -76.91708|FALSE|FALSE|TRUE|TRUE
5695281|Extended Stay America Suites Washington DC Landover|Landover, MD| 113|38.93400| -76.89664|FALSE|TRUE|FALSE|TRUE
5695281|Salamander Washington DC|Landover, MD| 401|38.88366| -77.03032|FALSE|FALSE|TRUE|TRUE
5695281|Hyatt Place Washington DC/US Capitol|Landover, MD|  97|38.90728| -77.00774|TRUE|FALSE|FALSE|TRUE
5695281|Holiday Inn Express Washington DC - BW Parkway, an IHG Hotel|Landover, MD| 124|38.93820| -76.91022|FALSE|FALSE|TRUE|TRUE
5695281|Homewood Suites by Hilton Largo/Washington, D.C.|Landover, MD| 158|38.91444| -76.84935|FALSE|TRUE|TRUE|TRUE
5695281|Generator Hotel Washington DC|Landover, MD| 116|38.92562| -76.88939|FALSE|TRUE|FALSE|TRUE
5695281|Econo Lodge Andrews Air Force Base|Landover, MD|  90|38.78201| -76.89081|TRUE|FALSE|FALSE|TRUE
5695281|Metro Points Hotel|Landover, MD|  97|38.95892| -76.86889|TRUE|FALSE|FALSE|TRUE
5695281|DoubleTree by Hilton Largo/Washington DC|Landover, MD| 143|38.91566| -76.84879|FALSE|TRUE|TRUE|TRUE
5695281|Super 8 by Wyndham Camp Springs/Andrews AFB DC Area|Landover, MD|  91|38.81399| -76.89603|TRUE|FALSE|FALSE|TRUE
5695281|Days Inn by Wyndham Lanham Washington D.C|Landover, MD|  86|38.96226| -76.86088|TRUE|FALSE|FALSE|TRUE
5695281|Courtyard Largo Medical Center Drive|Landover, MD| 123|38.90692| -76.84692|FALSE|TRUE|FALSE|TRUE
5695281|Conrad Washington, DC|Landover, MD| 387|38.90137| -77.02528|FALSE|FALSE|TRUE|TRUE
5695281|Holiday Inn Express I-95 Capitol Beltway-Largo, an IHG Hotel|Landover, MD| 116|38.91377| -76.84897|FALSE|TRUE|FALSE|TRUE
5695281|Best Western Capital Beltway|Landover, MD|  91|38.96184| -76.86511|TRUE|FALSE|FALSE|TRUE
5695281|Courtyard by Marriott New Carrollton|Landover, MD| 114|38.94771| -76.86331|FALSE|TRUE|FALSE|TRUE
5695281|WoodSpring Suites Washington DC East Arena Drive|Landover, MD|  88|38.90793| -76.85133|TRUE|TRUE|FALSE|TRUE
5695281|Pendry Washington DC - The Wharf|Landover, MD| 431|38.87756| -77.02241|FALSE|FALSE|TRUE|TRUE
5695281|Days Inn by Wyndham Camp Springs/Andrews AFB DC Area|Landover, MD|  72|38.81392| -76.89562|TRUE|FALSE|FALSE|TRUE
5695281|Coda on Half a Placemakr Experience|Landover, MD| 161|38.87716| -77.00789|FALSE|FALSE|TRUE|TRUE
5695281|Red Roof Inn Washington DC - Lanham|Landover, MD| 100|38.96478| -76.85962|TRUE|FALSE|FALSE|TRUE
5695281|Quality Inn Takoma Park|Landover, MD| 100|38.98395| -76.98675|TRUE|FALSE|FALSE|TRUE
5695281|Waldorf Astoria Washington DC|Landover, MD| 552|38.89411| -77.02758|FALSE|FALSE|TRUE|TRUE
5695281|Comfort Inn Largo-Washington DC East|Landover, MD| 109|38.89449| -76.84227|FALSE|TRUE|FALSE|TRUE
5695295|Days Inn by Wyndham Lanham Washington D.C|Landover, MD|  86|38.96226| -76.86088|TRUE|FALSE|FALSE|TRUE
5695295|Salamander Washington DC|Landover, MD| 401|38.88366| -77.03032|FALSE|FALSE|TRUE|TRUE
5695295|Econo Lodge Andrews Air Force Base|Landover, MD|  90|38.78201| -76.89081|TRUE|FALSE|FALSE|TRUE
5695295|Extended Stay America Suites Washington DC Landover|Landover, MD| 113|38.93400| -76.89664|FALSE|TRUE|FALSE|TRUE
5695295|Holiday Inn Express I-95 Capitol Beltway-Largo, an IHG Hotel|Landover, MD| 116|38.91377| -76.84897|FALSE|TRUE|FALSE|TRUE
5695295|Quality Inn Takoma Park|Landover, MD| 100|38.98395| -76.98675|TRUE|FALSE|FALSE|TRUE
5695295|Super 8 by Wyndham Camp Springs/Andrews AFB DC Area|Landover, MD|  91|38.81399| -76.89603|TRUE|FALSE|FALSE|TRUE
5695295|Staybridge Suites Washington DC East - Largo, an IHG Hotel|Landover, MD| 155|38.90699| -76.84066|FALSE|TRUE|TRUE|TRUE
5695295|WoodSpring Suites Washington DC East Arena Drive|Landover, MD|  88|38.90793| -76.85133|TRUE|TRUE|FALSE|TRUE
5695295|Metro Points Hotel|Landover, MD|  97|38.95892| -76.86889|TRUE|FALSE|FALSE|TRUE
5695295|Coda on Half a Placemakr Experience|Landover, MD| 161|38.87716| -77.00789|FALSE|FALSE|TRUE|TRUE
5695295|Conrad Washington, DC|Landover, MD| 387|38.90137| -77.02528|FALSE|FALSE|TRUE|TRUE
5695295|Hyatt Place Washington DC/US Capitol|Landover, MD|  97|38.90728| -77.00774|TRUE|FALSE|FALSE|TRUE
5695295|DoubleTree by Hilton Largo/Washington DC|Landover, MD| 143|38.91566| -76.84879|FALSE|TRUE|TRUE|TRUE
5695295|Generator Hotel Washington DC|Landover, MD| 116|38.92562| -76.88939|FALSE|TRUE|FALSE|TRUE
5695295|Wyndham Garden Washington DC Area|Landover, MD| 124|38.93725| -76.91708|FALSE|FALSE|TRUE|TRUE
5695295|Comfort Inn Largo-Washington DC East|Landover, MD| 109|38.89449| -76.84227|FALSE|TRUE|FALSE|TRUE
5695295|Waldorf Astoria Washington DC|Landover, MD| 552|38.89411| -77.02758|FALSE|FALSE|TRUE|TRUE
5695295|Days Inn by Wyndham Camp Springs/Andrews AFB DC Area|Landover, MD|  72|38.81392| -76.89562|TRUE|FALSE|FALSE|TRUE
5695295|Red Roof Inn Washington DC - Lanham|Landover, MD| 100|38.96478| -76.85962|TRUE|FALSE|FALSE|TRUE
5695295|Holiday Inn Express Washington DC - BW Parkway, an IHG Hotel|Landover, MD| 124|38.93820| -76.91022|FALSE|FALSE|TRUE|TRUE
5695295|Courtyard Largo Medical Center Drive|Landover, MD| 123|38.90692| -76.84692|FALSE|TRUE|FALSE|TRUE
5695295|Pendry Washington DC - The Wharf|Landover, MD| 431|38.87756| -77.02241|FALSE|FALSE|TRUE|TRUE
5695295|Best Western Capital Beltway|Landover, MD|  91|38.96184| -76.86511|TRUE|FALSE|FALSE|TRUE
5695295|Courtyard by Marriott New Carrollton|Landover, MD| 114|38.94771| -76.86331|FALSE|TRUE|FALSE|TRUE
5695295|Homewood Suites by Hilton Largo/Washington, D.C.|Landover, MD| 158|38.91444| -76.84935|FALSE|TRUE|TRUE|TRUE
5695297|Four Points by Sheraton Suites Tampa Airport Westshore|Tampa, FL| 173|27.95163| -82.51853|FALSE|TRUE|FALSE|TRUE
5695297|Extended Stay America Suites Tampa North Airport|Tampa, FL| 119|27.99748| -82.54671|TRUE|FALSE|FALSE|TRUE
5695297|Econo Lodge Airport at RJ Stadium|Tampa, FL| 115|27.97587| -82.50333|TRUE|TRUE|FALSE|TRUE
5695297|Tampa Airport Marriott|Tampa, FL| 305|27.98187| -82.53461|FALSE|TRUE|TRUE|TRUE
5695297|Hotel South Tampa & Suites|Tampa, FL| 138|27.93392| -82.50577|TRUE|FALSE|FALSE|TRUE
5695297|La Quinta Inn & Suites by Wyndham Tampa Fairgrounds - Casino|Tampa, FL| 118|27.98951| -82.35775|TRUE|FALSE|FALSE|TRUE
5695297|Extended Stay America Premier Suites Tampa Fairgrounds Casin|Tampa, FL| 129|28.00164| -82.35368|TRUE|FALSE|FALSE|TRUE
5695297|The Tampa EDITION|Tampa, FL| 623|27.94369| -82.45085|FALSE|FALSE|TRUE|TRUE
5695297|Hilton Tampa Airport Westshore|Tampa, FL| 183|27.96260| -82.51278|FALSE|TRUE|FALSE|TRUE
5695297|Extended Stay America Suites Tampa Airport Memorial Hwy|Tampa, FL| 119|28.00674| -82.59229|TRUE|FALSE|FALSE|TRUE
5695297|Hyatt House Tampa Airport Westshore|Tampa, FL| 192|27.95692| -82.53262|FALSE|TRUE|TRUE|TRUE
5695297|Rodeway Inn Near Ybor City - Casino|Tampa, FL|  94|27.96992| -82.40352|TRUE|FALSE|FALSE|TRUE
5695297|Tampa Marriott Water Street|Tampa, FL| 409|27.94091| -82.45387|FALSE|FALSE|TRUE|TRUE
5695297|Embassy Suites by Hilton Tampa Downtown Convention Center|Tampa, FL| 213|27.94232| -82.45476|FALSE|FALSE|TRUE|TRUE
5695297|Grand Hyatt Tampa Bay|Tampa, FL| 387|27.96532| -82.55006|FALSE|FALSE|TRUE|TRUE
5695297|Hyatt Place Tampa Downtown|Tampa, FL| 192|27.94781| -82.45653|FALSE|FALSE|TRUE|TRUE
5695297|Holiday Inn Tampa Westshore - Airport Area, an IHG Hotel|Tampa, FL| 174|27.95161| -82.52501|FALSE|TRUE|FALSE|TRUE
5695297|La Quinta Inn by Wyndham Tampa Bay Airport|Tampa, FL| 161|27.95908| -82.52582|FALSE|TRUE|FALSE|TRUE
5695297|Quality Inn and Conference Center Tampa-Brandon|Tampa, FL| 138|28.05399| -82.42903|TRUE|FALSE|FALSE|TRUE
5695297|WoodSpring Suites Tampa Airport North Veterans Expressway|Tampa, FL| 118|28.03423| -82.54336|TRUE|FALSE|FALSE|TRUE
5695297|Hampton Inn & Suites Tampa Airport Avion Park Westshore|Tampa, FL| 192|27.95936| -82.53385|FALSE|TRUE|TRUE|TRUE
5695297|The Westshore Grand, A Tribute Portfolio Hotel, Tampa|Tampa, FL| 163|27.94355| -82.52540|FALSE|TRUE|FALSE|TRUE
5695297|JW Marriott Tampa Water Street|Tampa, FL| 495|27.94191| -82.45367|FALSE|FALSE|TRUE|TRUE
5695297|Value Lodge Busch Gardens Tampa|Tampa, FL| 118|28.03707| -82.41946|TRUE|FALSE|FALSE|TRUE
5695297|Epicurean Hotel, Autograph Collection|Tampa, FL| 443|27.93072| -82.48342|FALSE|FALSE|TRUE|TRUE
5695297|Quality Inn & Suites Near Fairgrounds Ybor City|Tampa, FL| 138|27.96827| -82.40370|TRUE|FALSE|FALSE|TRUE
5695297|Seminole Hard Rock Hotel & Casino Tampa|Tampa, FL| 453|27.99338| -82.37198|FALSE|FALSE|TRUE|TRUE
5695297|Old West Studio Lofts|Tampa, FL| 205|27.95955| -82.48310|FALSE|TRUE|TRUE|TRUE
5695297|Econo Lodge Busch Gardens|Tampa, FL| 120|28.03202| -82.44045|TRUE|FALSE|FALSE|TRUE
5695311|Hotel South Tampa & Suites|Tampa, FL| 138|27.93392| -82.50577|TRUE|FALSE|FALSE|TRUE
5695311|Econo Lodge Busch Gardens|Tampa, FL| 120|28.03202| -82.44045|TRUE|FALSE|FALSE|TRUE
5695311|Hyatt Place Tampa Downtown|Tampa, FL| 192|27.94781| -82.45653|FALSE|FALSE|TRUE|TRUE
5695311|Four Points by Sheraton Suites Tampa Airport Westshore|Tampa, FL| 173|27.95163| -82.51853|FALSE|TRUE|FALSE|TRUE
5695311|Tampa Airport Marriott|Tampa, FL| 305|27.98187| -82.53461|FALSE|TRUE|TRUE|TRUE
5695311|Embassy Suites by Hilton Tampa Downtown Convention Center|Tampa, FL| 213|27.94232| -82.45476|FALSE|FALSE|TRUE|TRUE
5695311|Old West Studio Lofts|Tampa, FL| 205|27.95955| -82.48310|FALSE|TRUE|TRUE|TRUE
5695311|Grand Hyatt Tampa Bay|Tampa, FL| 387|27.96532| -82.55006|FALSE|FALSE|TRUE|TRUE
5695311|Tampa Marriott Water Street|Tampa, FL| 409|27.94091| -82.45387|FALSE|FALSE|TRUE|TRUE
5695311|WoodSpring Suites Tampa Airport North Veterans Expressway|Tampa, FL| 118|28.03423| -82.54336|TRUE|FALSE|FALSE|TRUE
5695311|Hampton Inn & Suites Tampa Airport Avion Park Westshore|Tampa, FL| 192|27.95936| -82.53385|FALSE|TRUE|TRUE|TRUE
5695311|La Quinta Inn & Suites by Wyndham Tampa Fairgrounds - Casino|Tampa, FL| 118|27.98951| -82.35775|TRUE|FALSE|FALSE|TRUE
5695311|Quality Inn & Suites Near Fairgrounds Ybor City|Tampa, FL| 138|27.96827| -82.40370|TRUE|FALSE|FALSE|TRUE
5695311|Quality Inn and Conference Center Tampa-Brandon|Tampa, FL| 138|28.05399| -82.42903|TRUE|FALSE|FALSE|TRUE
5695311|La Quinta Inn by Wyndham Tampa Bay Airport|Tampa, FL| 161|27.95908| -82.52582|FALSE|TRUE|FALSE|TRUE
5695311|Hyatt House Tampa Airport Westshore|Tampa, FL| 192|27.95692| -82.53262|FALSE|TRUE|TRUE|TRUE
5695311|The Tampa EDITION|Tampa, FL| 623|27.94369| -82.45085|FALSE|FALSE|TRUE|TRUE
5695311|Epicurean Hotel, Autograph Collection|Tampa, FL| 443|27.93072| -82.48342|FALSE|FALSE|TRUE|TRUE
5695311|Extended Stay America Premier Suites Tampa Fairgrounds Casin|Tampa, FL| 129|28.00164| -82.35368|TRUE|FALSE|FALSE|TRUE
5695311|Extended Stay America Suites Tampa Airport Memorial Hwy|Tampa, FL| 119|28.00674| -82.59229|TRUE|FALSE|FALSE|TRUE
5695311|Extended Stay America Suites Tampa North Airport|Tampa, FL| 119|27.99748| -82.54671|TRUE|FALSE|FALSE|TRUE
5695311|Hilton Tampa Airport Westshore|Tampa, FL| 183|27.96260| -82.51278|FALSE|TRUE|FALSE|TRUE
5695311|Value Lodge Busch Gardens Tampa|Tampa, FL| 118|28.03707| -82.41946|TRUE|FALSE|FALSE|TRUE
5695311|Rodeway Inn Near Ybor City - Casino|Tampa, FL|  94|27.96992| -82.40352|TRUE|FALSE|FALSE|TRUE
5695311|JW Marriott Tampa Water Street|Tampa, FL| 495|27.94191| -82.45367|FALSE|FALSE|TRUE|TRUE
5695311|Seminole Hard Rock Hotel & Casino Tampa|Tampa, FL| 453|27.99338| -82.37198|FALSE|FALSE|TRUE|TRUE
5695311|Econo Lodge Airport at RJ Stadium|Tampa, FL| 115|27.97587| -82.50333|TRUE|TRUE|FALSE|TRUE
5695311|Holiday Inn Tampa Westshore - Airport Area, an IHG Hotel|Tampa, FL| 174|27.95161| -82.52501|FALSE|TRUE|FALSE|TRUE
5695311|The Westshore Grand, A Tribute Portfolio Hotel, Tampa|Tampa, FL| 163|27.94355| -82.52540|FALSE|TRUE|FALSE|TRUE
5695313|Holiday Inn Express Houston - Galleria Area, an IHG Hotel|Houston, TX| 119|29.74278| -95.45675|FALSE|FALSE|TRUE|TRUE
5695313|InterContinental Houston Medical Center, an IHG Hotel|Houston, TX| 172|29.70753| -95.40466|FALSE|TRUE|TRUE|TRUE
5695313|Travelodge by Wyndham Houston Hobby Airport|Houston, TX|  61|29.65237| -95.26050|TRUE|FALSE|FALSE|TRUE
5695313|Blossom Hotel Houston|Houston, TX| 193|29.69952| -95.39943|FALSE|TRUE|TRUE|TRUE
5695313|Extended Stay America Suites Houston Westchase Richmond|Houston, TX|  78|29.72879| -95.55845|TRUE|FALSE|FALSE|TRUE
5695313|Candlewood Suites Houston Medical Center, an IHG Hotel|Houston, TX|  93|29.67581| -95.42636|FALSE|TRUE|FALSE|TRUE
5695313|Express Inn Hobby|Houston, TX|  76|29.65164| -95.25715|TRUE|FALSE|FALSE|TRUE
5695313|America's Inn Sugarland Stafford|Houston, TX|  67|29.66489| -95.55532|TRUE|FALSE|FALSE|TRUE
5695313|Houston Marriott Medical Center/Museum District|Houston, TX| 170|29.71005| -95.40087|FALSE|FALSE|TRUE|TRUE
5695313|The Westin Houston Medical Center|Houston, TX| 196|29.70970| -95.40158|FALSE|FALSE|TRUE|TRUE
5695313|Super 8 by Wyndham Stafford Sugarland Area|Houston, TX|  78|29.63687| -95.56439|TRUE|FALSE|FALSE|TRUE
5695313|Extended Stay America Suites Houston Med Ctr NRG Park Kirby|Houston, TX| 117|29.69120| -95.41169|FALSE|TRUE|FALSE|TRUE
5695313|Extended Stay America Suites Houston Westchase Westheimer|Houston, TX|  82|29.72879| -95.55845|TRUE|FALSE|FALSE|TRUE
5695313|The Post Oak Hotel at Uptown Houston|Houston, TX| 607|29.75218| -95.45701|FALSE|FALSE|TRUE|TRUE
5695313|Hilton Garden Inn Houston Medical Center, TX|Houston, TX| 123|29.70455| -95.38559|FALSE|FALSE|TRUE|TRUE
5695313|Quality Suites Houston Hobby Airport|Houston, TX|  78|29.65830| -95.28112|TRUE|FALSE|FALSE|TRUE
5695313|Comfort Suites near Texas Medical Center - NRG Stadium|Houston, TX| 113|29.68975| -95.41665|FALSE|TRUE|FALSE|TRUE
5695313|Howard Johnson by Wyndham Houston|Houston, TX|  63|29.77823| -95.40776|TRUE|FALSE|FALSE|TRUE
5695313|Hampton Inn & Suites Houston Medical Center NRG Park|Houston, TX|  99|29.69593| -95.40283|FALSE|TRUE|FALSE|TRUE
5695313|Wingate Houston near NRG Park/Medical Center|Houston, TX| 151|29.68090| -95.41281|FALSE|TRUE|TRUE|TRUE
5695313|Courtyard by Marriott Houston Medical Center/NRG Park|Houston, TX| 126|29.69663| -95.41361|FALSE|TRUE|TRUE|TRUE
5695313|La Colombe d'Or Hotel|Houston, TX| 518|29.74164| -95.39162|FALSE|FALSE|TRUE|TRUE
5695313|SureStay Plus Hotel by Best Western Houston Medical Center|Houston, TX|  95|29.70827| -95.40412|FALSE|TRUE|FALSE|TRUE
5695313|Sonesta Simply Suites Houston W Beltway|Houston, TX|  81|29.72084| -95.55599|TRUE|FALSE|FALSE|TRUE
5695313|Extended Stay America Suites Houston Med Ctr Braeswood Bl|Houston, TX|  89|29.70196| -95.40047|FALSE|TRUE|FALSE|TRUE
5695313|Romana Hotel|Houston, TX|  70|29.71082| -95.50405|TRUE|FALSE|FALSE|TRUE
5695329|Extended Stay America Suites Houston Med Ctr NRG Park Kirby|Houston, TX| 117|29.69120| -95.41169|FALSE|TRUE|FALSE|TRUE
5695329|Extended Stay America Suites Houston Westchase Richmond|Houston, TX|  78|29.72879| -95.55845|TRUE|FALSE|FALSE|TRUE
5695329|Extended Stay America Suites Houston Westchase Westheimer|Houston, TX|  82|29.72879| -95.55845|TRUE|FALSE|FALSE|TRUE
5695329|Howard Johnson by Wyndham Houston|Houston, TX|  63|29.77823| -95.40776|TRUE|FALSE|FALSE|TRUE
5695329|The Post Oak Hotel at Uptown Houston|Houston, TX| 607|29.75218| -95.45701|FALSE|FALSE|TRUE|TRUE
5695329|Courtyard by Marriott Houston Medical Center/NRG Park|Houston, TX| 126|29.69663| -95.41361|FALSE|TRUE|TRUE|TRUE
5695329|Quality Suites Houston Hobby Airport|Houston, TX|  78|29.65830| -95.28112|TRUE|FALSE|FALSE|TRUE
5695329|Hampton Inn & Suites Houston Medical Center NRG Park|Houston, TX|  99|29.69593| -95.40283|FALSE|TRUE|FALSE|TRUE
5695329|Express Inn Hobby|Houston, TX|  76|29.65164| -95.25715|TRUE|FALSE|FALSE|TRUE
5695329|Candlewood Suites Houston Medical Center, an IHG Hotel|Houston, TX|  93|29.67581| -95.42636|FALSE|TRUE|FALSE|TRUE
5695329|Super 8 by Wyndham Stafford Sugarland Area|Houston, TX|  78|29.63687| -95.56439|TRUE|FALSE|FALSE|TRUE
5695329|Holiday Inn Express Houston - Galleria Area, an IHG Hotel|Houston, TX| 119|29.74278| -95.45675|FALSE|FALSE|TRUE|TRUE
5695329|Extended Stay America Suites Houston Med Ctr Braeswood Bl|Houston, TX|  89|29.70196| -95.40047|FALSE|TRUE|FALSE|TRUE
5695329|Sonesta Simply Suites Houston W Beltway|Houston, TX|  81|29.72084| -95.55599|TRUE|FALSE|FALSE|TRUE
5695329|Blossom Hotel Houston|Houston, TX| 193|29.69952| -95.39943|FALSE|TRUE|TRUE|TRUE
5695329|America's Inn Sugarland Stafford|Houston, TX|  67|29.66489| -95.55532|TRUE|FALSE|FALSE|TRUE
5695329|The Westin Houston Medical Center|Houston, TX| 196|29.70970| -95.40158|FALSE|FALSE|TRUE|TRUE
5695329|InterContinental Houston Medical Center, an IHG Hotel|Houston, TX| 172|29.70753| -95.40466|FALSE|TRUE|TRUE|TRUE
5695329|SureStay Plus Hotel by Best Western Houston Medical Center|Houston, TX|  95|29.70827| -95.40412|FALSE|TRUE|FALSE|TRUE
5695329|Wingate Houston near NRG Park/Medical Center|Houston, TX| 151|29.68090| -95.41281|FALSE|TRUE|TRUE|TRUE
5695329|La Colombe d'Or Hotel|Houston, TX| 518|29.74164| -95.39162|FALSE|FALSE|TRUE|TRUE
5695329|Comfort Suites near Texas Medical Center - NRG Stadium|Houston, TX| 113|29.68975| -95.41665|FALSE|TRUE|FALSE|TRUE
5695329|Romana Hotel|Houston, TX|  70|29.71082| -95.50405|TRUE|FALSE|FALSE|TRUE
5695329|Houston Marriott Medical Center/Museum District|Houston, TX| 170|29.71005| -95.40087|FALSE|FALSE|TRUE|TRUE
5695329|Travelodge by Wyndham Houston Hobby Airport|Houston, TX|  61|29.65237| -95.26050|TRUE|FALSE|FALSE|TRUE
5695329|Hilton Garden Inn Houston Medical Center, TX|Houston, TX| 123|29.70455| -95.38559|FALSE|FALSE|TRUE|TRUE
5695331|Club Quarters Hotel Rittenhouse Square, Philadelphia|Philadelphia, PA| 148|39.95122| -75.16840|FALSE|TRUE|FALSE|TRUE
5695331|Wyndham Garden Philadelphia Airport|Philadelphia, PA| 110|39.86764| -75.30377|TRUE|FALSE|FALSE|TRUE
5695331|Wm. Mulherin's Sons Hotel|Philadelphia, PA| 572|39.97171| -75.13506|FALSE|FALSE|TRUE|TRUE
5695331|Sofitel Philadelphia at Rittenhouse Square|Philadelphia, PA| 207|39.95085| -75.16911|FALSE|TRUE|FALSE|TRUE
5695331|Radisson Hotel Philadelphia, PA|Philadelphia, PA| 123|39.94917| -75.16954|FALSE|TRUE|FALSE|TRUE
5695331|Courtyard Philadelphia South at The Navy Yard|Philadelphia, PA| 210|39.89545| -75.17173|FALSE|TRUE|FALSE|TRUE
5695331|Parkway Inn|Philadelphia, PA| 109|39.91875| -75.32845|TRUE|FALSE|FALSE|TRUE
5695331|Loews Philadelphia Hotel|Philadelphia, PA| 232|39.95143| -75.16032|FALSE|FALSE|TRUE|TRUE
5695331|Days Inn by Wyndham Philadelphia - Roosevelt Boulevard|Philadelphia, PA| 119|40.02974| -75.10607|TRUE|FALSE|FALSE|TRUE
5695331|Red Carpet Inn Philadelphia Airport|Philadelphia, PA|  93|39.87242| -75.28119|TRUE|FALSE|FALSE|TRUE
5695331|Hilton Garden Inn Camden Waterfront Philadelphia|Philadelphia, PA| 122|39.94991| -75.13029|TRUE|FALSE|FALSE|TRUE
5695331|The Rittenhouse Philadelphia|Philadelphia, PA| 592|39.94966| -75.16482|FALSE|TRUE|TRUE|TRUE
5695331|AKA University City|Philadelphia, PA| 372|39.95191| -75.18365|FALSE|FALSE|TRUE|TRUE
5695331|Lokal Hotel Fishtown|Philadelphia, PA| 393|39.97245| -75.13503|FALSE|FALSE|TRUE|TRUE
5695331|The Ritz-Carlton, Philadelphia|Philadelphia, PA| 450|39.95128| -75.16427|FALSE|TRUE|TRUE|TRUE
5695331|BnB Philadelphia - Boutique Hotel|Philadelphia, PA| 621|39.97993| -75.12262|FALSE|FALSE|TRUE|TRUE
5695331|Warwick Hotel Rittenhouse Square|Philadelphia, PA| 187|39.94917| -75.16954|FALSE|TRUE|FALSE|TRUE
5695331|Philly Inn & Suites|Philadelphia, PA| 118|39.95258| -75.16522|TRUE|FALSE|FALSE|TRUE
5695331|Days Inn by Wyndham Springfield/Phil.Intl Airport|Philadelphia, PA| 106|39.91948| -75.32802|TRUE|FALSE|FALSE|TRUE
5695331|Fitler Club|Philadelphia, PA| 404|39.95349| -75.17914|FALSE|FALSE|TRUE|TRUE
5695331|DoubleTree by Hilton Philadelphia Center City|Philadelphia, PA| 168|39.94792| -75.16413|FALSE|TRUE|FALSE|TRUE
5695331|Motto by Hilton Philadelphia Rittenhouse Square|Philadelphia, PA| 118|39.95250| -75.17158|TRUE|FALSE|FALSE|TRUE
5695331|Four Seasons Hotel Philadelphia at Comcast Center|Philadelphia, PA| 908|39.95509| -75.17090|FALSE|FALSE|TRUE|TRUE
5695331|Clarion Hotel Philadelphia International Airport|Philadelphia, PA| 120|39.86626| -75.31162|TRUE|FALSE|FALSE|TRUE
5695331|Travelodge by Wyndham Bellmawr|Philadelphia, PA|  92|39.86208| -75.07705|TRUE|FALSE|FALSE|TRUE
5695331|W Philadelphia|Philadelphia, PA| 219|39.95124| -75.16490|FALSE|TRUE|FALSE|TRUE
5695331|Guild House Hotel|Philadelphia, PA| 530|39.94819| -75.16268|FALSE|TRUE|TRUE|TRUE
5695333|Loews Philadelphia Hotel|Philadelphia, PA| 232|39.95143| -75.16032|FALSE|FALSE|TRUE|TRUE
5695333|Guild House Hotel|Philadelphia, PA| 530|39.94819| -75.16268|FALSE|TRUE|TRUE|TRUE
5695333|The Rittenhouse Philadelphia|Philadelphia, PA| 592|39.94966| -75.16482|FALSE|TRUE|TRUE|TRUE
5695333|Days Inn by Wyndham Springfield/Phil.Intl Airport|Philadelphia, PA| 106|39.91948| -75.32802|TRUE|FALSE|FALSE|TRUE
5695333|BnB Philadelphia - Boutique Hotel|Philadelphia, PA| 621|39.97993| -75.12262|FALSE|FALSE|TRUE|TRUE
5695333|Wm. Mulherin's Sons Hotel|Philadelphia, PA| 572|39.97171| -75.13506|FALSE|FALSE|TRUE|TRUE
5695333|Lokal Hotel Fishtown|Philadelphia, PA| 393|39.97245| -75.13503|FALSE|FALSE|TRUE|TRUE
5695333|Courtyard Philadelphia South at The Navy Yard|Philadelphia, PA| 210|39.89545| -75.17173|FALSE|TRUE|FALSE|TRUE
5695333|Warwick Hotel Rittenhouse Square|Philadelphia, PA| 187|39.94917| -75.16954|FALSE|TRUE|FALSE|TRUE
5695333|W Philadelphia|Philadelphia, PA| 219|39.95124| -75.16490|FALSE|TRUE|FALSE|TRUE
5695333|Wyndham Garden Philadelphia Airport|Philadelphia, PA| 110|39.86764| -75.30377|TRUE|FALSE|FALSE|TRUE
5695333|Fitler Club|Philadelphia, PA| 404|39.95349| -75.17914|FALSE|FALSE|TRUE|TRUE
5695333|Days Inn by Wyndham Philadelphia - Roosevelt Boulevard|Philadelphia, PA| 119|40.02974| -75.10607|TRUE|FALSE|FALSE|TRUE
5695333|Four Seasons Hotel Philadelphia at Comcast Center|Philadelphia, PA| 908|39.95509| -75.17090|FALSE|FALSE|TRUE|TRUE
5695333|Philly Inn & Suites|Philadelphia, PA| 118|39.95258| -75.16522|TRUE|FALSE|FALSE|TRUE
5695333|The Ritz-Carlton, Philadelphia|Philadelphia, PA| 450|39.95128| -75.16427|FALSE|TRUE|TRUE|TRUE
5695333|DoubleTree by Hilton Philadelphia Center City|Philadelphia, PA| 168|39.94792| -75.16413|FALSE|TRUE|FALSE|TRUE
5695333|Clarion Hotel Philadelphia International Airport|Philadelphia, PA| 120|39.86626| -75.31162|TRUE|FALSE|FALSE|TRUE
5695333|Sofitel Philadelphia at Rittenhouse Square|Philadelphia, PA| 207|39.95085| -75.16911|FALSE|TRUE|FALSE|TRUE
5695333|Radisson Hotel Philadelphia, PA|Philadelphia, PA| 123|39.94917| -75.16954|FALSE|TRUE|FALSE|TRUE
5695333|Parkway Inn|Philadelphia, PA| 109|39.91875| -75.32845|TRUE|FALSE|FALSE|TRUE
5695333|Travelodge by Wyndham Bellmawr|Philadelphia, PA|  92|39.86208| -75.07705|TRUE|FALSE|FALSE|TRUE
5695333|Hilton Garden Inn Camden Waterfront Philadelphia|Philadelphia, PA| 122|39.94991| -75.13029|TRUE|FALSE|FALSE|TRUE
5695333|Motto by Hilton Philadelphia Rittenhouse Square|Philadelphia, PA| 118|39.95250| -75.17158|TRUE|FALSE|FALSE|TRUE
5695333|Red Carpet Inn Philadelphia Airport|Philadelphia, PA|  93|39.87242| -75.28119|TRUE|FALSE|FALSE|TRUE
5695333|AKA University City|Philadelphia, PA| 372|39.95191| -75.18365|FALSE|FALSE|TRUE|TRUE
5695333|Club Quarters Hotel Rittenhouse Square, Philadelphia|Philadelphia, PA| 148|39.95122| -75.16840|FALSE|TRUE|FALSE|TRUE
5695349|Extended Stay America Suites Seattle Bellevue Factoria|Seattle, WA| 109|47.63458|-122.13137|TRUE|FALSE|FALSE|TRUE
5695349|Bellevue Club Hotel|Seattle, WA| 393|47.60535|-122.18956|FALSE|FALSE|TRUE|TRUE
5695349|The Westin Seattle|Seattle, WA| 190|47.61369|-122.33827|FALSE|FALSE|TRUE|TRUE
5695349|W Bellevue|Seattle, WA| 354|47.61628|-122.32679|FALSE|FALSE|TRUE|TRUE
5695349|The Marshall Suites|Seattle, WA| 102|47.63623|-122.51736|TRUE|FALSE|FALSE|TRUE
5695349|Extended Stay America Suites Seattle Tukwila|Seattle, WA| 114|47.47484|-122.27262|TRUE|FALSE|FALSE|TRUE
5695349|Courtyard Seattle Downtown Pioneer Square|Seattle, WA| 201|47.60289|-122.33277|FALSE|TRUE|TRUE|TRUE
5695349|Crowne Plaza Seattle - Downtown, an IHG Hotel|Seattle, WA| 168|47.60821|-122.33211|FALSE|TRUE|FALSE|TRUE
5695349|citizenM Seattle Pioneer Square|Seattle, WA| 131|47.60196|-122.33582|FALSE|TRUE|FALSE|TRUE
5695349|Quality Inn Bellevue|Seattle, WA|  99|47.58134|-122.13688|TRUE|FALSE|FALSE|TRUE
5695349|Extended Stay America Suites Seattle Redmond|Seattle, WA| 114|47.63458|-122.13137|TRUE|FALSE|FALSE|TRUE
5695349|Travelodge by Wyndham Seattle By The Space Needle|Seattle, WA|  92|47.62041|-122.34467|TRUE|FALSE|FALSE|TRUE
5695349|Embassy Suites by Hilton Seattle Downtown Pioneer Square|Seattle, WA| 229|47.59808|-122.33093|FALSE|TRUE|TRUE|TRUE
5695349|Four Seasons Hotel Seattle|Seattle, WA| 814|47.60738|-122.33916|FALSE|TRUE|TRUE|TRUE
5695349|Red Lion Hotel Bellevue|Seattle, WA| 114|47.60901|-122.18965|TRUE|FALSE|FALSE|TRUE
5695349|Motif Seattle, a Destination by Hyatt Hotel|Seattle, WA| 184|47.61000|-122.33557|FALSE|TRUE|FALSE|TRUE
5695349|Executive Hotel Pacific|Seattle, WA| 114|47.60702|-122.33344|TRUE|TRUE|FALSE|TRUE
5695349|Ramada by Wyndham SeaTac Airport North|Seattle, WA|  77|47.47926|-122.28351|TRUE|FALSE|FALSE|TRUE
5695349|W Seattle|Seattle, WA| 200|47.57093|-122.38652|FALSE|FALSE|TRUE|TRUE
5695349|Ramada by Wyndham Seatac Airport North|Seattle, WA|  82|47.47926|-122.28351|TRUE|FALSE|FALSE|TRUE
5695349|Hotel Ballard|Seattle, WA| 419|47.66623|-122.38256|FALSE|FALSE|TRUE|TRUE
5695349|Hotel Hotel Hostel|Seattle, WA|  96|47.65120|-122.35013|TRUE|FALSE|FALSE|TRUE
5695349|Ramada by Wyndham SeaTac Airport|Seattle, WA|  92|47.45269|-122.29469|TRUE|FALSE|FALSE|TRUE
5695349|Fairmont Olympic Hotel|Seattle, WA| 338|47.60806|-122.33393|FALSE|TRUE|TRUE|TRUE
5695349|Grand Hyatt Seattle|Seattle, WA| 206|47.61251|-122.33346|FALSE|TRUE|TRUE|TRUE
5695349|Sheraton Grand Seattle|Seattle, WA| 180|47.61083|-122.33400|FALSE|TRUE|FALSE|TRUE
5695351|Quality Inn Bellevue|Seattle, WA|  99|47.58134|-122.13688|TRUE|FALSE|FALSE|TRUE
5695351|Crowne Plaza Seattle - Downtown, an IHG Hotel|Seattle, WA| 168|47.60821|-122.33211|FALSE|TRUE|FALSE|TRUE
5695351|Extended Stay America Suites Seattle Redmond|Seattle, WA| 114|47.63458|-122.13137|TRUE|FALSE|FALSE|TRUE
5695351|citizenM Seattle Pioneer Square|Seattle, WA| 131|47.60196|-122.33582|FALSE|TRUE|FALSE|TRUE
5695351|The Westin Seattle|Seattle, WA| 190|47.61369|-122.33827|FALSE|FALSE|TRUE|TRUE
5695351|Fairmont Olympic Hotel|Seattle, WA| 338|47.60806|-122.33393|FALSE|TRUE|TRUE|TRUE
5695351|Motif Seattle, a Destination by Hyatt Hotel|Seattle, WA| 184|47.61000|-122.33557|FALSE|TRUE|FALSE|TRUE
5695351|Travelodge by Wyndham Seattle By The Space Needle|Seattle, WA|  92|47.62041|-122.34467|TRUE|FALSE|FALSE|TRUE
5695351|Grand Hyatt Seattle|Seattle, WA| 206|47.61251|-122.33346|FALSE|TRUE|TRUE|TRUE
5695351|Extended Stay America Suites Seattle Bellevue Factoria|Seattle, WA| 109|47.63458|-122.13137|TRUE|FALSE|FALSE|TRUE
5695351|W Bellevue|Seattle, WA| 354|47.61628|-122.32679|FALSE|FALSE|TRUE|TRUE
5695351|Ramada by Wyndham SeaTac Airport|Seattle, WA|  92|47.45269|-122.29469|TRUE|FALSE|FALSE|TRUE
5695351|Executive Hotel Pacific|Seattle, WA| 114|47.60702|-122.33344|TRUE|TRUE|FALSE|TRUE
5695351|Four Seasons Hotel Seattle|Seattle, WA| 814|47.60738|-122.33916|FALSE|TRUE|TRUE|TRUE
5695351|Ramada by Wyndham SeaTac Airport North|Seattle, WA|  77|47.47926|-122.28351|TRUE|FALSE|FALSE|TRUE
5695351|Embassy Suites by Hilton Seattle Downtown Pioneer Square|Seattle, WA| 229|47.59808|-122.33093|FALSE|TRUE|TRUE|TRUE
5695351|Hotel Hotel Hostel|Seattle, WA|  96|47.65120|-122.35013|TRUE|FALSE|FALSE|TRUE
5695351|Courtyard Seattle Downtown Pioneer Square|Seattle, WA| 201|47.60289|-122.33277|FALSE|TRUE|TRUE|TRUE
5695351|Red Lion Hotel Bellevue|Seattle, WA| 114|47.60901|-122.18965|TRUE|FALSE|FALSE|TRUE
5695351|Hotel Ballard|Seattle, WA| 419|47.66623|-122.38256|FALSE|FALSE|TRUE|TRUE
5695351|Ramada by Wyndham Seatac Airport North|Seattle, WA|  82|47.47926|-122.28351|TRUE|FALSE|FALSE|TRUE
5695351|Sheraton Grand Seattle|Seattle, WA| 180|47.61083|-122.33400|FALSE|TRUE|FALSE|TRUE
5695351|Extended Stay America Suites Seattle Tukwila|Seattle, WA| 114|47.47484|-122.27262|TRUE|FALSE|FALSE|TRUE
5695351|Bellevue Club Hotel|Seattle, WA| 393|47.60535|-122.18956|FALSE|FALSE|TRUE|TRUE
5695351|The Marshall Suites|Seattle, WA| 102|47.63623|-122.51736|TRUE|FALSE|FALSE|TRUE
5695351|W Seattle|Seattle, WA| 200|47.57093|-122.38652|FALSE|FALSE|TRUE|TRUE
5695363|Embassy Suites by Hilton Seattle Downtown Pioneer Square|Seattle, WA| 229|47.59808|-122.33093|FALSE|TRUE|TRUE|TRUE
5695363|Four Seasons Hotel Seattle|Seattle, WA| 814|47.60738|-122.33916|FALSE|TRUE|TRUE|TRUE
5695363|Ramada by Wyndham Seatac Airport North|Seattle, WA|  82|47.47926|-122.28351|TRUE|FALSE|FALSE|TRUE
5695363|W Bellevue|Seattle, WA| 354|47.61628|-122.32679|FALSE|FALSE|TRUE|TRUE
5695363|Ramada by Wyndham SeaTac Airport North|Seattle, WA|  77|47.47926|-122.28351|TRUE|FALSE|FALSE|TRUE
5695363|Fairmont Olympic Hotel|Seattle, WA| 338|47.60806|-122.33393|FALSE|TRUE|TRUE|TRUE
5695363|Extended Stay America Suites Seattle Bellevue Factoria|Seattle, WA| 109|47.63458|-122.13137|TRUE|FALSE|FALSE|TRUE
5695363|The Marshall Suites|Seattle, WA| 102|47.63623|-122.51736|TRUE|FALSE|FALSE|TRUE
5695363|Quality Inn Bellevue|Seattle, WA|  99|47.58134|-122.13688|TRUE|FALSE|FALSE|TRUE
5695363|Motif Seattle, a Destination by Hyatt Hotel|Seattle, WA| 184|47.61000|-122.33557|FALSE|TRUE|FALSE|TRUE
5695363|Hotel Hotel Hostel|Seattle, WA|  96|47.65120|-122.35013|TRUE|FALSE|FALSE|TRUE
5695363|Hotel Ballard|Seattle, WA| 419|47.66623|-122.38256|FALSE|FALSE|TRUE|TRUE
5695363|Courtyard Seattle Downtown Pioneer Square|Seattle, WA| 201|47.60289|-122.33277|FALSE|TRUE|TRUE|TRUE
5695363|The Westin Seattle|Seattle, WA| 190|47.61369|-122.33827|FALSE|FALSE|TRUE|TRUE
5695363|W Seattle|Seattle, WA| 200|47.57093|-122.38652|FALSE|FALSE|TRUE|TRUE
5695363|Travelodge by Wyndham Seattle By The Space Needle|Seattle, WA|  92|47.62041|-122.34467|TRUE|FALSE|FALSE|TRUE
5695363|Executive Hotel Pacific|Seattle, WA| 114|47.60702|-122.33344|TRUE|TRUE|FALSE|TRUE
5695363|Bellevue Club Hotel|Seattle, WA| 393|47.60535|-122.18956|FALSE|FALSE|TRUE|TRUE
5695363|Extended Stay America Suites Seattle Tukwila|Seattle, WA| 114|47.47484|-122.27262|TRUE|FALSE|FALSE|TRUE
5695363|Extended Stay America Suites Seattle Redmond|Seattle, WA| 114|47.63458|-122.13137|TRUE|FALSE|FALSE|TRUE
5695363|Crowne Plaza Seattle - Downtown, an IHG Hotel|Seattle, WA| 168|47.60821|-122.33211|FALSE|TRUE|FALSE|TRUE
5695363|Ramada by Wyndham SeaTac Airport|Seattle, WA|  92|47.45269|-122.29469|TRUE|FALSE|FALSE|TRUE
5695363|Sheraton Grand Seattle|Seattle, WA| 180|47.61083|-122.33400|FALSE|TRUE|FALSE|TRUE
5695363|Grand Hyatt Seattle|Seattle, WA| 206|47.61251|-122.33346|FALSE|TRUE|TRUE|TRUE
5695363|citizenM Seattle Pioneer Square|Seattle, WA| 131|47.60196|-122.33582|FALSE|TRUE|FALSE|TRUE
5695363|Red Lion Hotel Bellevue|Seattle, WA| 114|47.60901|-122.18965|TRUE|FALSE|FALSE|TRUE
5695368|Bellagio|Las Vegas, NV| 277|36.11311|-115.17701|FALSE|TRUE|TRUE|TRUE
5695368|ARIA Sky Suites|Las Vegas, NV| 845|36.10765|-115.17577|FALSE|TRUE|TRUE|TRUE
5695368|Mardi Gras Hotel & Casino|Las Vegas, NV|  44|36.12549|-115.15446|TRUE|FALSE|FALSE|TRUE
5695368|Howard Johnson by Wyndham Las Vegas near the Strip|Las Vegas, NV|  57|36.09948|-115.16580|TRUE|TRUE|FALSE|TRUE
5695368|Virgin Hotels Las Vegas, Curio Collection by Hilton|Las Vegas, NV| 128|36.10877|-115.15373|FALSE|TRUE|TRUE|TRUE
5695368|The Palazzo at The Venetian|Las Vegas, NV| 195|36.12400|-115.16796|FALSE|FALSE|TRUE|TRUE
5695368|Golden Gate Hotel and Casino|Las Vegas, NV|  61|36.17124|-115.14621|TRUE|FALSE|FALSE|TRUE
5695368|Oasis at Gold Spike - Adults Only|Las Vegas, NV|  60|36.17095|-115.13982|TRUE|FALSE|FALSE|TRUE
5695368|OYO Hotel and Casino Las Vegas|Las Vegas, NV|  73|36.10039|-115.16772|FALSE|TRUE|FALSE|TRUE
5695368|Longhorn Casino & Hotel|Las Vegas, NV|  57|36.10704|-115.05916|TRUE|FALSE|FALSE|TRUE
5695368|Palms Casino Resort|Las Vegas, NV| 115|36.11444|-115.19482|FALSE|TRUE|TRUE|TRUE
5695368|Las Vegas Hilton at Resorts World|Las Vegas, NV| 129|36.13516|-115.16667|FALSE|FALSE|TRUE|TRUE
5695368|Tru by Hilton Las Vegas Airport, NV|Las Vegas, NV| 124|36.06485|-115.16270|FALSE|FALSE|TRUE|TRUE
5695368|Conrad Las Vegas at Resorts World|Las Vegas, NV| 140|36.13448|-115.16566|FALSE|FALSE|TRUE|TRUE
5695368|Serene Vegas Boutique Hotel|Las Vegas, NV|  80|36.10776|-115.15404|FALSE|TRUE|FALSE|TRUE
5695368|Thunderbird Hotel|Las Vegas, NV|  59|36.15581|-115.14903|TRUE|FALSE|FALSE|TRUE
5695368|Super 8 by Wyndham Las Vegas North Strip/Fremont St. Area|Las Vegas, NV|  49|36.15606|-115.14829|TRUE|FALSE|FALSE|TRUE
5695368|El Cortez Hotel and Casino - 21 and Over|Las Vegas, NV|  60|36.16943|-115.13873|TRUE|FALSE|FALSE|TRUE
5695368|Hampton Inn Tropicana|Las Vegas, NV| 115|36.09967|-115.18338|FALSE|TRUE|TRUE|TRUE
5695368|Hotel Apache|Las Vegas, NV|  51|36.17113|-115.14408|TRUE|FALSE|FALSE|TRUE
5695368|Four Queens Hotel and Casino|Las Vegas, NV|  55|36.16987|-115.14371|TRUE|FALSE|FALSE|TRUE
5695368|Tropicana Las Vegas - a DoubleTree by Hilton Hotel|Las Vegas, NV|  86|36.09963|-115.17136|FALSE|TRUE|FALSE|TRUE
5695368|Jet Luxury at the Vdara Condo Hotel|Las Vegas, NV| 186|36.10903|-115.17728|FALSE|TRUE|TRUE|TRUE
5695373|W Seattle|Seattle, WA| 200|47.57093|-122.38652|FALSE|FALSE|TRUE|TRUE
5695373|Motif Seattle, a Destination by Hyatt Hotel|Seattle, WA| 184|47.61000|-122.33557|FALSE|TRUE|FALSE|TRUE
5695373|Crowne Plaza Seattle - Downtown, an IHG Hotel|Seattle, WA| 168|47.60821|-122.33211|FALSE|TRUE|FALSE|TRUE
5695373|The Westin Seattle|Seattle, WA| 190|47.61369|-122.33827|FALSE|FALSE|TRUE|TRUE
5695373|Travelodge by Wyndham Seattle By The Space Needle|Seattle, WA|  92|47.62041|-122.34467|TRUE|FALSE|FALSE|TRUE
5695373|Hotel Hotel Hostel|Seattle, WA|  96|47.65120|-122.35013|TRUE|FALSE|FALSE|TRUE
5695373|Courtyard Seattle Downtown Pioneer Square|Seattle, WA| 201|47.60289|-122.33277|FALSE|TRUE|TRUE|TRUE
5695373|Hotel Ballard|Seattle, WA| 419|47.66623|-122.38256|FALSE|FALSE|TRUE|TRUE
5695373|Grand Hyatt Seattle|Seattle, WA| 206|47.61251|-122.33346|FALSE|TRUE|TRUE|TRUE
5695373|Red Lion Hotel Bellevue|Seattle, WA| 114|47.60901|-122.18965|TRUE|FALSE|FALSE|TRUE
5695373|W Bellevue|Seattle, WA| 354|47.61628|-122.32679|FALSE|FALSE|TRUE|TRUE
5695373|Sheraton Grand Seattle|Seattle, WA| 180|47.61083|-122.33400|FALSE|TRUE|FALSE|TRUE
5695373|citizenM Seattle Pioneer Square|Seattle, WA| 131|47.60196|-122.33582|FALSE|TRUE|FALSE|TRUE
5695373|Embassy Suites by Hilton Seattle Downtown Pioneer Square|Seattle, WA| 229|47.59808|-122.33093|FALSE|TRUE|TRUE|TRUE
5695373|Ramada by Wyndham SeaTac Airport|Seattle, WA|  92|47.45269|-122.29469|TRUE|FALSE|FALSE|TRUE
5695373|Ramada by Wyndham Seatac Airport North|Seattle, WA|  82|47.47926|-122.28351|TRUE|FALSE|FALSE|TRUE
5695373|The Marshall Suites|Seattle, WA| 102|47.63623|-122.51736|TRUE|FALSE|FALSE|TRUE
5695373|Extended Stay America Suites Seattle Tukwila|Seattle, WA| 114|47.47484|-122.27262|TRUE|FALSE|FALSE|TRUE
5695373|Fairmont Olympic Hotel|Seattle, WA| 338|47.60806|-122.33393|FALSE|TRUE|TRUE|TRUE
5695373|Ramada by Wyndham SeaTac Airport North|Seattle, WA|  77|47.47926|-122.28351|TRUE|FALSE|FALSE|TRUE
5695373|Bellevue Club Hotel|Seattle, WA| 393|47.60535|-122.18956|FALSE|FALSE|TRUE|TRUE
5695373|Four Seasons Hotel Seattle|Seattle, WA| 814|47.60738|-122.33916|FALSE|TRUE|TRUE|TRUE
5695373|Executive Hotel Pacific|Seattle, WA| 114|47.60702|-122.33344|TRUE|TRUE|FALSE|TRUE
5695373|Extended Stay America Suites Seattle Bellevue Factoria|Seattle, WA| 109|47.63458|-122.13137|TRUE|FALSE|FALSE|TRUE
5695373|Extended Stay America Suites Seattle Redmond|Seattle, WA| 114|47.63458|-122.13137|TRUE|FALSE|FALSE|TRUE
5695373|Quality Inn Bellevue|Seattle, WA|  99|47.58134|-122.13688|TRUE|FALSE|FALSE|TRUE
5695382|El Cortez Hotel and Casino - 21 and Over|Las Vegas, NV|  60|36.16943|-115.13873|TRUE|FALSE|FALSE|TRUE
5695382|Four Queens Hotel and Casino|Las Vegas, NV|  55|36.16987|-115.14371|TRUE|FALSE|FALSE|TRUE
5695382|Virgin Hotels Las Vegas, Curio Collection by Hilton|Las Vegas, NV| 128|36.10877|-115.15373|FALSE|TRUE|TRUE|TRUE
5695382|Super 8 by Wyndham Las Vegas North Strip/Fremont St. Area|Las Vegas, NV|  49|36.15606|-115.14829|TRUE|FALSE|FALSE|TRUE
5695382|Golden Gate Hotel and Casino|Las Vegas, NV|  61|36.17124|-115.14621|TRUE|FALSE|FALSE|TRUE
5695382|Oasis at Gold Spike - Adults Only|Las Vegas, NV|  60|36.17095|-115.13982|TRUE|FALSE|FALSE|TRUE
5695382|Howard Johnson by Wyndham Las Vegas near the Strip|Las Vegas, NV|  57|36.09948|-115.16580|TRUE|TRUE|FALSE|TRUE
5695382|Tropicana Las Vegas - a DoubleTree by Hilton Hotel|Las Vegas, NV|  86|36.09963|-115.17136|FALSE|TRUE|FALSE|TRUE
5695382|Palms Casino Resort|Las Vegas, NV| 115|36.11444|-115.19482|FALSE|TRUE|TRUE|TRUE
5695382|Jet Luxury at the Vdara Condo Hotel|Las Vegas, NV| 186|36.10903|-115.17728|FALSE|TRUE|TRUE|TRUE
5695382|Hampton Inn Tropicana|Las Vegas, NV| 115|36.09967|-115.18338|FALSE|TRUE|TRUE|TRUE
5695382|Longhorn Casino & Hotel|Las Vegas, NV|  57|36.10704|-115.05916|TRUE|FALSE|FALSE|TRUE
5695382|ARIA Sky Suites|Las Vegas, NV| 845|36.10765|-115.17577|FALSE|TRUE|TRUE|TRUE
5695382|Las Vegas Hilton at Resorts World|Las Vegas, NV| 129|36.13516|-115.16667|FALSE|FALSE|TRUE|TRUE
5695382|Mardi Gras Hotel & Casino|Las Vegas, NV|  44|36.12549|-115.15446|TRUE|FALSE|FALSE|TRUE
5695382|Bellagio|Las Vegas, NV| 277|36.11311|-115.17701|FALSE|TRUE|TRUE|TRUE
5695382|Hotel Apache|Las Vegas, NV|  51|36.17113|-115.14408|TRUE|FALSE|FALSE|TRUE
5695382|The Palazzo at The Venetian|Las Vegas, NV| 195|36.12400|-115.16796|FALSE|FALSE|TRUE|TRUE
5695382|OYO Hotel and Casino Las Vegas|Las Vegas, NV|  73|36.10039|-115.16772|FALSE|TRUE|FALSE|TRUE
5695382|Tru by Hilton Las Vegas Airport, NV|Las Vegas, NV| 124|36.06485|-115.16270|FALSE|FALSE|TRUE|TRUE
5695382|Thunderbird Hotel|Las Vegas, NV|  59|36.15581|-115.14903|TRUE|FALSE|FALSE|TRUE
5695382|Conrad Las Vegas at Resorts World|Las Vegas, NV| 140|36.13448|-115.16566|FALSE|FALSE|TRUE|TRUE
5695382|Serene Vegas Boutique Hotel|Las Vegas, NV|  80|36.10776|-115.15404|FALSE|TRUE|FALSE|TRUE
5695383|ARIA Sky Suites|Las Vegas, NV| 845|36.10765|-115.17577|FALSE|TRUE|TRUE|TRUE
5695383|Hampton Inn Tropicana|Las Vegas, NV| 115|36.09967|-115.18338|FALSE|TRUE|TRUE|TRUE
5695383|Oasis at Gold Spike - Adults Only|Las Vegas, NV|  60|36.17095|-115.13982|TRUE|FALSE|FALSE|TRUE
5695383|Tru by Hilton Las Vegas Airport, NV|Las Vegas, NV| 124|36.06485|-115.16270|FALSE|FALSE|TRUE|TRUE
5695383|Tropicana Las Vegas - a DoubleTree by Hilton Hotel|Las Vegas, NV|  86|36.09963|-115.17136|FALSE|TRUE|FALSE|TRUE
5695383|Conrad Las Vegas at Resorts World|Las Vegas, NV| 140|36.13448|-115.16566|FALSE|FALSE|TRUE|TRUE
5695383|Howard Johnson by Wyndham Las Vegas near the Strip|Las Vegas, NV|  57|36.09948|-115.16580|TRUE|TRUE|FALSE|TRUE
5695383|Serene Vegas Boutique Hotel|Las Vegas, NV|  80|36.10776|-115.15404|FALSE|TRUE|FALSE|TRUE
5695383|Longhorn Casino & Hotel|Las Vegas, NV|  57|36.10704|-115.05916|TRUE|FALSE|FALSE|TRUE
5695383|Golden Gate Hotel and Casino|Las Vegas, NV|  61|36.17124|-115.14621|TRUE|FALSE|FALSE|TRUE
5695383|The Palazzo at The Venetian|Las Vegas, NV| 195|36.12400|-115.16796|FALSE|FALSE|TRUE|TRUE
5695383|Four Queens Hotel and Casino|Las Vegas, NV|  55|36.16987|-115.14371|TRUE|FALSE|FALSE|TRUE
5695383|OYO Hotel and Casino Las Vegas|Las Vegas, NV|  73|36.10039|-115.16772|FALSE|TRUE|FALSE|TRUE
5695383|Thunderbird Hotel|Las Vegas, NV|  59|36.15581|-115.14903|TRUE|FALSE|FALSE|TRUE
5695383|Bellagio|Las Vegas, NV| 277|36.11311|-115.17701|FALSE|TRUE|TRUE|TRUE
5695383|Las Vegas Hilton at Resorts World|Las Vegas, NV| 129|36.13516|-115.16667|FALSE|FALSE|TRUE|TRUE
5695383|Palms Casino Resort|Las Vegas, NV| 115|36.11444|-115.19482|FALSE|TRUE|TRUE|TRUE
5695383|Hotel Apache|Las Vegas, NV|  51|36.17113|-115.14408|TRUE|FALSE|FALSE|TRUE
5695383|Virgin Hotels Las Vegas, Curio Collection by Hilton|Las Vegas, NV| 128|36.10877|-115.15373|FALSE|TRUE|TRUE|TRUE
5695383|El Cortez Hotel and Casino - 21 and Over|Las Vegas, NV|  60|36.16943|-115.13873|TRUE|FALSE|FALSE|TRUE
5695383|Jet Luxury at the Vdara Condo Hotel|Las Vegas, NV| 186|36.10903|-115.17728|FALSE|TRUE|TRUE|TRUE
5695383|Super 8 by Wyndham Las Vegas North Strip/Fremont St. Area|Las Vegas, NV|  49|36.15606|-115.14829|TRUE|FALSE|FALSE|TRUE
5695383|Mardi Gras Hotel & Casino|Las Vegas, NV|  44|36.12549|-115.15446|TRUE|FALSE|FALSE|TRUE
5695385|Quality Inn & Suites Los Angeles Airport - LAX|Inglewood, CA| 113|33.94493|-118.36455|FALSE|TRUE|FALSE|TRUE
5695385|Hollywood Inn Suites Hotel|Inglewood, CA|  72|33.91615|-118.29309|TRUE|FALSE|FALSE|TRUE
5695385|Hollywood Guest Inn|Inglewood, CA|  84|34.09773|-118.33696|TRUE|FALSE|FALSE|TRUE
5695385|The London West Hollywood at Beverly Hills|Inglewood, CA| 531|34.08996|-118.38507|FALSE|FALSE|TRUE|TRUE
5695385|Holiday Inn Los Angeles - LAX Airport, an IHG Hotel|Inglewood, CA| 125|33.94620|-118.37092|FALSE|TRUE|FALSE|TRUE
5695385|The Maybourne Beverly Hills|Inglewood, CA|1213|34.06797|-118.39875|FALSE|FALSE|TRUE|TRUE
5695385|LAX Stadium Inn - El Segundo/Inglewood|Inglewood, CA|  86|33.93112|-118.35535|TRUE|TRUE|FALSE|TRUE
5695385|Antonio Hotel|Inglewood, CA|  97|33.96168|-118.35313|FALSE|TRUE|FALSE|TRUE
5695385|The Peninsula Beverly Hills|Inglewood, CA|1041|34.06576|-118.41072|FALSE|FALSE|TRUE|TRUE
5695385|Casa Del Mar|Inglewood, CA| 882|34.00627|-118.49147|FALSE|FALSE|TRUE|TRUE
5695385|Pendry West Hollywood|Inglewood, CA| 626|34.09440|-118.37379|FALSE|FALSE|TRUE|TRUE
5695385|The Beverly Hills Hotel|Inglewood, CA|1571|33.96168|-118.35313|FALSE|TRUE|TRUE|TRUE
5695385|Central Inn Motel|Inglewood, CA|  87|34.00935|-118.25629|TRUE|FALSE|FALSE|TRUE
5695385|La Quinta Inn & Suites by Wyndham Inglewood|Inglewood, CA| 117|33.93125|-118.34332|FALSE|TRUE|FALSE|TRUE
5695385|City Center Hotel|Inglewood, CA|  92|34.05151|-118.26500|TRUE|FALSE|FALSE|TRUE
5695385|H3 Inn & Suites - LAX Airport - Los Angeles|Inglewood, CA|  91|33.94569|-118.36044|TRUE|TRUE|FALSE|TRUE
5695385|Four Seasons Los Angeles at Beverly Hills|Inglewood, CA| 988|34.07305|-118.38934|FALSE|FALSE|TRUE|TRUE
5695385|Royal Century Hotel|Inglewood, CA|  92|33.94491|-118.35159|TRUE|TRUE|FALSE|TRUE
5695385|Shutters on the Beach|Inglewood, CA| 939|34.00692|-118.49169|FALSE|FALSE|TRUE|TRUE
5695385|L'Ermitage Beverly Hills|Inglewood, CA| 776|34.07254|-118.39540|FALSE|FALSE|TRUE|TRUE
5695385|Wingate by Wyndham Los Angeles International Airport LAX|Inglewood, CA| 105|33.94273|-118.36961|FALSE|TRUE|FALSE|TRUE
5695385|Best Western Plus Suites Hotel - Los Angeles LAX Airport|Inglewood, CA| 152|33.94579|-118.36570|FALSE|TRUE|FALSE|TRUE
5695385|Gardena Terrace Inn|Inglewood, CA|  89|33.88616|-118.30890|TRUE|FALSE|FALSE|TRUE
5695385|Comet Motel|Inglewood, CA|  91|33.93788|-118.26499|TRUE|FALSE|FALSE|TRUE
5695385|Rodeway Inn South Gate - Los Angeles South|Inglewood, CA|  92|33.95086|-118.18297|TRUE|FALSE|FALSE|TRUE
5695385|Satellite Motel|Inglewood, CA|  91|33.92324|-118.28229|TRUE|FALSE|FALSE|TRUE
5695385|Beverly Wilshire - Beverly Hills, A Four Seasons Hotel|Inglewood, CA|1024|34.06674|-118.40077|FALSE|FALSE|TRUE|TRUE
5695387|The Maybourne Beverly Hills|Inglewood, CA|1213|34.06797|-118.39875|FALSE|FALSE|TRUE|TRUE
5695387|Four Seasons Los Angeles at Beverly Hills|Inglewood, CA| 988|34.07305|-118.38934|FALSE|FALSE|TRUE|TRUE
5695387|Holiday Inn Los Angeles - LAX Airport, an IHG Hotel|Inglewood, CA| 125|33.94620|-118.37092|FALSE|TRUE|FALSE|TRUE
5695387|Antonio Hotel|Inglewood, CA|  97|33.96168|-118.35313|FALSE|TRUE|FALSE|TRUE
5695387|The London West Hollywood at Beverly Hills|Inglewood, CA| 531|34.08996|-118.38507|FALSE|FALSE|TRUE|TRUE
5695387|Beverly Wilshire - Beverly Hills, A Four Seasons Hotel|Inglewood, CA|1024|34.06674|-118.40077|FALSE|FALSE|TRUE|TRUE
5695387|Gardena Terrace Inn|Inglewood, CA|  89|33.88616|-118.30890|TRUE|FALSE|FALSE|TRUE
5695387|Best Western Plus Suites Hotel - Los Angeles LAX Airport|Inglewood, CA| 152|33.94579|-118.36570|FALSE|TRUE|FALSE|TRUE
5695387|Royal Century Hotel|Inglewood, CA|  92|33.94491|-118.35159|TRUE|TRUE|FALSE|TRUE
5695387|Quality Inn & Suites Los Angeles Airport - LAX|Inglewood, CA| 113|33.94493|-118.36455|FALSE|TRUE|FALSE|TRUE
5695387|Hollywood Inn Suites Hotel|Inglewood, CA|  72|33.91615|-118.29309|TRUE|FALSE|FALSE|TRUE
5695387|Pendry West Hollywood|Inglewood, CA| 626|34.09440|-118.37379|FALSE|FALSE|TRUE|TRUE
5695387|La Quinta Inn & Suites by Wyndham Inglewood|Inglewood, CA| 117|33.93125|-118.34332|FALSE|TRUE|FALSE|TRUE
5695387|Hollywood Guest Inn|Inglewood, CA|  84|34.09773|-118.33696|TRUE|FALSE|FALSE|TRUE
5695387|Central Inn Motel|Inglewood, CA|  87|34.00935|-118.25629|TRUE|FALSE|FALSE|TRUE
5695387|LAX Stadium Inn - El Segundo/Inglewood|Inglewood, CA|  86|33.93112|-118.35535|TRUE|TRUE|FALSE|TRUE
5695387|City Center Hotel|Inglewood, CA|  92|34.05151|-118.26500|TRUE|FALSE|FALSE|TRUE
5695387|H3 Inn & Suites - LAX Airport - Los Angeles|Inglewood, CA|  91|33.94569|-118.36044|TRUE|TRUE|FALSE|TRUE
5695387|The Beverly Hills Hotel|Inglewood, CA|1571|33.96168|-118.35313|FALSE|TRUE|TRUE|TRUE
5695387|Shutters on the Beach|Inglewood, CA| 939|34.00692|-118.49169|FALSE|FALSE|TRUE|TRUE
5695387|Wingate by Wyndham Los Angeles International Airport LAX|Inglewood, CA| 105|33.94273|-118.36961|FALSE|TRUE|FALSE|TRUE
5695387|Rodeway Inn South Gate - Los Angeles South|Inglewood, CA|  92|33.95086|-118.18297|TRUE|FALSE|FALSE|TRUE
5695387|Comet Motel|Inglewood, CA|  91|33.93788|-118.26499|TRUE|FALSE|FALSE|TRUE
5695387|Casa Del Mar|Inglewood, CA| 882|34.00627|-118.49147|FALSE|FALSE|TRUE|TRUE
5695387|L'Ermitage Beverly Hills|Inglewood, CA| 776|34.07254|-118.39540|FALSE|FALSE|TRUE|TRUE
5695387|The Peninsula Beverly Hills|Inglewood, CA|1041|34.06576|-118.41072|FALSE|FALSE|TRUE|TRUE
5695387|Satellite Motel|Inglewood, CA|  91|33.92324|-118.28229|TRUE|FALSE|FALSE|TRUE
5695418|Hollywood Inn Suites Hotel|Inglewood, CA|  72|33.91615|-118.29309|TRUE|FALSE|FALSE|TRUE
5695418|Royal Century Hotel|Inglewood, CA|  92|33.94491|-118.35159|TRUE|TRUE|FALSE|TRUE
5695418|The Maybourne Beverly Hills|Inglewood, CA|1213|34.06797|-118.39875|FALSE|FALSE|TRUE|TRUE
5695418|Best Western Plus Suites Hotel - Los Angeles LAX Airport|Inglewood, CA| 152|33.94579|-118.36570|FALSE|TRUE|FALSE|TRUE
5695418|La Quinta Inn & Suites by Wyndham Inglewood|Inglewood, CA| 117|33.93125|-118.34332|FALSE|TRUE|FALSE|TRUE
5695418|Casa Del Mar|Inglewood, CA| 882|34.00627|-118.49147|FALSE|FALSE|TRUE|TRUE
5695418|Gardena Terrace Inn|Inglewood, CA|  89|33.88616|-118.30890|TRUE|FALSE|FALSE|TRUE
5695418|Quality Inn & Suites Los Angeles Airport - LAX|Inglewood, CA| 113|33.94493|-118.36455|FALSE|TRUE|FALSE|TRUE
5695418|H3 Inn & Suites - LAX Airport - Los Angeles|Inglewood, CA|  91|33.94569|-118.36044|TRUE|TRUE|FALSE|TRUE
5695418|City Center Hotel|Inglewood, CA|  92|34.05151|-118.26500|TRUE|FALSE|FALSE|TRUE
5695418|Rodeway Inn South Gate - Los Angeles South|Inglewood, CA|  92|33.95086|-118.18297|TRUE|FALSE|FALSE|TRUE
5695418|LAX Stadium Inn - El Segundo/Inglewood|Inglewood, CA|  86|33.93112|-118.35535|TRUE|TRUE|FALSE|TRUE
5695418|The Beverly Hills Hotel|Inglewood, CA|1571|33.96168|-118.35313|FALSE|TRUE|TRUE|TRUE
5695418|The London West Hollywood at Beverly Hills|Inglewood, CA| 531|34.08996|-118.38507|FALSE|FALSE|TRUE|TRUE
5695418|Beverly Wilshire - Beverly Hills, A Four Seasons Hotel|Inglewood, CA|1024|34.06674|-118.40077|FALSE|FALSE|TRUE|TRUE
5695418|Pendry West Hollywood|Inglewood, CA| 626|34.09440|-118.37379|FALSE|FALSE|TRUE|TRUE
5695418|Comet Motel|Inglewood, CA|  91|33.93788|-118.26499|TRUE|FALSE|FALSE|TRUE
5695418|Shutters on the Beach|Inglewood, CA| 939|34.00692|-118.49169|FALSE|FALSE|TRUE|TRUE
5695418|Holiday Inn Los Angeles - LAX Airport, an IHG Hotel|Inglewood, CA| 125|33.94620|-118.37092|FALSE|TRUE|FALSE|TRUE
5695418|L'Ermitage Beverly Hills|Inglewood, CA| 776|34.07254|-118.39540|FALSE|FALSE|TRUE|TRUE
5695418|Central Inn Motel|Inglewood, CA|  87|34.00935|-118.25629|TRUE|FALSE|FALSE|TRUE
5695418|Hollywood Guest Inn|Inglewood, CA|  84|34.09773|-118.33696|TRUE|FALSE|FALSE|TRUE
5695418|The Peninsula Beverly Hills|Inglewood, CA|1041|34.06576|-118.41072|FALSE|FALSE|TRUE|TRUE
5695418|Antonio Hotel|Inglewood, CA|  97|33.96168|-118.35313|FALSE|TRUE|FALSE|TRUE
5695418|Satellite Motel|Inglewood, CA|  91|33.92324|-118.28229|TRUE|FALSE|FALSE|TRUE
5695418|Wingate by Wyndham Los Angeles International Airport LAX|Inglewood, CA| 105|33.94273|-118.36961|FALSE|TRUE|FALSE|TRUE
5695418|Four Seasons Los Angeles at Beverly Hills|Inglewood, CA| 988|34.07305|-118.38934|FALSE|FALSE|TRUE|TRUE
5695426|Comfort Inn Windsor|Detroit, MI| 110|42.27391| -83.01523|TRUE|FALSE|FALSE|TRUE
5695426|Stonecroft Inn|Detroit, MI| 108|42.27279| -83.01288|TRUE|FALSE|FALSE|TRUE
5695426|The Siren Hotel|Detroit, MI| 223|42.33574| -83.04859|FALSE|TRUE|TRUE|TRUE
5695426|Comfort Inn Near Greenfield Village|Detroit, MI| 116|42.30758| -83.23197|TRUE|FALSE|FALSE|TRUE
5695426|DoubleTree Suites by Hilton Detroit Downtown - Fort Shelby|Detroit, MI| 196|42.32922| -83.05290|FALSE|TRUE|TRUE|TRUE
5695426|Best Western Plus Waterfront Hotel|Detroit, MI| 108|42.31881| -83.04286|TRUE|FALSE|FALSE|TRUE
5695426|Hilton Garden Inn Detroit Downtown|Detroit, MI| 204|42.33591| -83.04504|FALSE|TRUE|TRUE|TRUE
5695426|MGM Grand Detroit|Detroit, MI| 248|42.33326| -83.06006|FALSE|TRUE|TRUE|TRUE
5695426|Travelodge by Wyndham Windsor|Detroit, MI|  73|42.26241| -82.97094|TRUE|FALSE|FALSE|TRUE
5695426|Comfort Inn Downtown|Detroit, MI| 135|42.33701| -83.02673|FALSE|TRUE|FALSE|TRUE
5695426|Hotel Chataura|Detroit, MI|  93|42.32265| -83.17231|TRUE|FALSE|FALSE|TRUE
5695426|Howard Johnson Plaza Hotel by Wyndham Windsor|Detroit, MI|  62|42.28575| -83.01772|TRUE|FALSE|FALSE|TRUE
5695426|Baymont by Wyndham Downtown Detroit|Detroit, MI| 114|42.34123| -83.01435|TRUE|FALSE|FALSE|TRUE
5695426|Extended Stay America Suites Detroit Dearborn|Detroit, MI| 105|42.32078| -83.22193|TRUE|FALSE|FALSE|TRUE
5695426|Hotel Indigo Detroit Downtown, an IHG Hotel|Detroit, MI| 217|42.33140| -83.05056|FALSE|TRUE|TRUE|TRUE
5695426|Atheneum Suite Hotel|Detroit, MI| 217|42.33409| -83.04267|FALSE|TRUE|TRUE|TRUE
5695426|Fort Pontchartrain Detroit, a Wyndham Hotel|Detroit, MI| 229|42.32806| -83.04758|FALSE|TRUE|TRUE|TRUE
5695426|Caesars Windsor|Detroit, MI| 143|42.32013| -83.03351|FALSE|FALSE|TRUE|TRUE
5695426|Shinola Hotel|Detroit, MI| 364|42.33439| -83.04858|FALSE|TRUE|TRUE|TRUE
5695426|The Leo Collection Detroit, Ascend Hotel Collection|Detroit, MI|  96|42.25452| -83.18582|TRUE|FALSE|FALSE|TRUE
5695426|MotorCity Casino Hotel|Detroit, MI| 252|42.33889| -83.06778|FALSE|TRUE|TRUE|TRUE
5695436|Holiday Inn Express and Suites Atlanta Downtown, an IHG Hotel|Atlanta, GA| 125|33.75789| -84.38989|FALSE|TRUE|TRUE|TRUE
5695436|Omni Atlanta Hotel at CNN Center|Atlanta, GA| 243|33.75915| -84.39494|FALSE|TRUE|TRUE|TRUE
5695436|Rodeway Inn|Atlanta, GA|  75|33.74900| -84.38798|TRUE|FALSE|FALSE|TRUE
5695436|Hampton Inn Atlanta NW Cumberland|Atlanta, GA|  99|33.87793| -84.47297|TRUE|FALSE|FALSE|TRUE
5695436|Clarion Inn & Suites Atlanta Downtown|Atlanta, GA| 108|33.74900| -84.40337|FALSE|TRUE|FALSE|TRUE
5695436|Reverb by Hard Rock Atlanta Downtown|Atlanta, GA| 156|33.75348| -84.39925|FALSE|TRUE|TRUE|TRUE
5695436|Nobu Hotel Atlanta|Atlanta, GA| 467|33.85439| -84.36349|FALSE|FALSE|TRUE|TRUE
5695436|OYO Hotel Decatur I-285 The Perimeter|Atlanta, GA|  92|33.73786| -84.23582|TRUE|FALSE|FALSE|TRUE
5695436|Courtyard by Marriott Atlanta Midtown|Atlanta, GA| 133|33.77208| -84.38519|FALSE|FALSE|TRUE|TRUE
5695436|Comfort Inn Atlanta Downtown South|Atlanta, GA|  97|33.73302| -84.39129|TRUE|FALSE|FALSE|TRUE
5695436|The Starling Atlanta Midtown, Curio Collection by Hilton|Atlanta, GA| 137|33.78698| -84.38139|FALSE|FALSE|TRUE|TRUE
5695436|AC Hotel by Marriott Atlanta Downtown|Atlanta, GA| 126|33.75994| -84.39102|FALSE|TRUE|TRUE|TRUE
