id|name|city|price|lat|long|p|t|l|fresh
5655669|La Quinta Inn & Suites by Wyndham Sunrise Sawgrass Mills|Sunrise, FL| 177|26.12446| -80.33143|TRUE|TRUE|FALSE|TRUE
5655669|Hyatt Place Ft. Lauderdale/Plantation|Sunrise, FL| 220|26.11894| -80.26284|FALSE|TRUE|FALSE|TRUE
5655669|Sheraton Suites Fort Lauderdale Plantation|Sunrise, FL| 264|26.12410| -80.25664|FALSE|TRUE|TRUE|TRUE
5655669|HomeTowne Studios by Red Roof Fort Lauderdale|Sunrise, FL| 102|26.18739| -80.18639|TRUE|FALSE|FALSE|TRUE
5655669|Courtyard by Marriott Fort Lauderdale North/Cypress Creek|Sunrise, FL| 267|26.20174| -80.18046|FALSE|FALSE|TRUE|TRUE
5655669|AC Hotel Fort Lauderdale Sawgrass Mills / Sunrise|Sunrise, FL| 287|26.15016| -80.31874|FALSE|TRUE|TRUE|TRUE
5655669|Courtyard by Marriott Fort Lauderdale Plantation|Sunrise, FL| 257|26.11289| -80.25478|FALSE|FALSE|TRUE|TRUE
5655669|Holiday Inn Express Pembroke Pines-Sheridan Street, an IHG Hotel|Sunrise, FL| 171|26.02784| -80.34487|TRUE|FALSE|FALSE|TRUE
5655669|Courtyard By Marriott Fort Lauderdale Coral Springs|Sunrise, FL| 327|26.23842| -80.25681|FALSE|FALSE|TRUE|TRUE
5655669|Extended Stay America Suites Fort Lauderdale Davie|Sunrise, FL| 150|26.20169| -80.15288|TRUE|FALSE|FALSE|TRUE
5655669|Residence Inn By Marriott Fort Lauderdale Weston|Sunrise, FL| 253|26.08613| -80.37267|FALSE|FALSE|TRUE|TRUE
5655669|Extended Stay America Suites Fort Lauderdale Plantation|Sunrise, FL| 156|26.20169| -80.15288|TRUE|FALSE|FALSE|TRUE
5655669|Plaza Hotel Fort Lauderdale|Sunrise, FL| 114|26.18931| -80.20270|TRUE|FALSE|FALSE|TRUE
5655669|Hampton Inn Ft. Lauderdale-West/Pembroke Pines|Sunrise, FL| 166|26.02546| -80.34768|TRUE|FALSE|FALSE|TRUE
5655669|La Quinta Inn & Suites by Wyndham Sunrise|Sunrise, FL| 177|26.12339| -80.33189|TRUE|TRUE|FALSE|TRUE
5655669|Residence Inn By Marriott Fort Lauderdale Plantation|Sunrise, FL| 270|26.12256| -80.25156|FALSE|TRUE|TRUE|TRUE
5655669|Renaissance Fort Lauderdale West Hotel|Sunrise, FL| 233|26.10388| -80.26272|FALSE|FALSE|TRUE|TRUE
5655669|WoodSpring Suites Tamarac|Sunrise, FL| 113|26.19447| -80.29301|TRUE|TRUE|FALSE|TRUE
5655669|Sonesta ES Suites Fort Lauderdale Plantation|Sunrise, FL| 259|26.12592| -80.26149|FALSE|TRUE|TRUE|TRUE
5655669|Chateau Mar Golf Resort, Trademark Collection by Wyndham|Sunrise, FL| 177|26.16978| -80.23631|TRUE|FALSE|FALSE|TRUE
5655669|La Quinta Inn by Wyndham Ft. Lauderdale Tamarac East|Sunrise, FL| 122|26.18564| -80.19984|TRUE|FALSE|FALSE|TRUE
5655669|DoubleTree by Hilton Hotel Sunrise - Sawgrass Mills|Sunrise, FL| 230|26.14457| -80.32544|FALSE|TRUE|FALSE|TRUE
5655669|Comfort Suites Sawgrass|Sunrise, FL| 188|26.19431| -80.26127|FALSE|TRUE|FALSE|TRUE
5655669|Staybridge Suites Fort Lauderdale Airport - West, an IHG Hotel|Sunrise, FL| 273|26.06453| -80.21240|FALSE|FALSE|TRUE|TRUE
5655669|Extended Stay America Suites Fort Lauderdale Tamarac|Sunrise, FL| 113|26.20169| -80.15288|TRUE|FALSE|FALSE|TRUE
5655671|Renaissance Fort Lauderdale West Hotel|Sunrise, FL| 233|26.10388| -80.26272|FALSE|FALSE|TRUE|TRUE
5655671|Courtyard by Marriott Fort Lauderdale Plantation|Sunrise, FL| 257|26.11289| -80.25478|FALSE|FALSE|TRUE|TRUE
5655671|HomeTowne Studios by Red Roof Fort Lauderdale|Sunrise, FL| 102|26.18739| -80.18639|TRUE|FALSE|FALSE|TRUE
5655671|Sheraton Suites Fort Lauderdale Plantation|Sunrise, FL| 264|26.12410| -80.25664|FALSE|TRUE|TRUE|TRUE
5655671|Extended Stay America Suites Fort Lauderdale Tamarac|Sunrise, FL| 113|26.20169| -80.15288|TRUE|FALSE|FALSE|TRUE
5655671|Plaza Hotel Fort Lauderdale|Sunrise, FL| 114|26.18931| -80.20270|TRUE|FALSE|FALSE|TRUE
5655671|La Quinta Inn & Suites by Wyndham Sunrise|Sunrise, FL| 177|26.12339| -80.33189|TRUE|TRUE|FALSE|TRUE
5655671|Hyatt Place Ft. Lauderdale/Plantation|Sunrise, FL| 220|26.11894| -80.26284|FALSE|TRUE|FALSE|TRUE
5655671|Hampton Inn Ft. Lauderdale-West/Pembroke Pines|Sunrise, FL| 166|26.02546| -80.34768|TRUE|FALSE|FALSE|TRUE
5655671|AC Hotel Fort Lauderdale Sawgrass Mills / Sunrise|Sunrise, FL| 287|26.15016| -80.31874|FALSE|TRUE|TRUE|TRUE
5655671|Residence Inn By Marriott Fort Lauderdale Weston|Sunrise, FL| 253|26.08613| -80.37267|FALSE|FALSE|TRUE|TRUE
5655671|Extended Stay America Suites Fort Lauderdale Davie|Sunrise, FL| 150|26.20169| -80.15288|TRUE|FALSE|FALSE|TRUE
5655671|Extended Stay America Suites Fort Lauderdale Plantation|Sunrise, FL| 156|26.20169| -80.15288|TRUE|FALSE|FALSE|TRUE
5655671|Holiday Inn Express Pembroke Pines-Sheridan Street, an IHG Hotel|Sunrise, FL| 171|26.02784| -80.34487|TRUE|FALSE|FALSE|TRUE
5655671|Courtyard by Marriott Fort Lauderdale North/Cypress Creek|Sunrise, FL| 267|26.20174| -80.18046|FALSE|FALSE|TRUE|TRUE
5655671|La Quinta Inn & Suites by Wyndham Sunrise Sawgrass Mills|Sunrise, FL| 177|26.12446| -80.33143|TRUE|TRUE|FALSE|TRUE
5655671|Comfort Suites Sawgrass|Sunrise, FL| 188|26.19431| -80.26127|FALSE|TRUE|FALSE|TRUE
5655671|Chateau Mar Golf Resort, Trademark Collection by Wyndham|Sunrise, FL| 177|26.16978| -80.23631|TRUE|FALSE|FALSE|TRUE
5655671|Residence Inn By Marriott Fort Lauderdale Plantation|Sunrise, FL| 270|26.12256| -80.25156|FALSE|TRUE|TRUE|TRUE
5655671|Courtyard By Marriott Fort Lauderdale Coral Springs|Sunrise, FL| 327|26.23842| -80.25681|FALSE|FALSE|TRUE|TRUE
5655671|WoodSpring Suites Tamarac|Sunrise, FL| 113|26.19447| -80.29301|TRUE|TRUE|FALSE|TRUE
5655671|Staybridge Suites Fort Lauderdale Airport - West, an IHG Hotel|Sunrise, FL| 273|26.06453| -80.21240|FALSE|FALSE|TRUE|TRUE
5655671|La Quinta Inn by Wyndham Ft. Lauderdale Tamarac East|Sunrise, FL| 122|26.18564| -80.19984|TRUE|FALSE|FALSE|TRUE
5655671|Sonesta ES Suites Fort Lauderdale Plantation|Sunrise, FL| 259|26.12592| -80.26149|FALSE|TRUE|TRUE|TRUE
5655671|DoubleTree by Hilton Hotel Sunrise - Sawgrass Mills|Sunrise, FL| 230|26.14457| -80.32544|FALSE|TRUE|FALSE|TRUE
5655684|Cleveland Marriott Downtown at Key Tower|Cleveland, OH| 189|41.50133| -81.69440|FALSE|FALSE|TRUE|TRUE
5655684|Metropolitan at The 9, Autograph Collection|Cleveland, OH| 199|41.49978| -81.68605|FALSE|TRUE|TRUE|TRUE
5655684|Hyatt Regency Cleveland At The Arcade|Cleveland, OH| 174|41.50076| -81.69075|FALSE|TRUE|TRUE|TRUE
5655684|Drury Plaza Hotel Cleveland Downtown|Cleveland, OH| 211|41.50221| -81.69202|FALSE|FALSE|TRUE|TRUE
5655684|Crowne Plaza Cleveland at Playhouse Square, an IHG Hotel|Cleveland, OH| 152|41.50049| -81.68329|FALSE|TRUE|FALSE|TRUE
5655684|Days Inn by Wyndham Cleveland Lakewood|Cleveland, OH|  77|41.48959| -81.77313|TRUE|FALSE|FALSE|TRUE
5655684|Holiday Inn Express Cleveland Downtown, an IHG Hotel|Cleveland, OH| 148|41.50039| -81.68879|FALSE|TRUE|FALSE|TRUE
5655684|Hotel Indigo Cleveland Downtown, an IHG Hotel|Cleveland, OH| 152|41.49820| -81.68767|FALSE|TRUE|FALSE|TRUE
5655684|Hilton Cleveland Downtown|Cleveland, OH| 189|41.50279| -81.69562|FALSE|FALSE|TRUE|TRUE
5655684|Wyndham Cleveland Airport|Cleveland, OH|  98|41.43770| -81.80006|TRUE|FALSE|FALSE|TRUE
5655684|Hampton Inn Cleveland-Downtown|Cleveland, OH| 157|41.50249| -81.68908|FALSE|TRUE|FALSE|TRUE
5655684|Economy Inn North Randall|Cleveland, OH|  76|41.42920| -81.52489|TRUE|FALSE|FALSE|TRUE
5655684|Travelodge by Wyndham Cleveland Airport|Cleveland, OH|  76|41.41807| -81.79263|TRUE|FALSE|FALSE|TRUE
5655684|The Westin Cleveland Downtown|Cleveland, OH| 178|41.50373| -81.69141|FALSE|FALSE|TRUE|TRUE
5655684|DoubleTree by Hilton Cleveland - Independence|Cleveland, OH|  99|41.39331| -81.65011|TRUE|FALSE|FALSE|TRUE
5655684|Extended Stay America Premier Suites - Cleveland - Independence|Cleveland, OH|  99|41.40293| -81.65252|TRUE|FALSE|FALSE|TRUE
5655684|Ramada by Wyndham Cleveland Independence|Cleveland, OH|  99|41.39493| -81.65457|TRUE|FALSE|FALSE|TRUE
5655684|Renaissance Cleveland Hotel|Cleveland, OH| 164|41.49856| -81.69471|FALSE|TRUE|TRUE|TRUE
5655684|Holiday Inn Cleveland Clinic, an IHG Hotel|Cleveland, OH| 177|41.50303| -81.62637|FALSE|FALSE|TRUE|TRUE
5655684|Hilton Garden Inn Cleveland Downtown|Cleveland, OH| 161|41.49617| -81.68131|FALSE|TRUE|FALSE|TRUE
5655684|Extended Stay America Select Suites - Cleveland - Airport|Cleveland, OH|  84|41.42529| -81.84888|TRUE|FALSE|FALSE|TRUE
5655684|The Ritz-Carlton, Cleveland|Cleveland, OH| 523|41.49726| -81.69469|FALSE|TRUE|TRUE|TRUE
5655684|Red Roof Inn Cleveland - Independence|Cleveland, OH|  74|41.39458| -81.64999|TRUE|FALSE|FALSE|TRUE
5655684|Kimpton Schofield Hotel, an IHG Hotel|Cleveland, OH| 178|41.49961| -81.68674|FALSE|TRUE|TRUE|TRUE
5655684|Travelodge by Wyndham Cleveland Lakewood|Cleveland, OH|  77|41.49014| -81.77088|TRUE|FALSE|FALSE|TRUE
5685266|Holiday Inn Express New Orleans Downtown, an IHG Hotel|New Orleans, LA| 109|29.95175| -90.07368|TRUE|TRUE|FALSE|TRUE
5685266|The Lola by Sextant|New Orleans, LA| 375|29.93943| -90.06526|FALSE|FALSE|TRUE|TRUE
5685266|Suburban Studios|New Orleans, LA| 100|29.90910| -90.20646|TRUE|FALSE|FALSE|TRUE
5685266|Hilton Garden Inn New Orleans French Quarter/CBD|New Orleans, LA| 128|29.95246| -90.07180|FALSE|TRUE|FALSE|TRUE
5685266|The Roosevelt New Orleans, A Waldorf Astoria Hotel|New Orleans, LA| 352|29.95434| -90.07230|FALSE|TRUE|TRUE|TRUE
5685266|Holiday Inn New Orleans - Downtown Superdome, an IHG Hotel|New Orleans, LA| 160|29.95299| -90.07497|FALSE|TRUE|FALSE|TRUE
5685266|Royal Frenchmen Hotel and Bar|New Orleans, LA| 385|29.96463| -90.05796|FALSE|FALSE|TRUE|TRUE
5685266|Astor Crowne Plaza New Orleans French Quarter, an IHG Hotel|New Orleans, LA| 152|29.95384| -90.06956|FALSE|TRUE|FALSE|TRUE
5685266|Hotel Indigo New Orleans French Quarter, an IHG Hotel|New Orleans, LA| 132|29.95241| -90.06986|FALSE|TRUE|FALSE|TRUE
5685266|Best Western Bayou Inn|New Orleans, LA| 105|29.90780| -90.16035|TRUE|FALSE|FALSE|TRUE
5685266|Pet-Friendly Elegant condos New Orleans|New Orleans, LA| 246|29.94978| -90.06771|FALSE|FALSE|TRUE|TRUE
5685266|Holiday Inn Express New Orleans - St Charles, an IHG Hotel|New Orleans, LA| 104|29.94376| -90.07195|TRUE|FALSE|FALSE|TRUE
5685266|Days Inn by Wyndham New Orleans Pontchartrain|New Orleans, LA|  91|30.00213| -90.03978|TRUE|FALSE|FALSE|TRUE
5685266|The Windsor Court|New Orleans, LA| 376|29.94984| -90.06644|FALSE|FALSE|TRUE|TRUE
5685266|The Natchez|New Orleans, LA| 574|29.94974| -90.06870|FALSE|FALSE|TRUE|TRUE
5685266|La Quinta Inn & Suites by Wyndham New Orleans Downtown|New Orleans, LA| 151|29.95089| -90.06941|FALSE|TRUE|FALSE|TRUE
5685266|La Quinta Inn by Wyndham New Orleans Veterans / Metairie|New Orleans, LA|  91|30.00483| -90.20567|TRUE|FALSE|FALSE|TRUE
5685266|Riverside Hotel|New Orleans, LA| 110|29.85646| -89.98640|TRUE|FALSE|FALSE|TRUE
5685266|Comfort Inn Marrero - New Orleans West|New Orleans, LA|  91|29.89219| -90.12282|TRUE|FALSE|FALSE|TRUE
5685266|Virgin Hotels New Orleans|New Orleans, LA| 241|29.94894| -90.07313|FALSE|TRUE|TRUE|TRUE
5685266|Four Seasons Hotel New Orleans|New Orleans, LA| 415|29.94888| -90.06389|FALSE|FALSE|TRUE|TRUE
5685266|Hilton New Orleans Riverside|New Orleans, LA| 201|29.94751| -90.06345|FALSE|FALSE|TRUE|TRUE
5685266|Olde Town Inn|New Orleans, LA| 103|29.96776| -90.05529|TRUE|FALSE|FALSE|TRUE
5685266|Maison de la Luz|New Orleans, LA| 376|29.94879| -90.07202|FALSE|TRUE|TRUE|TRUE
5685266|InterContinental New Orleans, an IHG Hotel|New Orleans, LA| 182|29.95028| -90.06968|FALSE|TRUE|FALSE|TRUE
5685266|Quality Inn New Orleans I-10 East|New Orleans, LA|  64|30.03715| -89.97409|TRUE|FALSE|FALSE|TRUE
5691889|Beverly Wilshire - Beverly Hills, A Four Seasons Hotel|Inglewood, CA|1122|34.06674|-118.40077|FALSE|FALSE|TRUE|TRUE
5691889|Quality Inn & Suites Los Angeles Airport - LAX|Inglewood, CA| 107|33.94493|-118.36455|FALSE|TRUE|FALSE|TRUE
5691889|Four Seasons Los Angeles at Beverly Hills|Inglewood, CA|1156|34.07305|-118.38934|FALSE|FALSE|TRUE|TRUE
5691889|Redondo Beach Inn|Inglewood, CA|  83|33.88725|-118.31193|TRUE|FALSE|FALSE|TRUE
5691889|Crenshaw Inn Motel|Inglewood, CA|  92|33.98272|-118.33132|FALSE|TRUE|FALSE|TRUE
5691889|Central Inn Motel|Inglewood, CA|  87|34.00935|-118.25629|TRUE|FALSE|FALSE|TRUE
5691889|The Beverly Hills Hotel|Inglewood, CA|1571|33.96168|-118.35313|FALSE|TRUE|TRUE|TRUE
5691889|Hollywood Inn Suites Hotel|Inglewood, CA|  80|33.91615|-118.29309|TRUE|FALSE|FALSE|TRUE
5691889|The Westin Los Angeles Airport|Inglewood, CA| 180|33.94474|-118.37376|FALSE|TRUE|FALSE|TRUE
5691889|Holiday Inn Los Angeles - LAX Airport, an IHG Hotel|Inglewood, CA| 146|33.94620|-118.37092|FALSE|TRUE|FALSE|TRUE
5691889|Eastsider Motel|Inglewood, CA|  85|34.02232|-118.25272|TRUE|FALSE|FALSE|TRUE
5691889|Royal Century Hotel|Inglewood, CA|  92|33.94491|-118.35159|FALSE|TRUE|FALSE|TRUE
5691889|The Maybourne Beverly Hills|Inglewood, CA|1213|34.06797|-118.39875|FALSE|FALSE|TRUE|TRUE
5691889|L'Ermitage Beverly Hills|Inglewood, CA| 804|34.07254|-118.39540|FALSE|FALSE|TRUE|TRUE
5691889|H3 Inn & Suites - LAX Airport - Los Angeles|Inglewood, CA|  90|33.94569|-118.36044|TRUE|TRUE|FALSE|TRUE
5691889|1 Hotel West Hollywood|Inglewood, CA| 833|34.09407|-118.37570|FALSE|FALSE|TRUE|TRUE
5691889|City Center Hotel|Inglewood, CA|  86|34.05151|-118.26500|TRUE|FALSE|FALSE|TRUE
5691889|Satellite Motel|Inglewood, CA|  90|33.92324|-118.28229|TRUE|FALSE|FALSE|TRUE
5691889|Shutters on the Beach|Inglewood, CA|1025|34.00692|-118.49169|FALSE|FALSE|TRUE|TRUE
5691889|Central Inn Motel on 41 Street|Inglewood, CA|  80|34.00935|-118.25629|TRUE|FALSE|FALSE|TRUE
5691889|Antonio Hotel|Inglewood, CA|  86|33.96168|-118.35313|TRUE|TRUE|FALSE|TRUE
5691889|The Peninsula Beverly Hills|Inglewood, CA|1099|34.06576|-118.41072|FALSE|FALSE|TRUE|TRUE
5691889|LAX Stadium Inn - El Segundo/Inglewood|Inglewood, CA|  86|33.93112|-118.35535|TRUE|TRUE|FALSE|TRUE
5691889|The West Hollywood EDITION|Inglewood, CA| 722|34.09036|-118.38912|FALSE|FALSE|TRUE|TRUE
5691889|Casa Del Mar|Inglewood, CA| 807|34.00627|-118.49147|FALSE|FALSE|TRUE|TRUE
5691889|La Quinta Inn & Suites by Wyndham Inglewood|Inglewood, CA| 103|33.93125|-118.34332|FALSE|TRUE|FALSE|TRUE
5695225|Hollywood Beach Hotels|Miami Gardens, FL| 147|25.94204| -80.24560|FALSE|TRUE|FALSE|TRUE
5695225|Dream Inn|Miami Gardens, FL| 268|25.94204| -80.24560|FALSE|TRUE|FALSE|TRUE
5695225|Grand Beach Hotel Surfside West|Miami Gardens, FL| 517|25.88365| -80.12259|FALSE|FALSE|TRUE|TRUE
5695225|Hilton Aventura Miami|Miami Gardens, FL| 346|25.95325| -80.14345|FALSE|TRUE|FALSE|TRUE
5695225|The Ritz-Carlton Bal Harbour, Miami|Miami Gardens, FL|1492|25.89900| -80.12330|FALSE|FALSE|TRUE|TRUE
5695225|Hyde Beach House|Miami Gardens, FL| 594|25.98685| -80.12071|FALSE|FALSE|TRUE|TRUE
5695225|Four Seasons Hotel at The Surf Club|Miami Gardens, FL|2309|25.87772| -80.12142|FALSE|FALSE|TRUE|TRUE
5695225|Hollywood Beachside Boutique Suites|Miami Gardens, FL| 136|26.01577| -80.11704|TRUE|FALSE|FALSE|TRUE
5695225|Red Carpet Inn Airport/Cruiseport|Miami Gardens, FL| 113|26.08635| -80.17466|TRUE|FALSE|FALSE|TRUE
5695225|Private Ocean Condos at Marenas Beach|Miami Gardens, FL| 725|25.94916| -80.11988|FALSE|FALSE|TRUE|TRUE
5695225|Miami Gardens Inn & Suites|Miami Gardens, FL| 121|25.94204| -80.24560|TRUE|TRUE|FALSE|TRUE
5695225|Grand Beach Hotel Surfside|Miami Gardens, FL| 672|25.88445| -80.12222|FALSE|FALSE|TRUE|TRUE
5695225|WoodSpring Suites Miramar|Miami Gardens, FL| 158|25.97539| -80.29685|FALSE|TRUE|FALSE|TRUE
5695225|Beach Place Hotel|Miami Gardens, FL| 139|25.87125| -80.12220|TRUE|FALSE|FALSE|TRUE
5695225|Diplomat Beach Resort Hollywood, Curio Collection by Hilton|Miami Gardens, FL| 653|25.99191| -80.11828|FALSE|FALSE|TRUE|TRUE
5695225|Trump International Beach Resort|Miami Gardens, FL| 663|25.94320| -80.12061|FALSE|FALSE|TRUE|TRUE
5695225|The St. Regis Bal Harbour Resort|Miami Gardens, FL|1942|25.88909| -80.12241|FALSE|FALSE|TRUE|TRUE
5695225|Curtis Inn & Suites|Miami Gardens, FL| 136|25.99833| -80.14250|TRUE|TRUE|FALSE|TRUE
5695225|Miami Lakes Hotel|Miami Gardens, FL| 153|25.91206| -80.31126|FALSE|TRUE|FALSE|TRUE
5695225|Villa Europa Hotel|Miami Gardens, FL| 119|26.02341| -80.11549|TRUE|FALSE|FALSE|TRUE
5695225|Grand Palms Spa & Golf Resort|Miami Gardens, FL| 101|26.00016| -80.35079|TRUE|FALSE|FALSE|TRUE
5695225|Acqualina Resort & Residences On The Beach|Miami Gardens, FL|2217|25.94082| -80.12092|FALSE|FALSE|TRUE|TRUE
5695225|Stadium Hotel|Miami Gardens, FL| 170|25.95790| -80.23885|FALSE|TRUE|FALSE|TRUE
5695225|May-Dee Suites|Miami Gardens, FL| 123|26.01073| -80.19495|TRUE|TRUE|FALSE|TRUE
5695225|Holiday Inn Express and Suites Miramar, an IHG Hotel|Miami Gardens, FL| 171|25.98420| -80.34104|FALSE|TRUE|FALSE|TRUE
5695225|Holiday Inn Miami West - Airport Area, an IHG Hotel|Miami Gardens, FL| 124|25.86764| -80.32409|TRUE|FALSE|FALSE|TRUE
5695225|The Harrison Hotel Downtown Hollywood|Miami Gardens, FL| 125|26.01073| -80.14622|TRUE|FALSE|FALSE|TRUE
5695243|Travelodge by Wyndham Downtown Chicago|Chicago, IL|  99|41.87429| -87.62539|TRUE|TRUE|FALSE|TRUE
5695243|Trump International Hotel & Tower Chicago|Chicago, IL| 464|41.88890| -87.62643|FALSE|FALSE|TRUE|TRUE
5695243|Homewood Suites by Hilton Chicago Downtown South Loop|Chicago, IL| 125|41.86915| -87.62561|FALSE|TRUE|FALSE|TRUE
5695243|Four Seasons Hotel Chicago|Chicago, IL| 475|41.89961| -87.62488|FALSE|FALSE|TRUE|TRUE
5695243|Hotel BnB-2|Chicago, IL|  92|41.89585| -87.63797|TRUE|FALSE|FALSE|TRUE
5695243|Freehand Chicago|Chicago, IL|  86|41.89238| -87.62732|TRUE|FALSE|FALSE|TRUE
5695243|Waldorf Astoria Chicago|Chicago, IL| 449|41.89974| -87.62748|FALSE|FALSE|TRUE|TRUE
5695243|The Langham, Chicago|Chicago, IL| 475|41.88842| -87.62751|FALSE|FALSE|TRUE|TRUE
5695243|Nobu Hotel Chicago|Chicago, IL| 452|41.88473| -87.64949|FALSE|FALSE|TRUE|TRUE
5695243|Millennium Knickerbocker Chicago|Chicago, IL| 100|41.89977| -87.62270|TRUE|FALSE|FALSE|TRUE
5695243|Le Méridien Essex Chicago|Chicago, IL| 160|41.87172| -87.62458|FALSE|TRUE|FALSE|TRUE
5695243|Best Western Grant Park Hotel|Chicago, IL|  90|41.86909| -87.62468|TRUE|TRUE|FALSE|TRUE
5695243|The Whitehall Hotel|Chicago, IL|  95|41.89891| -87.62571|TRUE|FALSE|FALSE|TRUE
5695243|Hilton Garden Inn Chicago Downtown South Loop|Chicago, IL|  99|41.86909| -87.62566|TRUE|TRUE|FALSE|TRUE
5695243|The Hotel at Midtown|Chicago, IL| 478|41.92558| -87.67940|FALSE|FALSE|TRUE|TRUE
5695243|Found Hotel Chicago River North|Chicago, IL|  87|41.89287| -87.63377|TRUE|FALSE|FALSE|TRUE
5695243|Club Quarters Hotel, Central Loop, Chicago|Chicago, IL| 141|41.87927| -87.63119|FALSE|TRUE|FALSE|TRUE
5695243|The Ritz-Carlton, Chicago|Chicago, IL| 492|41.89782| -87.62228|FALSE|FALSE|TRUE|TRUE
5695243|Hotel Versey Days Inn by Wyndham Chicago|Chicago, IL|  84|41.93294| -87.64557|TRUE|FALSE|FALSE|TRUE
5695243|Park Hyatt Chicago|Chicago, IL| 449|41.89724| -87.62527|FALSE|FALSE|TRUE|TRUE
5695243|Swissotel - Chicago|Chicago, IL| 169|41.88717| -87.61949|FALSE|TRUE|TRUE|TRUE
5695243|The Peninsula Chicago|Chicago, IL| 528|41.89620| -87.62515|FALSE|FALSE|TRUE|TRUE
5695243|Congress Plaza Hotel|Chicago, IL| 115|41.87491| -87.62482|FALSE|TRUE|FALSE|TRUE
5695243|CitizenM Chicago Downtown|Chicago, IL| 114|41.88696| -87.62505|FALSE|TRUE|FALSE|TRUE
5695243|Aloft Chicago Mag Mile, a Marriott Hotel|Chicago, IL| 100|41.89309| -87.62118|TRUE|FALSE|FALSE|TRUE
5695243|Hilton Garden Inn Chicago Downtown Riverwalk|Chicago, IL| 125|41.88701| -87.62549|FALSE|TRUE|FALSE|TRUE
5695261|Hampton Inn Franklin/Milford|Foxborough, MA| 128|42.06515| -71.39754|FALSE|FALSE|TRUE|TRUE
5695261|Residence Inn by Marriott Boston-Franklin|Foxborough, MA| 140|42.06538| -71.24783|FALSE|TRUE|TRUE|TRUE
5695261|Residence Inn by Marriott Boston Norwood|Foxborough, MA| 120|42.16943| -71.20033|TRUE|FALSE|FALSE|TRUE
5695261|Residence Inn by Marriott Foxborough|Foxborough, MA| 135|42.04473| -71.23833|FALSE|TRUE|TRUE|TRUE
5695261|Home2 Suites by Hilton Walpole Foxboro|Foxborough, MA| 122|42.10473| -71.25585|FALSE|TRUE|TRUE|TRUE
5695261|Best Western North Attleboro / Providence Beltway|Foxborough, MA| 121|41.95922| -71.34274|FALSE|FALSE|TRUE|TRUE
5695261|Best Western Plus The Inn at Sharon/Foxboro|Foxborough, MA|  99|42.12324| -71.23031|TRUE|TRUE|FALSE|TRUE
5695261|Red Roof Inn PLUS+ Boston - Mansfield/ Foxboro|Foxborough, MA|  86|42.03411| -71.23668|TRUE|FALSE|FALSE|TRUE
5695261|Hilton Garden Inn Foxborough Patriot Place|Foxborough, MA| 167|42.09150| -71.26865|FALSE|TRUE|TRUE|TRUE
5695261|The Proctor Mansion Inn|Foxborough, MA| 446|42.06550| -71.32757|FALSE|TRUE|TRUE|TRUE
5695261|Four Points By Sheraton Norwood|Foxborough, MA| 161|42.17541| -71.19446|FALSE|FALSE|TRUE|TRUE
5695261|Americas Best Value Inn Foxboro|Foxborough, MA|  89|42.08196| -71.28072|TRUE|TRUE|FALSE|TRUE
5695261|Comfort Inn Foxboro – Mansfield|Foxborough, MA|  99|42.03943| -71.23985|TRUE|TRUE|FALSE|TRUE
5695261|Courtyard by Marriott Boston Norwood/Canton|Foxborough, MA| 120|42.17532| -71.19010|TRUE|FALSE|FALSE|TRUE
5695261|SpringHill Suites by Marriott Wrentham Plainville|Foxborough, MA| 116|42.03871| -71.31233|TRUE|FALSE|FALSE|TRUE
5695261|Hampton Inn Boston - Norwood|Foxborough, MA| 113|42.19696| -71.18431|TRUE|FALSE|FALSE|TRUE
5695261|Best Western Plus Executive Residency Franklin|Foxborough, MA| 110|42.06149| -71.39714|TRUE|FALSE|FALSE|TRUE
5695261|Econo Lodge Sharon|Foxborough, MA|  85|42.12519| -71.23042|TRUE|TRUE|FALSE|TRUE
5695261|TownePlace Suites by Marriott Wrentham Plainville|Foxborough, MA| 118|42.03856| -71.31183|TRUE|FALSE|FALSE|TRUE
5695261|Sonesta Select Boston Foxborough Mansfield|Foxborough, MA| 122|42.03978| -71.23689|FALSE|FALSE|TRUE|TRUE
5695261|Renaissance by Marriott Boston Patriot Place Hotel|Foxborough, MA| 178|42.09045| -71.26853|FALSE|TRUE|TRUE|TRUE
5695279|Super 8 by Wyndham Camp Springs/Andrews AFB DC Area|Landover, MD|  80|38.81399| -76.89603|TRUE|FALSE|FALSE|TRUE
5695279|InterContinental Washington D.C. - The Wharf, an IHG Hotel|Landover, MD| 381|38.87936| -77.02490|FALSE|FALSE|TRUE|TRUE
5695279|Wyndham Garden Washington DC Area|Landover, MD| 114|38.93725| -76.91708|FALSE|FALSE|TRUE|TRUE
5695279|The Hay-Adams|Landover, MD| 482|38.90040| -77.03693|FALSE|FALSE|TRUE|TRUE
5695279|Comfort Inn Largo-Washington DC East|Landover, MD| 105|38.89449| -76.84227|FALSE|TRUE|FALSE|TRUE
5695279|Quality Inn Near Joint Base Andrews - Washington Area|Landover, MD|  85|38.82076| -76.88784|TRUE|FALSE|FALSE|TRUE
5695279|Salamander Washington DC|Landover, MD| 405|38.88366| -77.03032|FALSE|FALSE|TRUE|TRUE
5695279|Days Inn by Wyndham Camp Springs/Andrews AFB DC Area|Landover, MD|  77|38.81392| -76.89562|TRUE|FALSE|FALSE|TRUE
5695279|Red Roof Inn Washington DC - Lanham|Landover, MD|  88|38.96478| -76.85962|TRUE|FALSE|FALSE|TRUE
5695279|Conrad Washington, DC|Landover, MD| 431|38.90137| -77.02528|FALSE|FALSE|TRUE|TRUE
5695279|DoubleTree by Hilton Largo/Washington DC|Landover, MD| 137|38.91566| -76.84879|FALSE|TRUE|TRUE|TRUE
5695279|Comfort Inn at Joint Base Andrews|Landover, MD|  90|38.78030| -76.89002|TRUE|FALSE|FALSE|TRUE
5695279|Courtyard Largo Medical Center Drive|Landover, MD| 112|38.90692| -76.84692|FALSE|TRUE|FALSE|TRUE
5695279|Courtyard by Marriott New Carrollton|Landover, MD| 105|38.94771| -76.86331|FALSE|TRUE|FALSE|TRUE
5695279|Days Inn by Wyndham Lanham Washington D.C|Landover, MD|  86|38.96226| -76.86088|TRUE|FALSE|FALSE|TRUE
5695279|Generator Hotel Washington DC|Landover, MD|  91|38.92562| -76.88939|TRUE|TRUE|FALSE|TRUE
5695279|Holiday Inn Express I-95 Capitol Beltway-Largo, an IHG Hotel|Landover, MD| 105|38.91377| -76.84897|FALSE|TRUE|FALSE|TRUE
5695279|Pendry Washington DC - The Wharf|Landover, MD| 500|38.87756| -77.02241|FALSE|FALSE|TRUE|TRUE
5695279|WoodSpring Suites Washington DC East Arena Drive|Landover, MD|  89|38.90793| -76.85133|TRUE|TRUE|FALSE|TRUE
5695279|Extended Stay America Suites Washington DC Landover|Landover, MD|  97|38.93400| -76.89664|FALSE|TRUE|FALSE|TRUE
5695279|Waldorf Astoria Washington DC|Landover, MD| 506|38.89411| -77.02758|FALSE|FALSE|TRUE|TRUE
5695279|Econo Lodge Andrews Air Force Base|Landover, MD|  70|38.78201| -76.89081|TRUE|FALSE|FALSE|TRUE
5695279|Staybridge Suites Washington DC East - Largo, an IHG Hotel|Landover, MD| 144|38.90699| -76.84066|FALSE|TRUE|TRUE|TRUE
5695279|Residence Inn Largo Medical Center Drive|Landover, MD| 151|38.90744| -76.84777|FALSE|TRUE|TRUE|TRUE
5695279|Quality Inn Takoma Park|Landover, MD|  89|38.98395| -76.98675|TRUE|FALSE|FALSE|TRUE
5695281|Residence Inn Largo Medical Center Drive|Landover, MD| 151|38.90744| -76.84777|FALSE|TRUE|TRUE|TRUE
5695281|Pendry Washington DC - The Wharf|Landover, MD| 500|38.87756| -77.02241|FALSE|FALSE|TRUE|TRUE
5695281|Wyndham Garden Washington DC Area|Landover, MD| 114|38.93725| -76.91708|FALSE|FALSE|TRUE|TRUE
5695281|Extended Stay America Suites Washington DC Landover|Landover, MD|  97|38.93400| -76.89664|FALSE|TRUE|FALSE|TRUE
5695281|Super 8 by Wyndham Camp Springs/Andrews AFB DC Area|Landover, MD|  80|38.81399| -76.89603|TRUE|FALSE|FALSE|TRUE
5695281|Econo Lodge Andrews Air Force Base|Landover, MD|  70|38.78201| -76.89081|TRUE|FALSE|FALSE|TRUE
5695281|Days Inn by Wyndham Lanham Washington D.C|Landover, MD|  86|38.96226| -76.86088|TRUE|FALSE|FALSE|TRUE
5695281|InterContinental Washington D.C. - The Wharf, an IHG Hotel|Landover, MD| 381|38.87936| -77.02490|FALSE|FALSE|TRUE|TRUE
5695281|Quality Inn Near Joint Base Andrews - Washington Area|Landover, MD|  85|38.82076| -76.88784|TRUE|FALSE|FALSE|TRUE
5695281|Holiday Inn Express I-95 Capitol Beltway-Largo, an IHG Hotel|Landover, MD| 105|38.91377| -76.84897|FALSE|TRUE|FALSE|TRUE
5695281|WoodSpring Suites Washington DC East Arena Drive|Landover, MD|  89|38.90793| -76.85133|TRUE|TRUE|FALSE|TRUE
5695281|Staybridge Suites Washington DC East - Largo, an IHG Hotel|Landover, MD| 144|38.90699| -76.84066|FALSE|TRUE|TRUE|TRUE
5695281|Comfort Inn at Joint Base Andrews|Landover, MD|  90|38.78030| -76.89002|TRUE|FALSE|FALSE|TRUE
5695281|Generator Hotel Washington DC|Landover, MD|  91|38.92562| -76.88939|TRUE|TRUE|FALSE|TRUE
5695281|DoubleTree by Hilton Largo/Washington DC|Landover, MD| 137|38.91566| -76.84879|FALSE|TRUE|TRUE|TRUE
5695281|Waldorf Astoria Washington DC|Landover, MD| 506|38.89411| -77.02758|FALSE|FALSE|TRUE|TRUE
5695281|Days Inn by Wyndham Camp Springs/Andrews AFB DC Area|Landover, MD|  77|38.81392| -76.89562|TRUE|FALSE|FALSE|TRUE
5695281|Conrad Washington, DC|Landover, MD| 431|38.90137| -77.02528|FALSE|FALSE|TRUE|TRUE
5695281|Comfort Inn Largo-Washington DC East|Landover, MD| 105|38.89449| -76.84227|FALSE|TRUE|FALSE|TRUE
5695281|Courtyard Largo Medical Center Drive|Landover, MD| 112|38.90692| -76.84692|FALSE|TRUE|FALSE|TRUE
5695281|Courtyard by Marriott New Carrollton|Landover, MD| 105|38.94771| -76.86331|FALSE|TRUE|FALSE|TRUE
5695281|Red Roof Inn Washington DC - Lanham|Landover, MD|  88|38.96478| -76.85962|TRUE|FALSE|FALSE|TRUE
5695281|Salamander Washington DC|Landover, MD| 405|38.88366| -77.03032|FALSE|FALSE|TRUE|TRUE
5695281|The Hay-Adams|Landover, MD| 482|38.90040| -77.03693|FALSE|FALSE|TRUE|TRUE
5695281|Quality Inn Takoma Park|Landover, MD|  89|38.98395| -76.98675|TRUE|FALSE|FALSE|TRUE
5695297|SpringHill Suites by Marriott Tampa Westshore Airport|Tampa, FL| 226|27.95302| -82.52554|FALSE|TRUE|FALSE|TRUE
5695297|Tampa Airport Marriott|Tampa, FL| 419|27.98187| -82.53461|FALSE|TRUE|FALSE|TRUE
5695297|Extended Stay America Suites Tampa Airport Memorial Hwy|Tampa, FL| 124|28.00674| -82.59229|TRUE|FALSE|FALSE|TRUE
5695297|Extended Stay America Suites Tampa Airport N Westshore Blvd|Tampa, FL| 140|27.95563| -82.52407|FALSE|TRUE|FALSE|TRUE
5695297|Econo Lodge Busch Gardens|Tampa, FL|  99|28.03202| -82.44045|TRUE|FALSE|FALSE|TRUE
5695297|Courtyard by Marriott Tampa Downtown|Tampa, FL| 498|27.95121| -82.46091|FALSE|FALSE|TRUE|TRUE
5695297|La Quinta Inn by Wyndham Tampa Near Busch Gardens|Tampa, FL| 105|28.03364| -82.42705|TRUE|FALSE|FALSE|TRUE
5695297|Courtyard by Marriott Tampa Westshore/Airport|Tampa, FL| 418|27.95280| -82.50695|FALSE|TRUE|FALSE|TRUE
5695297|Floridan Palace Hotel, BW Premier Collection|Tampa, FL| 532|27.95203| -82.45857|FALSE|FALSE|TRUE|TRUE
5695297|Le Méridien Tampa, The Courthouse|Tampa, FL| 659|27.95007| -82.45746|FALSE|FALSE|TRUE|TRUE
5695297|Rodeway Inn Near Ybor City - Casino|Tampa, FL| 104|27.96992| -82.40352|TRUE|FALSE|FALSE|TRUE
5695297|The Tampa EDITION|Tampa, FL| 793|27.94369| -82.45085|FALSE|FALSE|TRUE|TRUE
5695297|Hyatt Place Tampa Airport/Westshore|Tampa, FL| 411|27.95748| -82.52591|FALSE|TRUE|FALSE|TRUE
5695297|Extended Stay America Suites Tampa Airport Spruce Street|Tampa, FL| 129|27.95890| -82.51729|TRUE|TRUE|FALSE|TRUE
5695297|JW Marriott Tampa Water Street|Tampa, FL| 692|27.94191| -82.45367|FALSE|FALSE|TRUE|TRUE
5695297|Ramada by Wyndham Tampa Airport Westshore|Tampa, FL| 122|27.95393| -82.52474|TRUE|TRUE|FALSE|TRUE
5695297|Renaissance Tampa International Plaza Hotel|Tampa, FL| 390|27.96584| -82.51992|FALSE|TRUE|FALSE|TRUE
5695297|Econo Lodge Airport at RJ Stadium|Tampa, FL|  95|27.97587| -82.50333|TRUE|TRUE|FALSE|TRUE
5695297|Hotel Tampa Riverwalk|Tampa, FL| 657|27.94467| -82.45879|FALSE|FALSE|TRUE|TRUE
5695297|Epicurean Hotel, Autograph Collection|Tampa, FL| 705|27.93072| -82.48342|FALSE|FALSE|TRUE|TRUE
5695297|Grand Hyatt Tampa Bay|Tampa, FL| 453|27.96532| -82.55006|FALSE|FALSE|TRUE|TRUE
5695297|WoodSpring Suites Tampa Airport North Veterans Expressway|Tampa, FL| 112|28.03423| -82.54336|TRUE|FALSE|FALSE|TRUE
5695297|Value Lodge Busch Gardens Tampa|Tampa, FL| 118|28.03707| -82.41946|TRUE|FALSE|FALSE|TRUE
5695297|Extended Stay America Suites Tampa North Airport|Tampa, FL| 119|27.99748| -82.54671|TRUE|FALSE|FALSE|TRUE
5695297|Four Points by Sheraton Suites Tampa Airport Westshore|Tampa, FL| 346|27.95163| -82.51853|FALSE|TRUE|FALSE|TRUE
5695297|The Westin Tampa Waterside|Tampa, FL| 646|27.93847| -82.45489|FALSE|FALSE|TRUE|TRUE
5695297|Aloft Tampa Downtown, a Marriott Hotel|Tampa, FL| 620|27.94680| -82.45990|FALSE|FALSE|TRUE|TRUE
5695313|Holiday Inn Express Houston - Galleria Area, an IHG Hotel|Houston, TX| 124|29.74278| -95.45675|FALSE|FALSE|TRUE|TRUE
5695313|Courtyard by Marriott Houston Medical Center/NRG Park|Houston, TX| 136|29.69663| -95.41361|FALSE|TRUE|TRUE|TRUE
5695313|Extended Stay America Suites Houston Med Ctr Braeswood Bl|Houston, TX| 100|29.70196| -95.40047|TRUE|TRUE|FALSE|TRUE
5695313|America's Inn Sugarland Stafford|Houston, TX|  55|29.66489| -95.55532|TRUE|FALSE|FALSE|TRUE
5695313|Extended Stay America Suites Houston Med Ctr NRG Park Kirby|Houston, TX| 117|29.69120| -95.41169|FALSE|TRUE|TRUE|TRUE
5695313|Blossom Hotel Houston|Houston, TX| 225|29.69952| -95.39943|FALSE|TRUE|TRUE|TRUE
5695313|Comfort Suites near Texas Medical Center - NRG Stadium|Houston, TX| 110|29.68975| -95.41665|FALSE|TRUE|FALSE|TRUE
5695313|Summit Inn|Houston, TX|  76|29.70020| -95.37769|TRUE|FALSE|FALSE|TRUE
5695313|Extended Stay America Suites Houston Galleria Uptown|Houston, TX|  78|29.73920| -95.46447|TRUE|FALSE|FALSE|TRUE
5695313|Hampton Inn & Suites Houston Medical Center NRG Park|Houston, TX| 119|29.69593| -95.40283|FALSE|TRUE|TRUE|TRUE
5695313|Wingate Houston near NRG Park/Medical Center|Houston, TX| 104|29.68090| -95.41281|FALSE|TRUE|FALSE|TRUE
5695313|Extended Stay America Suites Houston Westchase Richmond|Houston, TX|  68|29.72879| -95.55845|TRUE|FALSE|FALSE|TRUE
5695313|The Post Oak Hotel at Uptown Houston|Houston, TX| 544|29.75218| -95.45701|FALSE|FALSE|TRUE|TRUE
5695313|Travelodge by Wyndham Houston Hobby Airport|Houston, TX|  53|29.65237| -95.26050|TRUE|FALSE|FALSE|TRUE
5695313|Howard Johnson by Wyndham Houston|Houston, TX|  55|29.77823| -95.40776|TRUE|FALSE|FALSE|TRUE
5695313|Candlewood Suites Houston Medical Center, an IHG Hotel|Houston, TX|  98|29.67581| -95.42636|TRUE|TRUE|FALSE|TRUE
5695313|InterContinental Houston Medical Center, an IHG Hotel|Houston, TX| 243|29.70753| -95.40466|FALSE|TRUE|TRUE|TRUE
5695313|MainStay Suites Texas Medical Center/Reliant Park|Houston, TX| 100|29.69987| -95.37829|TRUE|FALSE|FALSE|TRUE
5695313|Romana Hotel|Houston, TX|  70|29.71082| -95.50405|TRUE|FALSE|FALSE|TRUE
5695313|Hilton Garden Inn Houston Medical Center, TX|Houston, TX| 168|29.70455| -95.38559|FALSE|TRUE|TRUE|TRUE
5695313|Days Inn & Suites by Wyndham Downtown/University of Houston|Houston, TX|  69|29.71069| -95.31080|TRUE|FALSE|FALSE|TRUE
5695313|Holiday Inn Houston Downtown, an IHG Hotel|Houston, TX| 138|29.75209| -95.36916|FALSE|FALSE|TRUE|TRUE
5695313|La Colombe d'Or Hotel|Houston, TX| 513|29.74164| -95.39162|FALSE|FALSE|TRUE|TRUE
5695331|Travelodge by Wyndham Bellmawr|Philadelphia, PA|  82|39.86208| -75.07705|TRUE|FALSE|FALSE|TRUE
5695331|Sheraton Philadelphia Downtown|Philadelphia, PA|1030|39.95723| -75.16695|FALSE|FALSE|TRUE|TRUE
5695331|Hilton Garden Inn Philadelphia Center City|Philadelphia, PA| 434|39.95357| -75.15809|FALSE|FALSE|TRUE|TRUE
5695331|Wyndham Garden Philadelphia Airport|Philadelphia, PA| 101|39.86764| -75.30377|TRUE|FALSE|FALSE|TRUE
5695331|The Rittenhouse Philadelphia|Philadelphia, PA| 651|39.94966| -75.16482|FALSE|TRUE|TRUE|TRUE
5695331|BnB Philadelphia - Boutique Hotel|Philadelphia, PA| 621|39.97993| -75.12262|FALSE|FALSE|TRUE|TRUE
5695331|W Philadelphia|Philadelphia, PA| 292|39.95124| -75.16490|FALSE|TRUE|TRUE|TRUE
5695331|Club Quarters Hotel Rittenhouse Square, Philadelphia|Philadelphia, PA| 126|39.95122| -75.16840|FALSE|TRUE|FALSE|TRUE
5695331|The Ritz-Carlton, Philadelphia|Philadelphia, PA| 419|39.95128| -75.16427|FALSE|FALSE|TRUE|TRUE
5695331|Hyatt Centric Center City Philadelphia|Philadelphia, PA| 220|39.94931| -75.16894|FALSE|TRUE|FALSE|TRUE
5695331|Live Casino & Hotel - Philadelphia|Philadelphia, PA| 218|39.90919| -75.16466|FALSE|TRUE|FALSE|TRUE
5695331|Days Inn by Wyndham Runnemede Philadelphia Area|Philadelphia, PA|  82|39.85779| -75.07254|TRUE|FALSE|FALSE|TRUE
5695331|Extended Stay America Suites Philadelphia Cherry Hill|Philadelphia, PA|  98|39.88385| -75.24823|TRUE|FALSE|FALSE|TRUE
5695331|Red Roof Inn PLUS+ Philadelphia Airport|Philadelphia, PA|  98|39.86820| -75.30609|TRUE|FALSE|FALSE|TRUE
5695331|Sheraton Suites Philadelphia Airport|Philadelphia, PA| 150|39.89052| -75.23154|FALSE|TRUE|FALSE|TRUE
5695331|Parkway Inn|Philadelphia, PA|  62|39.91875| -75.32845|TRUE|FALSE|FALSE|TRUE
5695331|DoubleTree by Hilton Philadelphia Center City|Philadelphia, PA| 246|39.94792| -75.16413|FALSE|TRUE|TRUE|TRUE
5695331|Howard Johnson by Wyndham Blackwood Near Philadelphia|Philadelphia, PA| 111|39.81340| -75.06928|TRUE|FALSE|FALSE|TRUE
5695331|Four Seasons Hotel Philadelphia at Comcast Center|Philadelphia, PA|1036|39.95509| -75.17090|FALSE|FALSE|TRUE|TRUE
5695331|Holiday Inn Express Philadelphia-Midtown, an IHG Hotel|Philadelphia, PA| 172|39.94936| -75.16238|FALSE|TRUE|FALSE|TRUE
5695331|Le Meridien Philadelphia|Philadelphia, PA| 371|39.95487| -75.16414|FALSE|FALSE|TRUE|TRUE
5695331|Philadelphia Marriott Old City|Philadelphia, PA| 214|39.94621| -75.14342|FALSE|TRUE|FALSE|TRUE
5695331|Radisson Hotel Philadelphia, PA|Philadelphia, PA| 110|39.94917| -75.16954|TRUE|TRUE|FALSE|TRUE
5695331|Days Inn by Wyndham Springfield/Phil.Intl Airport|Philadelphia, PA|  95|39.91948| -75.32802|TRUE|FALSE|FALSE|TRUE
5695331|Red Carpet Inn Philadelphia Airport|Philadelphia, PA|  76|39.87242| -75.28119|TRUE|FALSE|FALSE|TRUE
5695331|AKA University City|Philadelphia, PA| 355|39.95191| -75.18365|FALSE|FALSE|TRUE|TRUE
5695333|Four Seasons Hotel Philadelphia at Comcast Center|Philadelphia, PA|1036|39.95509| -75.17090|FALSE|FALSE|TRUE|TRUE
5695333|Hyatt Centric Center City Philadelphia|Philadelphia, PA| 220|39.94931| -75.16894|FALSE|TRUE|FALSE|TRUE
5695333|Wyndham Garden Philadelphia Airport|Philadelphia, PA| 101|39.86764| -75.30377|TRUE|FALSE|FALSE|TRUE
5695333|Philadelphia Marriott Old City|Philadelphia, PA| 214|39.94621| -75.14342|FALSE|TRUE|FALSE|TRUE
5695333|W Philadelphia|Philadelphia, PA| 292|39.95124| -75.16490|FALSE|TRUE|TRUE|TRUE
5695333|Sheraton Philadelphia Downtown|Philadelphia, PA|1030|39.95723| -75.16695|FALSE|FALSE|TRUE|TRUE
5695333|Howard Johnson by Wyndham Blackwood Near Philadelphia|Philadelphia, PA| 111|39.81340| -75.06928|TRUE|FALSE|FALSE|TRUE
5695333|AKA University City|Philadelphia, PA| 355|39.95191| -75.18365|FALSE|FALSE|TRUE|TRUE
5695333|DoubleTree by Hilton Philadelphia Center City|Philadelphia, PA| 246|39.94792| -75.16413|FALSE|TRUE|TRUE|TRUE
5695333|Days Inn by Wyndham Runnemede Philadelphia Area|Philadelphia, PA|  82|39.85779| -75.07254|TRUE|FALSE|FALSE|TRUE
5695333|Radisson Hotel Philadelphia, PA|Philadelphia, PA| 110|39.94917| -75.16954|TRUE|TRUE|FALSE|TRUE
5695333|Parkway Inn|Philadelphia, PA|  62|39.91875| -75.32845|TRUE|FALSE|FALSE|TRUE
5695333|The Rittenhouse Philadelphia|Philadelphia, PA| 651|39.94966| -75.16482|FALSE|TRUE|TRUE|TRUE
5695333|Club Quarters Hotel Rittenhouse Square, Philadelphia|Philadelphia, PA| 126|39.95122| -75.16840|FALSE|TRUE|FALSE|TRUE
5695333|Red Roof Inn PLUS+ Philadelphia Airport|Philadelphia, PA|  98|39.86820| -75.30609|TRUE|FALSE|FALSE|TRUE
5695333|Hilton Garden Inn Philadelphia Center City|Philadelphia, PA| 434|39.95357| -75.15809|FALSE|FALSE|TRUE|TRUE
5695333|Travelodge by Wyndham Bellmawr|Philadelphia, PA|  82|39.86208| -75.07705|TRUE|FALSE|FALSE|TRUE
5695333|Days Inn by Wyndham Springfield/Phil.Intl Airport|Philadelphia, PA|  95|39.91948| -75.32802|TRUE|FALSE|FALSE|TRUE
5695333|Extended Stay America Suites Philadelphia Cherry Hill|Philadelphia, PA|  98|39.88385| -75.24823|TRUE|FALSE|FALSE|TRUE
5695333|Holiday Inn Express Philadelphia-Midtown, an IHG Hotel|Philadelphia, PA| 172|39.94936| -75.16238|FALSE|TRUE|FALSE|TRUE
5695333|Le Meridien Philadelphia|Philadelphia, PA| 371|39.95487| -75.16414|FALSE|FALSE|TRUE|TRUE
5695333|Red Carpet Inn Philadelphia Airport|Philadelphia, PA|  76|39.87242| -75.28119|TRUE|FALSE|FALSE|TRUE
5695333|Sheraton Suites Philadelphia Airport|Philadelphia, PA| 150|39.89052| -75.23154|FALSE|TRUE|FALSE|TRUE
5695333|BnB Philadelphia - Boutique Hotel|Philadelphia, PA| 621|39.97993| -75.12262|FALSE|FALSE|TRUE|TRUE
5695333|The Ritz-Carlton, Philadelphia|Philadelphia, PA| 419|39.95128| -75.16427|FALSE|FALSE|TRUE|TRUE
5695333|Live Casino & Hotel - Philadelphia|Philadelphia, PA| 218|39.90919| -75.16466|FALSE|TRUE|FALSE|TRUE
5695349|Sheraton Grand Seattle|Seattle, WA| 304|47.61083|-122.33400|FALSE|TRUE|TRUE|TRUE
5695349|Fairmont Olympic Hotel|Seattle, WA| 364|47.60806|-122.33393|FALSE|TRUE|TRUE|TRUE
5695349|The Westin Bellevue|Seattle, WA| 362|47.61588|-122.20071|FALSE|FALSE|TRUE|TRUE
5695349|citizenM Seattle Pioneer Square|Seattle, WA| 136|47.60196|-122.33582|FALSE|TRUE|FALSE|TRUE
5695349|Lotte Hotel Seattle|Seattle, WA| 486|47.60525|-122.33084|FALSE|TRUE|TRUE|TRUE
5695349|Bellevue Club Hotel|Seattle, WA| 416|47.60535|-122.18956|FALSE|FALSE|TRUE|TRUE
5695349|Four Seasons Hotel Seattle|Seattle, WA| 854|47.60738|-122.33916|FALSE|TRUE|TRUE|TRUE
5695349|Hotel 116, A Coast Hotel Bellevue|Seattle, WA| 108|47.61605|-122.18687|TRUE|FALSE|FALSE|TRUE
5695349|Travelodge by Wyndham Seattle By The Space Needle|Seattle, WA|  97|47.62041|-122.34467|TRUE|FALSE|FALSE|TRUE
5695349|Embassy Suites by Hilton Seattle Downtown Pioneer Square|Seattle, WA| 255|47.59808|-122.33093|FALSE|TRUE|FALSE|TRUE
5695349|Hotel Ballard|Seattle, WA| 419|47.66623|-122.38256|FALSE|FALSE|TRUE|TRUE
5695349|Motif Seattle, a Destination by Hyatt Hotel|Seattle, WA| 235|47.61000|-122.33557|FALSE|TRUE|FALSE|TRUE
5695349|Crowne Plaza Seattle - Downtown, an IHG Hotel|Seattle, WA| 207|47.60821|-122.33211|FALSE|TRUE|FALSE|TRUE
5695349|Thompson Seattle|Seattle, WA| 408|47.61058|-122.34120|FALSE|FALSE|TRUE|TRUE
5695349|Hotel Hotel Hostel|Seattle, WA| 102|47.65120|-122.35013|TRUE|FALSE|FALSE|TRUE
5695349|Quality Inn Bellevue|Seattle, WA|  99|47.58134|-122.13688|TRUE|FALSE|FALSE|TRUE
5695349|Extended Stay America Suites Seattle Bellevue Factoria|Seattle, WA| 103|47.63458|-122.13137|TRUE|FALSE|FALSE|TRUE
5695349|Ramada by Wyndham SeaTac Airport|Seattle, WA|  92|47.45269|-122.29469|TRUE|FALSE|FALSE|TRUE
5695349|Extended Stay America Suites Seattle Redmond|Seattle, WA| 109|47.63458|-122.13137|TRUE|FALSE|FALSE|TRUE
5695349|Hotel 1000, LXR Hotels & Resorts|Seattle, WA| 410|47.60505|-122.33612|FALSE|TRUE|TRUE|TRUE
5695349|Ramada by Wyndham SeaTac Airport North|Seattle, WA|  80|47.47926|-122.28351|TRUE|FALSE|FALSE|TRUE
5695349|Ramada by Wyndham Seatac Airport North|Seattle, WA|  78|47.47926|-122.28351|TRUE|FALSE|FALSE|TRUE
5695349|W Bellevue|Seattle, WA| 365|47.61628|-122.32679|FALSE|FALSE|TRUE|TRUE
5695349|Extended Stay America Suites Seattle Tukwila|Seattle, WA| 104|47.47484|-122.27262|TRUE|FALSE|FALSE|TRUE
5695349|Executive Hotel Pacific|Seattle, WA| 130|47.60702|-122.33344|FALSE|TRUE|FALSE|TRUE
5695351|Motif Seattle, a Destination by Hyatt Hotel|Seattle, WA| 235|47.61000|-122.33557|FALSE|TRUE|FALSE|TRUE
5695351|Embassy Suites by Hilton Seattle Downtown Pioneer Square|Seattle, WA| 255|47.59808|-122.33093|FALSE|TRUE|FALSE|TRUE
5695351|Thompson Seattle|Seattle, WA| 408|47.61058|-122.34120|FALSE|FALSE|TRUE|TRUE
5695351|Hotel 1000, LXR Hotels & Resorts|Seattle, WA| 410|47.60505|-122.33612|FALSE|TRUE|TRUE|TRUE
5695351|Crowne Plaza Seattle - Downtown, an IHG Hotel|Seattle, WA| 207|47.60821|-122.33211|FALSE|TRUE|FALSE|TRUE
5695351|Travelodge by Wyndham Seattle By The Space Needle|Seattle, WA|  97|47.62041|-122.34467|TRUE|FALSE|FALSE|TRUE
5695351|Extended Stay America Suites Seattle Bellevue Factoria|Seattle, WA| 103|47.63458|-122.13137|TRUE|FALSE|FALSE|TRUE
5695351|citizenM Seattle Pioneer Square|Seattle, WA| 136|47.60196|-122.33582|FALSE|TRUE|FALSE|TRUE
5695351|Hotel Ballard|Seattle, WA| 419|47.66623|-122.38256|FALSE|FALSE|TRUE|TRUE
5695351|Ramada by Wyndham Seatac Airport North|Seattle, WA|  78|47.47926|-122.28351|TRUE|FALSE|FALSE|TRUE
5695351|Hotel 116, A Coast Hotel Bellevue|Seattle, WA| 108|47.61605|-122.18687|TRUE|FALSE|FALSE|TRUE
5695351|Sheraton Grand Seattle|Seattle, WA| 304|47.61083|-122.33400|FALSE|TRUE|TRUE|TRUE
5695351|Ramada by Wyndham SeaTac Airport North|Seattle, WA|  80|47.47926|-122.28351|TRUE|FALSE|FALSE|TRUE
5695351|Extended Stay America Suites Seattle Tukwila|Seattle, WA| 104|47.47484|-122.27262|TRUE|FALSE|FALSE|TRUE
5695351|Four Seasons Hotel Seattle|Seattle, WA| 854|47.60738|-122.33916|FALSE|TRUE|TRUE|TRUE
5695351|Bellevue Club Hotel|Seattle, WA| 416|47.60535|-122.18956|FALSE|FALSE|TRUE|TRUE
5695351|Hotel Hotel Hostel|Seattle, WA| 102|47.65120|-122.35013|TRUE|FALSE|FALSE|TRUE
5695351|Extended Stay America Suites Seattle Redmond|Seattle, WA| 109|47.63458|-122.13137|TRUE|FALSE|FALSE|TRUE
5695351|Fairmont Olympic Hotel|Seattle, WA| 364|47.60806|-122.33393|FALSE|TRUE|TRUE|TRUE
5695351|The Westin Bellevue|Seattle, WA| 362|47.61588|-122.20071|FALSE|FALSE|TRUE|TRUE
5695351|Lotte Hotel Seattle|Seattle, WA| 486|47.60525|-122.33084|FALSE|TRUE|TRUE|TRUE
5695351|Quality Inn Bellevue|Seattle, WA|  99|47.58134|-122.13688|TRUE|FALSE|FALSE|TRUE
5695351|Executive Hotel Pacific|Seattle, WA| 130|47.60702|-122.33344|FALSE|TRUE|FALSE|TRUE
5695351|W Bellevue|Seattle, WA| 365|47.61628|-122.32679|FALSE|FALSE|TRUE|TRUE
5695351|Ramada by Wyndham SeaTac Airport|Seattle, WA|  92|47.45269|-122.29469|TRUE|FALSE|FALSE|TRUE
5695382|Silver Sevens Hotel & Casino|Las Vegas, NV|  66|36.11376|-115.15265|TRUE|FALSE|FALSE|TRUE
5695382|El Cortez Hotel and Casino - 21 and Over|Las Vegas, NV|  68|36.16943|-115.13873|TRUE|FALSE|FALSE|TRUE
5695382|ARIA Sky Suites|Las Vegas, NV|1071|36.10765|-115.17577|FALSE|TRUE|TRUE|TRUE
5695382|Oasis at Gold Spike - Adults Only|Las Vegas, NV|  60|36.17095|-115.13982|TRUE|FALSE|FALSE|TRUE
5695382|Conrad Las Vegas at Resorts World|Las Vegas, NV| 152|36.13448|-115.16566|FALSE|FALSE|TRUE|TRUE
5695382|Bellagio|Las Vegas, NV| 265|36.11311|-115.17701|FALSE|TRUE|TRUE|TRUE
5695382|Arizona Charlie's Boulder|Las Vegas, NV|  69|36.12406|-115.07554|TRUE|FALSE|FALSE|TRUE
5695382|Mardi Gras Hotel & Casino|Las Vegas, NV|  67|36.12549|-115.15446|TRUE|FALSE|FALSE|TRUE
5695382|Palms Casino Resort|Las Vegas, NV| 137|36.11444|-115.19482|FALSE|TRUE|FALSE|TRUE
5695382|Virgin Hotels Las Vegas, Curio Collection by Hilton|Las Vegas, NV| 147|36.10877|-115.15373|FALSE|FALSE|TRUE|TRUE
5695382|Tropicana Las Vegas - a DoubleTree by Hilton Hotel|Las Vegas, NV|  81|36.09963|-115.17136|FALSE|TRUE|FALSE|TRUE
5695382|Super 8 by Wyndham Las Vegas North Strip/Fremont St. Area|Las Vegas, NV|  55|36.15606|-115.14829|TRUE|FALSE|FALSE|TRUE
5695382|Secret Suites at Vdara|Las Vegas, NV| 885|36.10928|-115.17776|FALSE|TRUE|TRUE|TRUE
5695382|The Signature at MGM Grand (All Suites)|Las Vegas, NV| 145|36.10607|-115.16678|FALSE|TRUE|TRUE|TRUE
5695382|OYO Hotel and Casino Las Vegas|Las Vegas, NV|  71|36.10039|-115.16772|FALSE|TRUE|FALSE|TRUE
5695382|Four Queens Hotel and Casino|Las Vegas, NV|  68|36.16987|-115.14371|TRUE|FALSE|FALSE|TRUE
5695382|Hilton Grand Vacations Club Elara Center Strip Las Vegas|Las Vegas, NV| 170|36.10881|-115.16832|FALSE|TRUE|TRUE|TRUE
5695382|Hotel Apache|Las Vegas, NV|  55|36.17113|-115.14408|TRUE|FALSE|FALSE|TRUE
5695382|NoMad Las Vegas|Las Vegas, NV| 224|36.10474|-115.17651|FALSE|TRUE|TRUE|TRUE
5695382|Howard Johnson by Wyndham Las Vegas near the Strip|Las Vegas, NV|  57|36.09948|-115.16580|TRUE|TRUE|FALSE|TRUE
5695382|The Palazzo at The Venetian|Las Vegas, NV| 195|36.12400|-115.16796|FALSE|FALSE|TRUE|TRUE
5695382|Golden Gate Hotel and Casino|Las Vegas, NV|  61|36.17124|-115.14621|TRUE|FALSE|FALSE|TRUE
5695382|Nobu Hotel at Caesars Palace|Las Vegas, NV| 187|36.11671|-115.17519|FALSE|FALSE|TRUE|TRUE
5695383|The Palazzo at The Venetian|Las Vegas, NV| 195|36.12400|-115.16796|FALSE|FALSE|TRUE|TRUE
5695383|NoMad Las Vegas|Las Vegas, NV| 224|36.10474|-115.17651|FALSE|TRUE|TRUE|TRUE
5695383|Nobu Hotel at Caesars Palace|Las Vegas, NV| 187|36.11671|-115.17519|FALSE|FALSE|TRUE|TRUE
5695383|Conrad Las Vegas at Resorts World|Las Vegas, NV| 152|36.13448|-115.16566|FALSE|FALSE|TRUE|TRUE
5695383|Bellagio|Las Vegas, NV| 265|36.11311|-115.17701|FALSE|TRUE|TRUE|TRUE
5695383|Hilton Grand Vacations Club Elara Center Strip Las Vegas|Las Vegas, NV| 170|36.10881|-115.16832|FALSE|TRUE|TRUE|TRUE
5695383|Hotel Apache|Las Vegas, NV|  55|36.17113|-115.14408|TRUE|FALSE|FALSE|TRUE
5695383|ARIA Sky Suites|Las Vegas, NV|1071|36.10765|-115.17577|FALSE|TRUE|TRUE|TRUE
5695383|Howard Johnson by Wyndham Las Vegas near the Strip|Las Vegas, NV|  57|36.09948|-115.16580|TRUE|TRUE|FALSE|TRUE
5695383|Silver Sevens Hotel & Casino|Las Vegas, NV|  66|36.11376|-115.15265|TRUE|FALSE|FALSE|TRUE
5695383|Virgin Hotels Las Vegas, Curio Collection by Hilton|Las Vegas, NV| 147|36.10877|-115.15373|FALSE|FALSE|TRUE|TRUE
5695383|The Signature at MGM Grand (All Suites)|Las Vegas, NV| 145|36.10607|-115.16678|FALSE|TRUE|TRUE|TRUE
5695383|Four Queens Hotel and Casino|Las Vegas, NV|  68|36.16987|-115.14371|TRUE|FALSE|FALSE|TRUE
5695383|Arizona Charlie's Boulder|Las Vegas, NV|  69|36.12406|-115.07554|TRUE|FALSE|FALSE|TRUE
5695383|Oasis at Gold Spike - Adults Only|Las Vegas, NV|  60|36.17095|-115.13982|TRUE|FALSE|FALSE|TRUE
5695383|Secret Suites at Vdara|Las Vegas, NV| 885|36.10928|-115.17776|FALSE|TRUE|TRUE|TRUE
5695383|OYO Hotel and Casino Las Vegas|Las Vegas, NV|  71|36.10039|-115.16772|FALSE|TRUE|FALSE|TRUE
5695383|Tropicana Las Vegas - a DoubleTree by Hilton Hotel|Las Vegas, NV|  81|36.09963|-115.17136|FALSE|TRUE|FALSE|TRUE
5695383|Palms Casino Resort|Las Vegas, NV| 137|36.11444|-115.19482|FALSE|TRUE|FALSE|TRUE
5695383|Golden Gate Hotel and Casino|Las Vegas, NV|  61|36.17124|-115.14621|TRUE|FALSE|FALSE|TRUE
5695383|Super 8 by Wyndham Las Vegas North Strip/Fremont St. Area|Las Vegas, NV|  55|36.15606|-115.14829|TRUE|FALSE|FALSE|TRUE
5695383|El Cortez Hotel and Casino - 21 and Over|Las Vegas, NV|  68|36.16943|-115.13873|TRUE|FALSE|FALSE|TRUE
5695383|Mardi Gras Hotel & Casino|Las Vegas, NV|  67|36.12549|-115.15446|TRUE|FALSE|FALSE|TRUE
5695418|Holiday Inn Los Angeles - LAX Airport, an IHG Hotel|Inglewood, CA| 146|33.94620|-118.37092|FALSE|TRUE|FALSE|TRUE
5695418|Antonio Hotel|Inglewood, CA|  86|33.96168|-118.35313|TRUE|TRUE|FALSE|TRUE
5695418|H3 Inn & Suites - LAX Airport - Los Angeles|Inglewood, CA|  90|33.94569|-118.36044|TRUE|TRUE|FALSE|TRUE
5695418|The Peninsula Beverly Hills|Inglewood, CA|1099|34.06576|-118.41072|FALSE|FALSE|TRUE|TRUE
5695418|Central Inn Motel|Inglewood, CA|  87|34.00935|-118.25629|TRUE|FALSE|FALSE|TRUE
5695418|L'Ermitage Beverly Hills|Inglewood, CA| 804|34.07254|-118.39540|FALSE|FALSE|TRUE|TRUE
5695418|Four Seasons Los Angeles at Beverly Hills|Inglewood, CA|1156|34.07305|-118.38934|FALSE|FALSE|TRUE|TRUE
5695418|City Center Hotel|Inglewood, CA|  86|34.05151|-118.26500|TRUE|FALSE|FALSE|TRUE
5695418|1 Hotel West Hollywood|Inglewood, CA| 833|34.09407|-118.37570|FALSE|FALSE|TRUE|TRUE
5695418|Beverly Wilshire - Beverly Hills, A Four Seasons Hotel|Inglewood, CA|1122|34.06674|-118.40077|FALSE|FALSE|TRUE|TRUE
5695418|Crenshaw Inn Motel|Inglewood, CA|  92|33.98272|-118.33132|FALSE|TRUE|FALSE|TRUE
5695418|The Beverly Hills Hotel|Inglewood, CA|1571|33.96168|-118.35313|FALSE|TRUE|TRUE|TRUE
5695418|Royal Century Hotel|Inglewood, CA|  92|33.94491|-118.35159|FALSE|TRUE|FALSE|TRUE
5695418|Eastsider Motel|Inglewood, CA|  85|34.02232|-118.25272|TRUE|FALSE|FALSE|TRUE
5695418|Quality Inn & Suites Los Angeles Airport - LAX|Inglewood, CA| 107|33.94493|-118.36455|FALSE|TRUE|FALSE|TRUE
5695418|Satellite Motel|Inglewood, CA|  90|33.92324|-118.28229|TRUE|FALSE|FALSE|TRUE
5695418|Redondo Beach Inn|Inglewood, CA|  83|33.88725|-118.31193|TRUE|FALSE|FALSE|TRUE
5695418|The Westin Los Angeles Airport|Inglewood, CA| 180|33.94474|-118.37376|FALSE|TRUE|FALSE|TRUE
5695418|Shutters on the Beach|Inglewood, CA|1025|34.00692|-118.49169|FALSE|FALSE|TRUE|TRUE
5695418|LAX Stadium Inn - El Segundo/Inglewood|Inglewood, CA|  86|33.93112|-118.35535|TRUE|TRUE|FALSE|TRUE
5695418|La Quinta Inn & Suites by Wyndham Inglewood|Inglewood, CA| 103|33.93125|-118.34332|FALSE|TRUE|FALSE|TRUE
5695418|Casa Del Mar|Inglewood, CA| 807|34.00627|-118.49147|FALSE|FALSE|TRUE|TRUE
5695418|The Maybourne Beverly Hills|Inglewood, CA|1213|34.06797|-118.39875|FALSE|FALSE|TRUE|TRUE
5695418|Hollywood Inn Suites Hotel|Inglewood, CA|  80|33.91615|-118.29309|TRUE|FALSE|FALSE|TRUE
5695418|The West Hollywood EDITION|Inglewood, CA| 722|34.09036|-118.38912|FALSE|FALSE|TRUE|TRUE
5695418|Central Inn Motel on 41 Street|Inglewood, CA|  80|34.00935|-118.25629|TRUE|FALSE|FALSE|TRUE
5695426|Hotel Indigo Detroit Downtown, an IHG Hotel|Detroit, MI| 196|42.33140| -83.05056|FALSE|TRUE|TRUE|TRUE
5695426|Comfort Inn Near Greenfield Village|Detroit, MI| 106|42.30758| -83.23197|TRUE|FALSE|FALSE|TRUE
5695426|Extended Stay America Suites Detroit Dearborn|Detroit, MI|  94|42.32078| -83.22193|TRUE|FALSE|FALSE|TRUE
5695426|The Siren Hotel|Detroit, MI| 189|42.33574| -83.04859|FALSE|TRUE|TRUE|TRUE
5695426|Caesars Windsor|Detroit, MI| 128|42.32013| -83.03351|FALSE|FALSE|TRUE|TRUE
5695426|Travelodge by Wyndham Windsor|Detroit, MI|  86|42.26241| -82.97094|TRUE|FALSE|FALSE|TRUE
5695426|MGM Grand Detroit|Detroit, MI| 237|42.33326| -83.06006|FALSE|TRUE|TRUE|TRUE
5695426|Howard Johnson Plaza Hotel by Wyndham Windsor|Detroit, MI|  58|42.28575| -83.01772|TRUE|FALSE|FALSE|TRUE
5695426|Hollywood Casino at Greektown|Detroit, MI| 200|42.33476| -83.04111|FALSE|TRUE|TRUE|TRUE
5695426|Comfort Inn Downtown|Detroit, MI| 130|42.33701| -83.02673|FALSE|TRUE|TRUE|TRUE
5695426|Stonecroft Inn|Detroit, MI|  99|42.27279| -83.01288|TRUE|FALSE|FALSE|TRUE
5695426|Best Western Plus Waterfront Hotel|Detroit, MI| 116|42.31881| -83.04286|TRUE|TRUE|FALSE|TRUE
5695426|Comfort Inn Windsor|Detroit, MI| 115|42.27391| -83.01523|TRUE|FALSE|FALSE|TRUE
5695426|DoubleTree by Hilton Windsor Hotel & Suites|Detroit, MI| 120|42.31864| -83.04330|FALSE|FALSE|TRUE|TRUE
5695426|Fort Pontchartrain Detroit, a Wyndham Hotel|Detroit, MI|1149|42.32806| -83.04758|FALSE|TRUE|TRUE|TRUE
5695426|MotorCity Casino Hotel|Detroit, MI| 240|42.33889| -83.06778|FALSE|TRUE|TRUE|TRUE
5695426|Detroit Marriott at the Renaissance Center|Detroit, MI| 403|42.32854| -83.04073|FALSE|TRUE|TRUE|TRUE
5695426|Hotel Chataura|Detroit, MI| 108|42.32265| -83.17231|TRUE|FALSE|FALSE|TRUE
5695426|Four Points by Sheraton Windsor Downtown|Detroit, MI| 120|42.31600| -83.03772|FALSE|FALSE|TRUE|TRUE
5695426|Holiday Inn Express Windsor Waterfront, an IHG Hotel|Detroit, MI| 109|42.31947| -83.03937|TRUE|TRUE|FALSE|TRUE
5695426|Baymont by Wyndham Downtown Detroit|Detroit, MI|  95|42.34123| -83.01435|TRUE|FALSE|FALSE|TRUE
5695436|Nobu Hotel Atlanta|Atlanta, GA| 525|33.85439| -84.36349|FALSE|FALSE|TRUE|TRUE
5695436|Econo Lodge Conley|Atlanta, GA|  73|33.66714| -84.33847|TRUE|FALSE|FALSE|TRUE
5695436|Wingate by Wyndham - Atlanta at Six Flags|Atlanta, GA|  91|33.84257| -84.31486|TRUE|FALSE|FALSE|TRUE
5695436|Rodeway Inn|Atlanta, GA|  77|33.74900| -84.38798|TRUE|TRUE|FALSE|TRUE
5695436|SpringHill Suites by Marriott Atlanta Downtown|Atlanta, GA| 366|33.76497| -84.39502|FALSE|TRUE|FALSE|TRUE
5695436|Home2 Suites by Hilton Atlanta Downtown|Atlanta, GA| 443|33.75698| -84.39114|FALSE|TRUE|TRUE|TRUE
5695436|Ellis Hotel, Atlanta, A Tribute Portfolio Hotel by Marriott|Atlanta, GA| 512|33.74875| -84.38768|FALSE|FALSE|TRUE|TRUE
5695436|Days Inn by Wyndham Hartsfield Jackson Atlanta Airport West|Atlanta, GA|  71|33.63341| -84.49180|TRUE|FALSE|FALSE|TRUE
5695436|Econo Lodge At Six Flags|Atlanta, GA|  89|33.77361| -84.55028|TRUE|FALSE|FALSE|TRUE
5695436|Thompson Buckhead|Atlanta, GA| 467|33.83833| -84.37435|FALSE|FALSE|TRUE|TRUE
5695436|Stonehurst Place Bed & Breakfast|Atlanta, GA| 537|33.77986| -84.38057|FALSE|FALSE|TRUE|TRUE
5695436|Microtel Inn by Wyndham Atlanta Airport|Atlanta, GA|  82|33.62339| -84.45537|TRUE|FALSE|FALSE|TRUE
5695436|Clarion Inn & Suites Atlanta Downtown|Atlanta, GA| 179|33.74900| -84.40337|FALSE|TRUE|FALSE|TRUE
5695436|Barclay Hotel Atlanta Downtown|Atlanta, GA| 172|33.75734| -84.38944|FALSE|TRUE|FALSE|TRUE
5695436|Hyatt Place Atlanta Centennial Park|Atlanta, GA| 451|33.76254| -84.39597|FALSE|TRUE|TRUE|TRUE
5695436|Quality Inn Atlanta Airport - Central|Atlanta, GA|  90|33.62451| -84.45417|TRUE|FALSE|FALSE|TRUE
5695436|Rodeway Inn At Six Flags|Atlanta, GA|  90|33.77213| -84.55608|TRUE|FALSE|FALSE|TRUE
5695436|Reverb by Hard Rock Atlanta Downtown|Atlanta, GA| 366|33.75348| -84.39925|FALSE|TRUE|FALSE|TRUE
5695436|Omni Atlanta Hotel at CNN Center|Atlanta, GA| 546|33.75915| -84.39494|FALSE|TRUE|TRUE|TRUE
5695436|Howard Johnson by Wyndham Atlanta Airport/College Park|Atlanta, GA|  79|33.61529| -84.43967|TRUE|FALSE|FALSE|TRUE
5695436|W Atlanta Downtown|Atlanta, GA|1886|33.76491| -84.38954|FALSE|FALSE|TRUE|TRUE
5695436|Courtyard by Marriott Atlanta Downtown|Atlanta, GA| 600|33.75820| -84.38809|FALSE|TRUE|TRUE|TRUE
5695436|OYO Hotel Decatur I-285 The Perimeter|Atlanta, GA|  72|33.73786| -84.23582|TRUE|FALSE|FALSE|TRUE
5695436|AC Hotel by Marriott Atlanta Downtown|Atlanta, GA| 789|33.75994| -84.39102|FALSE|TRUE|TRUE|TRUE
5695437|Econo Lodge At Six Flags|Atlanta, GA|  89|33.77361| -84.55028|TRUE|FALSE|FALSE|TRUE
5695437|Wingate by Wyndham - Atlanta at Six Flags|Atlanta, GA|  91|33.84257| -84.31486|TRUE|FALSE|FALSE|TRUE
5695437|Rodeway Inn|Atlanta, GA|  77|33.74900| -84.38798|TRUE|TRUE|FALSE|TRUE
5695437|Home2 Suites by Hilton Atlanta Downtown|Atlanta, GA| 443|33.75698| -84.39114|FALSE|TRUE|TRUE|TRUE
5695437|Howard Johnson by Wyndham Atlanta Airport/College Park|Atlanta, GA|  79|33.61529| -84.43967|TRUE|FALSE|FALSE|TRUE
5695437|Nobu Hotel Atlanta|Atlanta, GA| 525|33.85439| -84.36349|FALSE|FALSE|TRUE|TRUE
5695437|Clarion Inn & Suites Atlanta Downtown|Atlanta, GA| 179|33.74900| -84.40337|FALSE|TRUE|FALSE|TRUE
5695437|AC Hotel by Marriott Atlanta Downtown|Atlanta, GA| 789|33.75994| -84.39102|FALSE|TRUE|TRUE|TRUE
5695437|Days Inn by Wyndham Hartsfield Jackson Atlanta Airport West|Atlanta, GA|  71|33.63341| -84.49180|TRUE|FALSE|FALSE|TRUE
5695437|Omni Atlanta Hotel at CNN Center|Atlanta, GA| 546|33.75915| -84.39494|FALSE|TRUE|TRUE|TRUE
5695437|W Atlanta Downtown|Atlanta, GA|1886|33.76491| -84.38954|FALSE|FALSE|TRUE|TRUE
5695437|Stonehurst Place Bed & Breakfast|Atlanta, GA| 537|33.77986| -84.38057|FALSE|FALSE|TRUE|TRUE
5695437|Quality Inn Atlanta Airport - Central|Atlanta, GA|  90|33.62451| -84.45417|TRUE|FALSE|FALSE|TRUE
5695437|Courtyard by Marriott Atlanta Downtown|Atlanta, GA| 600|33.75820| -84.38809|FALSE|TRUE|TRUE|TRUE
5695437|Microtel Inn by Wyndham Atlanta Airport|Atlanta, GA|  82|33.62339| -84.45537|TRUE|FALSE|FALSE|TRUE
5695437|Thompson Buckhead|Atlanta, GA| 467|33.83833| -84.37435|FALSE|FALSE|TRUE|TRUE
5695437|Ellis Hotel, Atlanta, A Tribute Portfolio Hotel by Marriott|Atlanta, GA| 512|33.74875| -84.38768|FALSE|FALSE|TRUE|TRUE
5695437|OYO Hotel Decatur I-285 The Perimeter|Atlanta, GA|  72|33.73786| -84.23582|TRUE|FALSE|FALSE|TRUE
5695437|SpringHill Suites by Marriott Atlanta Downtown|Atlanta, GA| 366|33.76497| -84.39502|FALSE|TRUE|FALSE|TRUE
5695437|Hyatt Place Atlanta Centennial Park|Atlanta, GA| 451|33.76254| -84.39597|FALSE|TRUE|TRUE|TRUE
5695437|Barclay Hotel Atlanta Downtown|Atlanta, GA| 172|33.75734| -84.38944|FALSE|TRUE|FALSE|TRUE
5695437|Rodeway Inn At Six Flags|Atlanta, GA|  90|33.77213| -84.55608|TRUE|FALSE|FALSE|TRUE
5695437|Reverb by Hard Rock Atlanta Downtown|Atlanta, GA| 366|33.75348| -84.39925|FALSE|TRUE|FALSE|TRUE
5695437|Econo Lodge Conley|Atlanta, GA|  73|33.66714| -84.33847|TRUE|FALSE|FALSE|TRUE
5695474|Days Inn by Wyndham Fremont|Santa Clara, CA| 108|37.49370|-121.93218|TRUE|FALSE|FALSE|TRUE
5695474|Hyatt Regency Santa Clara|Santa Clara, CA| 282|37.40513|-121.97692|FALSE|TRUE|FALSE|TRUE
5695474|Hotel Valencia Santana Row|Santa Clara, CA| 582|37.32084|-121.94809|FALSE|FALSE|TRUE|TRUE
5695474|Arena Hotel|Santa Clara, CA| 114|37.33225|-121.90642|TRUE|FALSE|FALSE|TRUE
5695474|AC Hotel by Marriott Palo Alto|Santa Clara, CA| 422|37.41753|-122.10257|FALSE|FALSE|TRUE|TRUE
5695474|Delta Hotels by Marriott Santa Clara|Santa Clara, CA| 342|37.38366|-121.96216|FALSE|TRUE|FALSE|TRUE
5695474|The Nest Hotel Palo Alto|Santa Clara, CA| 446|37.41735|-122.12899|FALSE|FALSE|TRUE|TRUE
5695474|Extended Stay America Suites Fremont Newark|Santa Clara, CA| 110|37.53234|-122.00339|TRUE|FALSE|FALSE|TRUE
5695474|TETRA Hotel, Autograph Collection|Santa Clara, CA| 382|37.41256|-122.02297|FALSE|TRUE|FALSE|TRUE
5695474|Extended Studio Suites|Santa Clara, CA|  98|37.37558|-121.91870|TRUE|FALSE|FALSE|TRUE
5695474|Shashi Hotel Mountain View, an Urban Resort|Santa Clara, CA| 493|37.41695|-122.07772|FALSE|FALSE|TRUE|TRUE
5695474|Hotel Citrine, Palo Alto, a Tribute Portfolio Hotel|Santa Clara, CA| 422|37.41797|-122.10246|FALSE|FALSE|TRUE|TRUE
5695474|Hilton Santa Clara|Santa Clara, CA| 307|37.40263|-121.97688|FALSE|TRUE|FALSE|TRUE
5695474|Super 8 by Wyndham Mountain View|Santa Clara, CA| 114|37.38965|-122.09332|TRUE|FALSE|FALSE|TRUE
5695474|Hyatt Centric Mountain View|Santa Clara, CA| 419|37.40376|-122.11044|FALSE|FALSE|TRUE|TRUE
5695474|AC Hotel by Marriott San Jose Santa Clara|Santa Clara, CA| 398|37.38548|-121.98044|FALSE|TRUE|TRUE|TRUE
5695474|Ramada by Wyndham Sunnyvale/Silicon Valley|Santa Clara, CA| 171|37.39124|-121.99159|FALSE|TRUE|FALSE|TRUE
5695474|Quality Inn Santa Clara Convention Center|Santa Clara, CA| 114|37.40705|-121.99828|TRUE|TRUE|FALSE|TRUE
5695474|Signia by Hilton San Jose|Santa Clara, CA| 390|37.33316|-121.88876|FALSE|FALSE|TRUE|TRUE
5695474|Hotel Strata|Santa Clara, CA| 407|37.38121|-122.07586|FALSE|FALSE|TRUE|TRUE
5695474|Pacific Motor Inn|Santa Clara, CA| 109|37.32968|-121.88453|TRUE|FALSE|FALSE|TRUE
5695474|Extended Stay America Suites San Jose Santa Clara|Santa Clara, CA| 158|37.41959|-121.97570|FALSE|TRUE|FALSE|TRUE
5695474|Santa Clara Marriott|Santa Clara, CA| 427|37.39068|-121.97426|FALSE|TRUE|TRUE|TRUE
5695474|Quality Inn & Suites Silicon Valley|Santa Clara, CA|  91|37.35174|-121.97989|TRUE|FALSE|FALSE|TRUE
5695474|Comfort Suites San Jose Airport|Santa Clara, CA| 104|37.36352|-121.91064|TRUE|FALSE|FALSE|TRUE
5695474|Signature Inn Santa Clara|Santa Clara, CA| 100|37.34493|-121.93227|TRUE|FALSE|FALSE|TRUE
5695474|Sonesta Silicon Valley|Santa Clara, CA| 283|37.40067|-121.91148|FALSE|TRUE|FALSE|TRUE
5695491|Homewood Suites by Hilton Jacksonville Downtown-Southbank|Jacksonville, FL| 160|30.31232| -81.65358|FALSE|TRUE|TRUE|TRUE
5695491|Hotel Indigo Jacksonville-Deerwood Park, an IHG Hotel|Jacksonville, FL| 187|30.25811| -81.55221|FALSE|FALSE|TRUE|TRUE
5695491|Marriott Jacksonville Downtown|Jacksonville, FL| 226|30.32594| -81.66196|FALSE|TRUE|TRUE|TRUE
5695491|Extended Stay America Suites Jacksonville Riverwalk Conv Ctr|Jacksonville, FL| 129|30.31668| -81.65557|FALSE|TRUE|FALSE|TRUE
5695491|Hampton Inn Jacksonville-Downtown-I-95|Jacksonville, FL| 153|30.31661| -81.65675|FALSE|TRUE|TRUE|TRUE
5695491|WoodSpring Suites Jacksonville I-295 East|Jacksonville, FL|  76|30.35487| -81.55643|TRUE|FALSE|FALSE|TRUE
5695491|Red Roof Inn Jacksonville - Cruise Port|Jacksonville, FL|  85|30.43278| -81.65759|TRUE|FALSE|FALSE|TRUE
5695491|Baymont by Wyndham Jacksonville/Butler Blvd|Jacksonville, FL|  76|30.24634| -81.59905|TRUE|FALSE|FALSE|TRUE
5695491|Embassy Suites by Hilton Jacksonville Baymeadows|Jacksonville, FL| 288|30.22007| -81.56508|FALSE|FALSE|TRUE|TRUE
5695491|Metro Inn & Suites|Jacksonville, FL|  60|30.36553| -81.67090|TRUE|TRUE|FALSE|TRUE
5695491|La Quinta Inn & Suites by Wyndham Jacksonville Butler Blvd|Jacksonville, FL|  85|30.24798| -81.59747|TRUE|FALSE|FALSE|TRUE
5695491|Hilton Garden Inn Jacksonville Downtown Southbank|Jacksonville, FL| 144|30.31250| -81.65355|FALSE|TRUE|FALSE|TRUE
5695491|Southbank Hotel by Marriott Jacksonville Riverwalk|Jacksonville, FL| 153|30.24760| -81.58965|FALSE|FALSE|TRUE|TRUE
5695491|Wyndham Garden Jacksonville|Jacksonville, FL|  86|30.24914| -81.58999|TRUE|FALSE|FALSE|TRUE
5695491|Marriott Jacksonville|Jacksonville, FL| 249|30.24762| -81.58968|FALSE|FALSE|TRUE|TRUE
5695491|Quality Inn & Suites|Jacksonville, FL|  72|30.21781| -81.57070|TRUE|FALSE|FALSE|TRUE
5695491|Sheraton Jacksonville Hotel|Jacksonville, FL| 193|30.24826| -81.53799|FALSE|FALSE|TRUE|TRUE
5695491|Stayable Suites Jacksonville West|Jacksonville, FL|  70|30.33473| -81.75988|TRUE|FALSE|FALSE|TRUE
5695491|FRONTDESK Pier 5350 Apts Woodland Acres Jacksonville|Jacksonville, FL| 148|30.32271| -81.57884|FALSE|TRUE|FALSE|TRUE
5695491|Econo Lodge|Jacksonville, FL|  82|30.48362| -81.64882|TRUE|FALSE|FALSE|TRUE
5695491|Hyatt Regency Jacksonville|Jacksonville, FL| 229|30.32438| -81.65595|FALSE|TRUE|TRUE|TRUE
5695491|Extended Stay America Suites Jacksonville St Johns Towne Ctr|Jacksonville, FL|  97|30.33218| -81.65565|FALSE|TRUE|FALSE|TRUE
5695491|Hyatt Place Jacksonville / St. Johns Town Center|Jacksonville, FL| 180|30.25682| -81.53036|FALSE|FALSE|TRUE|TRUE
5695491|DoubleTree by Hilton Hotel Jacksonville Riverfront|Jacksonville, FL| 193|30.32011| -81.65795|FALSE|TRUE|TRUE|TRUE
5695491|Stayable Suites Jacksonville North|Jacksonville, FL|  76|30.42883| -81.65767|TRUE|FALSE|FALSE|TRUE
5695530|The Mark|East Rutherford, NJ|1260|40.77527| -73.96340|FALSE|FALSE|TRUE|TRUE
5695530|The Central Park North|East Rutherford, NJ|  94|40.79975| -73.95360|TRUE|FALSE|FALSE|TRUE
5695530|Rodeway Inn Capri|East Rutherford, NJ|  95|40.85428| -74.03318|TRUE|FALSE|FALSE|TRUE
5695530|Hampton Inn Carlstadt-At The Meadowlands|East Rutherford, NJ| 129|40.82162| -74.06893|FALSE|TRUE|FALSE|TRUE
5695530|The Langham, New York, Fifth Avenue|East Rutherford, NJ| 744|40.75014| -73.98353|FALSE|FALSE|TRUE|TRUE
5695530|Americana Inn|East Rutherford, NJ|  98|40.75229| -73.98555|TRUE|FALSE|FALSE|TRUE
5695530|Days Inn by Wyndham Jersey City / NYC Area|East Rutherford, NJ|  89|40.75580| -74.05475|TRUE|FALSE|FALSE|TRUE
5695530|Hilton Meadowlands|East Rutherford, NJ| 152|40.80516| -74.07849|FALSE|TRUE|FALSE|TRUE
5695530|Hotel 21 Nyc|East Rutherford, NJ|  86|40.75367| -73.94228|TRUE|FALSE|FALSE|TRUE
5695530|Loews Regency New York Hotel|East Rutherford, NJ| 498|40.76457| -73.96901|FALSE|FALSE|TRUE|TRUE
5695530|The Plaza Hotel|East Rutherford, NJ| 899|40.76466| -73.97444|FALSE|FALSE|TRUE|TRUE
5695530|Rodeway Inn Meadowlands|East Rutherford, NJ|  94|40.79292| -74.05712|TRUE|TRUE|FALSE|TRUE
5695530|The Knickerbocker Hotel|East Rutherford, NJ| 508|40.75558| -73.98627|FALSE|FALSE|TRUE|TRUE
5695530|1 Hotel Central Park|East Rutherford, NJ| 553|40.76481| -73.97646|FALSE|FALSE|TRUE|TRUE
5695530|Feather Factory|East Rutherford, NJ|  90|40.83399| -74.09709|TRUE|TRUE|FALSE|TRUE
5695530|Meadowlands Plaza Hotel|East Rutherford, NJ| 163|40.79729| -74.06352|FALSE|TRUE|FALSE|TRUE
5695530|Extended Stay America Suites Meadowlands Rutherford|East Rutherford, NJ| 140|40.80552| -74.07585|FALSE|TRUE|FALSE|TRUE
5695530|Renaissance Meadowlands Hotel|East Rutherford, NJ| 199|40.81150| -74.10409|FALSE|TRUE|FALSE|TRUE
5695530|Equinox Hotel New York|East Rutherford, NJ| 773|40.75465| -74.00221|FALSE|FALSE|TRUE|TRUE
5695530|Harmony Suites|East Rutherford, NJ|  99|40.78854| -74.04314|TRUE|FALSE|FALSE|TRUE
5695530|The Dominick|East Rutherford, NJ| 546|40.72547| -74.00533|FALSE|FALSE|TRUE|TRUE
5695530|Super 8 by Wyndham Meadowlands|East Rutherford, NJ| 105|40.81955| -74.06378|FALSE|TRUE|FALSE|TRUE
5695530|Hotel Barriere Fouquets New York|East Rutherford, NJ| 982|40.72362| -74.00975|FALSE|FALSE|TRUE|TRUE
5695530|The Towers at Lotte New York Palace|East Rutherford, NJ| 899|40.75797| -73.97487|FALSE|FALSE|TRUE|TRUE
5695530|Astoria Delancy Inn & Suites|East Rutherford, NJ|  92|40.75719| -73.93643|TRUE|FALSE|FALSE|TRUE
5695530|Extended Stay America Suites Meadowlands East Rutherford|East Rutherford, NJ| 156|40.80552| -74.07585|FALSE|TRUE|FALSE|TRUE
5695530|Courtyard by Marriott Lyndhurst Meadowlands|East Rutherford, NJ| 155|40.80967| -74.10461|FALSE|TRUE|FALSE|TRUE
5695530|The Collective Paper Factory|East Rutherford, NJ| 118|40.83399| -74.09709|FALSE|TRUE|FALSE|TRUE
5695530|TownePlace Suites by Marriott New York Long Island City/Manhattan View|East Rutherford, NJ|  94|40.75741| -73.94295|TRUE|FALSE|FALSE|TRUE
5695547|Quality Inn Hamburg|Orchard Park, NY|  77|42.73895| -78.84579|TRUE|TRUE|FALSE|TRUE
5695547|Hilton Garden Inn Buffalo Downtown|Orchard Park, NY| 294|42.88611| -78.87400|FALSE|FALSE|TRUE|TRUE
5695547|Super 8 by Wyndham Hamburg|Orchard Park, NY|  74|42.73834| -78.84703|TRUE|TRUE|FALSE|TRUE
5695547|Staybridge Suites West Seneca, an IHG Hotel|Orchard Park, NY| 146|42.83590| -78.75389|FALSE|TRUE|FALSE|TRUE
5695547|Embassy Suites Buffalo|Orchard Park, NY| 213|42.88969| -78.87765|FALSE|FALSE|TRUE|TRUE
5695547|Hampton Inn Buffalo-Hamburg|Orchard Park, NY| 120|42.73895| -78.84579|TRUE|TRUE|FALSE|TRUE
5695547|Hampton Inn Buffalo South/I-90|Orchard Park, NY| 134|42.82988| -78.78885|TRUE|TRUE|FALSE|TRUE
5695547|Roycroft Inn|Orchard Park, NY| 218|42.76695| -78.61754|FALSE|TRUE|TRUE|TRUE
5695547|M Hotel Buffalo|Orchard Park, NY| 275|42.90977| -78.76056|FALSE|FALSE|TRUE|TRUE
5695547|Comfort Inn And Suites Hamburg|Orchard Park, NY|  86|42.73984| -78.85089|TRUE|TRUE|FALSE|TRUE
5695547|Hotel at the Lafayette Trademark Collection by Wyndham|Orchard Park, NY| 163|42.88496| -78.87294|FALSE|FALSE|TRUE|TRUE
5695547|Hampton Inn East Aurora|Orchard Park, NY| 134|42.76626| -78.60822|TRUE|FALSE|FALSE|TRUE
5695547|Baymont by Wyndham Buffalo|Orchard Park, NY| 113|42.90827| -78.75244|TRUE|FALSE|FALSE|TRUE
5695547|Aloft Buffalo Downtown, a Marriott Hotel|Orchard Park, NY| 255|42.89337| -78.87391|FALSE|FALSE|TRUE|TRUE
5695547|Hyatt Regency Buffalo / Hotel and Conference Center|Orchard Park, NY| 323|42.88852| -78.87404|FALSE|FALSE|TRUE|TRUE
5695547|Home2 Suites by Hilton Buffalo Airport / Galleria Mall|Orchard Park, NY| 134|42.90555| -78.76556|TRUE|FALSE|FALSE|TRUE
5695547|Curtiss Hotel, Ascend Hotel Collection|Orchard Park, NY| 226|42.88951| -78.87597|FALSE|FALSE|TRUE|TRUE
5695547|The Mansion On Delaware Ave|Orchard Park, NY| 194|42.89561| -78.87544|FALSE|FALSE|TRUE|TRUE
5695547|Best Western Plus Galleria Inn & Suites|Orchard Park, NY|  97|42.87699| -78.79392|TRUE|TRUE|FALSE|TRUE
5695547|Econo Lodge South|Orchard Park, NY|  73|42.79112| -78.81852|TRUE|TRUE|FALSE|TRUE
5695547|Quality Inn Near Walden Galleria Mall|Orchard Park, NY|  96|42.87728| -78.79820|TRUE|TRUE|FALSE|TRUE
5695547|The Westin Buffalo|Orchard Park, NY| 275|42.89122| -78.87687|FALSE|FALSE|TRUE|TRUE
5695568|Tru By Hilton Denver Downtown Convention Center|Denver, CO| 160|39.74523|-104.99427|FALSE|TRUE|FALSE|TRUE
5695568|HomeTowne Studios by Red Roof Denver - Glendale/Cherry Creek|Denver, CO|  80|39.70810|-104.93090|TRUE|FALSE|FALSE|TRUE
5695568|Kimpton Hotel Born, an IHG Hotel|Denver, CO| 302|39.75327|-105.00203|FALSE|TRUE|TRUE|TRUE
5695568|The Curtis Denver - a DoubleTree by Hilton Hotel|Denver, CO| 173|39.74573|-104.99707|FALSE|TRUE|FALSE|TRUE
5695568|Americas Best Value Inn Denver|Denver, CO|  74|39.77242|-104.84902|TRUE|FALSE|FALSE|TRUE
5695568|The Ritz-Carlton, Denver|Denver, CO| 635|39.75014|-104.99188|FALSE|FALSE|TRUE|TRUE
5695568|Super 8 by Wyndham Henderson North East Denver|Denver, CO|  72|39.86165|-104.91073|TRUE|FALSE|FALSE|TRUE
5695568|Rodeway Inn Denver Downtown|Denver, CO|  97|39.75575|-105.01639|FALSE|TRUE|FALSE|TRUE
5695568|Quality Inn Denver Westminster|Denver, CO|  83|39.85124|-105.04978|TRUE|FALSE|FALSE|TRUE
5695568|HomeTowne Studios by Red Roof Denver - Lakewood West|Denver, CO|  83|39.72818|-105.11027|TRUE|FALSE|FALSE|TRUE
5695568|Thompson Denver|Denver, CO| 313|39.74987|-104.99779|FALSE|TRUE|TRUE|TRUE
5695568|HomeTowne Studios by Red Roof Denver - Thornton|Denver, CO|  84|39.91235|-104.98863|TRUE|FALSE|FALSE|TRUE
5695568|Hilton Denver City Center|Denver, CO| 185|39.74720|-104.99052|FALSE|FALSE|TRUE|TRUE
5695568|Hyatt Place Denver Downtown|Denver, CO| 186|39.74155|-104.99290|FALSE|FALSE|TRUE|TRUE
5695568|Super 8 by Wyndham Denver Central|Denver, CO|  78|39.80329|-104.98653|TRUE|FALSE|FALSE|TRUE
5695568|Warwick Denver|Denver, CO| 194|39.74440|-104.98326|FALSE|FALSE|TRUE|TRUE
5695568|Quality Inn Denver Downtown|Denver, CO|  97|39.75547|-105.01757|FALSE|TRUE|FALSE|TRUE
5695568|The Slate Denver, Tapestry Collection By Hilton|Denver, CO| 154|39.74091|-104.99477|FALSE|TRUE|FALSE|TRUE
5695568|Home2 Suites by Hilton Denver Downtown Convention Center|Denver, CO| 173|39.74523|-104.99427|FALSE|TRUE|FALSE|TRUE
5695568|Super 8 by Wyndham Wheat Ridge/Denver West|Denver, CO|  85|39.78234|-105.10855|TRUE|FALSE|FALSE|TRUE
5695568|Hotel Indigo Denver Downtown, an IHG Hotel|Denver, CO| 226|39.75556|-105.00010|FALSE|TRUE|TRUE|TRUE
5695568|The Rally Hotel|Denver, CO| 271|39.75532|-104.99612|FALSE|FALSE|TRUE|TRUE
5695568|Days Inn by Wyndham Denver Downtown|Denver, CO|  78|39.73973|-104.97571|TRUE|FALSE|FALSE|TRUE
5695568|Four Seasons Hotel Denver|Denver, CO| 955|39.74648|-104.99819|FALSE|TRUE|TRUE|TRUE
5695568|Hyatt Centric Downtown Denver|Denver, CO| 199|39.74803|-104.99148|FALSE|FALSE|TRUE|TRUE
5695568|La Quinta Inn by Wyndham Denver Westminster|Denver, CO|  90|39.85300|-105.05179|TRUE|FALSE|FALSE|TRUE
5695586|The Alexander, a Dolce by Wyndham|Indianapolis, IN| 238|39.76179| -86.15447|FALSE|FALSE|TRUE|TRUE
5695586|Super 8 by Wyndham Indianapolis South|Indianapolis, IN|  81|39.69757| -86.15026|TRUE|FALSE|FALSE|TRUE
5695586|Quality Inn South|Indianapolis, IN|  70|39.69870| -86.18827|TRUE|FALSE|FALSE|TRUE
5695586|Bottleworks Hotel|Indianapolis, IN| 287|39.77909| -86.14340|FALSE|FALSE|TRUE|TRUE
5695586|Baymont by Wyndham Indianapolis West|Indianapolis, IN|  75|39.82521| -86.27816|TRUE|FALSE|FALSE|TRUE
5695586|Marriott Indianapolis Downtown|Indianapolis, IN| 280|39.76663| -86.16481|FALSE|TRUE|TRUE|TRUE
5695586|Omni Severin Hotel|Indianapolis, IN| 221|39.76381| -86.15980|FALSE|TRUE|TRUE|TRUE
5695586|Hotel Indy, Indianapolis, a Tribute Portfolio Hotel|Indianapolis, IN| 233|39.76633| -86.15474|FALSE|FALSE|TRUE|TRUE
5695586|Le Méridien Indianapolis|Indianapolis, IN| 245|39.76514| -86.15965|FALSE|TRUE|TRUE|TRUE
5695586|Tru By Hilton Indianapolis Downtown, IN|Indianapolis, IN| 134|39.75889| -86.15967|FALSE|TRUE|FALSE|TRUE
5695586|Hyatt Regency Indianapolis|Indianapolis, IN| 291|39.76636| -86.16082|FALSE|TRUE|TRUE|TRUE
5695586|JW Marriott Indianapolis|Indianapolis, IN| 280|39.76659| -86.16769|FALSE|TRUE|TRUE|TRUE
5695586|Crowne Plaza Indianapolis - Downtown Union Station, an IHG Hotel|Indianapolis, IN| 221|39.76840| -86.15807|FALSE|FALSE|TRUE|TRUE
5695586|Sleep Inn|Indianapolis, IN|  75|39.76840| -86.15807|TRUE|FALSE|FALSE|TRUE
5695586|Extended Stay America Suites Indianapolis Airport W Southern|Indianapolis, IN|  74|39.72960| -86.25363|TRUE|FALSE|FALSE|TRUE
5695586|Conrad Indianapolis|Indianapolis, IN| 248|39.76743| -86.15920|FALSE|FALSE|TRUE|TRUE
5695586|Quality Inn & Suites|Indianapolis, IN|  69|39.84322| -86.25248|TRUE|FALSE|FALSE|TRUE
5695586|The Westin Indianapolis|Indianapolis, IN| 210|39.76647| -86.16359|FALSE|TRUE|FALSE|TRUE
5695586|Hyatt Place Indianapolis Downtown|Indianapolis, IN| 205|39.76461| -86.15676|FALSE|TRUE|FALSE|TRUE
5695586|Extended Stay America Suites Indianapolis Airport|Indianapolis, IN|  73|39.72538| -86.26306|TRUE|FALSE|FALSE|TRUE
5695586|La Quinta Inn by Wyndham Indianapolis Airport Lynhurst|Indianapolis, IN|  79|39.72898| -86.25133|TRUE|FALSE|FALSE|TRUE
5695586|Quality Inn East|Indianapolis, IN|  74|39.79725| -86.04365|TRUE|FALSE|FALSE|TRUE
5695586|Days Inn by Wyndham Indianapolis East Post Road|Indianapolis, IN|  81|39.79823| -86.01011|TRUE|FALSE|FALSE|TRUE
5695586|Hyatt House Indianapolis Downtown|Indianapolis, IN| 175|39.76469| -86.15685|FALSE|TRUE|FALSE|TRUE
5695586|Hampton Inn Indianapolis Downtown Across from Circle Centre|Indianapolis, IN| 208|39.76541| -86.15764|FALSE|TRUE|FALSE|TRUE
5695604|SureStay Plus Hotel by Best Western Kansas City Northeast|Kansas City, MO|  95|39.16752| -94.49565|TRUE|FALSE|FALSE|TRUE
5695604|Stoney Creek Hotel Kansas City - Independence|Kansas City, MO| 137|39.03937| -94.36783|FALSE|TRUE|TRUE|TRUE
5695604|La Quinta Inn & Suites by Wyndham Kansas City Beacon Hill|Kansas City, MO| 113|39.08404| -94.57033|FALSE|TRUE|TRUE|TRUE
5695604|Ameristar Casino Hotel Kansas City|Kansas City, MO| 142|39.15052| -94.48480|FALSE|FALSE|TRUE|TRUE
5695604|Hotel Lotus|Kansas City, MO| 152|39.05315| -94.47464|FALSE|TRUE|TRUE|TRUE
5695604|Harrah's Kansas City Hotel and Casino|Kansas City, MO| 139|39.14237| -94.54424|FALSE|FALSE|TRUE|TRUE
5695604|Seville Plaza Hotel, Trademark Collection by Wyndham|Kansas City, MO| 122|39.04866| -94.58623|FALSE|TRUE|TRUE|TRUE
5695604|WoodSpring Suites Kansas City Mission|Kansas City, MO|  77|39.04066| -94.66719|TRUE|FALSE|FALSE|TRUE
5695604|Baymont by Wyndham Kansas City KU Medical Center|Kansas City, MO|  85|39.06629| -94.61417|TRUE|FALSE|FALSE|TRUE
5695604|Extended Stay America Suites Kansas City South|Kansas City, MO|  76|38.95238| -94.50793|TRUE|FALSE|FALSE|TRUE
5695604|The Westin Kansas City at Crown Center|Kansas City, MO| 249|39.08335| -94.58284|FALSE|TRUE|TRUE|TRUE
5695604|Extended Stay America Select Suites - Kansas City - Stadium|Kansas City, MO| 107|39.05517| -94.47950|FALSE|TRUE|TRUE|TRUE
5695604|Clarion Pointe|Kansas City, MO|  67|39.04711| -94.41583|TRUE|TRUE|FALSE|TRUE
5695604|Best Western Country Inn - North|Kansas City, MO|  91|39.17105| -94.54752|TRUE|FALSE|FALSE|TRUE
5695604|La Quinta Inn by Wyndham Kansas City North|Kansas City, MO|  72|39.14712| -94.55866|TRUE|FALSE|FALSE|TRUE
5695604|My Place Hotel - Kansas City East/Independence, MO|Kansas City, MO| 104|39.03631| -94.34491|FALSE|FALSE|TRUE|TRUE
5695604|Econo Lodge Kansas City Downtown North|Kansas City, MO|  86|39.14696| -94.55791|TRUE|FALSE|FALSE|TRUE
5695604|The Fontaine|Kansas City, MO| 210|39.04007| -94.59850|FALSE|TRUE|TRUE|TRUE
5695604|Super 8 by Wyndham Kansas City|Kansas City, MO|  90|39.17290| -94.49450|TRUE|FALSE|FALSE|TRUE
5695604|Best Western Premier Kansas City Sports Complex Hotel|Kansas City, MO|  99|39.04947| -94.47401|FALSE|TRUE|FALSE|TRUE
5695604|Arrowhead Inn|Kansas City, MO|  63|39.06911| -94.51370|TRUE|TRUE|FALSE|TRUE
5695606|Hyatt Place Nashville Downtown|Nashville, TN| 198|36.15843| -86.77435|FALSE|TRUE|TRUE|TRUE
5695606|Thompson Nashville|Nashville, TN| 378|36.15232| -86.78403|FALSE|FALSE|TRUE|TRUE
5695606|La Quinta Inn & Suites by Wyndham Nashville Downtown / Stadium|Nashville, TN| 175|36.16775| -86.76624|FALSE|TRUE|FALSE|TRUE
5695606|Dream Nashville|Nashville, TN| 370|36.16411| -86.77909|FALSE|TRUE|TRUE|TRUE
5695606|Econo Lodge North|Nashville, TN|  80|36.23261| -86.75763|TRUE|FALSE|FALSE|TRUE
5695606|The Hermitage Hotel|Nashville, TN| 536|36.16376| -86.78236|FALSE|TRUE|TRUE|TRUE
5695606|The Joseph, a Luxury Collection Hotel, Nashville|Nashville, TN| 451|36.15658| -86.77473|FALSE|TRUE|TRUE|TRUE
5695606|The Alexis Inn & Suites - Nashville Airport|Nashville, TN|  93|36.15255| -86.68736|TRUE|FALSE|FALSE|TRUE
5695606|Clarion Hotel Nashville Downtown - Stadium|Nashville, TN| 139|36.17484| -86.77378|FALSE|TRUE|FALSE|TRUE
5695606|Sleep Inn|Nashville, TN|  80|36.16266| -86.78160|TRUE|TRUE|FALSE|TRUE
5695606|Hilton Nashville Downtown|Nashville, TN| 457|36.16002| -86.77724|FALSE|TRUE|TRUE|TRUE
5695606|JW Marriott Nashville|Nashville, TN| 416|36.15634| -86.78107|FALSE|FALSE|TRUE|TRUE
5695606|Four Seasons Nashville|Nashville, TN| 723|36.16007| -86.77366|FALSE|TRUE|TRUE|TRUE
5695606|Extended Stay America Suites Nashville Airport|Nashville, TN|  90|36.15370| -86.69047|TRUE|FALSE|FALSE|TRUE
5695606|La Quinta Inn by Wyndham Nashville South|Nashville, TN|  85|36.08417| -86.76250|TRUE|FALSE|FALSE|TRUE
5695606|Days Inn by Wyndham Nashville Airport|Nashville, TN|  81|36.13446| -86.72459|TRUE|FALSE|FALSE|TRUE
5695606|Suburban Studios|Nashville, TN|  83|36.17332| -86.60324|TRUE|FALSE|FALSE|TRUE
5695606|Loews Vanderbilt Hotel|Nashville, TN| 184|36.15066| -86.80216|FALSE|FALSE|TRUE|TRUE
5695606|Extended Stay America Suites Nashville Brentwood South|Nashville, TN|  95|36.03414| -86.78058|TRUE|FALSE|FALSE|TRUE
5695606|1 Hotel Nashville|Nashville, TN| 410|36.15711| -86.78073|FALSE|TRUE|TRUE|TRUE
5695606|Ramada by Wyndham Nashville/Music Valley|Nashville, TN|  91|36.21901| -86.69493|TRUE|FALSE|FALSE|TRUE
5695606|Days Inn by Wyndham Nashville Saint Thomas West Hospital|Nashville, TN|  85|36.14377| -86.85803|TRUE|FALSE|FALSE|TRUE
5695636|Super 8 by Wyndham Green Bay I-43 Bus. Park|Green Bay, WI|  87|44.48638| -87.93742|TRUE|FALSE|FALSE|TRUE
5695636|Comfort Inn Green Bay|Green Bay, WI|  87|44.47263| -88.07697|TRUE|TRUE|FALSE|TRUE
5695636|Hyatt Regency Green Bay|Green Bay, WI| 207|44.51758| -88.01064|FALSE|FALSE|TRUE|TRUE
5695636|Residence Inn by Marriott Green Bay Downtown|Green Bay, WI| 117|44.48014| -88.05150|FALSE|TRUE|FALSE|TRUE
5695636|AmericInn by Wyndham Green Bay West|Green Bay, WI| 108|44.55953| -88.06557|TRUE|FALSE|FALSE|TRUE
5695636|Wingate by Wyndham Green Bay/Airport|Green Bay, WI| 107|44.49453| -88.12332|TRUE|FALSE|FALSE|TRUE
5695636|Extended Stay Airport|Green Bay, WI|  75|44.49157| -88.10388|TRUE|FALSE|FALSE|TRUE
5695636|My Place Hotel - Green Bay|Green Bay, WI| 113|44.49021| -88.05939|FALSE|TRUE|FALSE|TRUE
5695636|Radisson Conference Center Green Bay|Green Bay, WI| 149|44.49726| -88.12233|FALSE|FALSE|TRUE|TRUE
5695636|Hotel Northland, Autograph Collection|Green Bay, WI| 186|44.51578| -88.01287|FALSE|FALSE|TRUE|TRUE
5695636|SpringHill Suites Green Bay|Green Bay, WI| 184|44.49633| -88.05121|FALSE|TRUE|TRUE|TRUE
5695636|Tundra Lodge|Green Bay, WI| 179|44.49568| -88.04541|FALSE|TRUE|TRUE|TRUE
5695636|AmericInn by Wyndham Green Bay Near Stadium|Green Bay, WI| 113|44.47346| -88.07673|FALSE|TRUE|FALSE|TRUE
5695636|Quality Inn Stadium Area|Green Bay, WI|  99|44.49769| -88.05442|TRUE|TRUE|FALSE|TRUE
5695636|Baymont by Wyndham Green Bay|Green Bay, WI|  73|44.47234| -88.07631|TRUE|FALSE|FALSE|TRUE
5695636|Hotel J Green Bay|Green Bay, WI|  91|44.49177| -88.10755|TRUE|FALSE|FALSE|TRUE
5695636|Nuks Executive Suites|Green Bay, WI| 103|44.45023| -88.06188|TRUE|FALSE|FALSE|TRUE
5695636|Fairfield Inn by Marriott Green Bay|Green Bay, WI| 109|44.47178| -88.07625|TRUE|FALSE|FALSE|TRUE
5695636|Aloft Green Bay, a Marriott Hotel|Green Bay, WI| 117|44.47844| -88.05245|FALSE|TRUE|FALSE|TRUE
5695636|Hampton Inn Green Bay Downtown|Green Bay, WI| 129|44.51840| -88.01276|FALSE|FALSE|TRUE|TRUE
5695636|Lodge Kohler|Green Bay, WI| 299|44.50229| -88.06497|FALSE|TRUE|TRUE|TRUE
5695636|Astor House|Green Bay, WI| 160|44.50501| -88.01518|FALSE|FALSE|TRUE|TRUE
5695636|Best Western Green Bay Inn Conference Center|Green Bay, WI| 118|44.49878| -88.05316|FALSE|TRUE|TRUE|TRUE
5695636|Hawthorn Suites by Wyndham Green Bay|Green Bay, WI| 132|44.48523| -88.02414|FALSE|FALSE|TRUE|TRUE
5695637|Tundra Lodge|Green Bay, WI| 179|44.49568| -88.04541|FALSE|TRUE|TRUE|TRUE
5695637|Quality Inn Stadium Area|Green Bay, WI|  99|44.49769| -88.05442|TRUE|TRUE|FALSE|TRUE
5695637|Extended Stay Airport|Green Bay, WI|  75|44.49157| -88.10388|TRUE|FALSE|FALSE|TRUE
5695637|Super 8 by Wyndham Green Bay I-43 Bus. Park|Green Bay, WI|  87|44.48638| -87.93742|TRUE|FALSE|FALSE|TRUE
5695637|SpringHill Suites Green Bay|Green Bay, WI| 184|44.49633| -88.05121|FALSE|TRUE|TRUE|TRUE
5695637|Baymont by Wyndham Green Bay|Green Bay, WI|  73|44.47234| -88.07631|TRUE|FALSE|FALSE|TRUE
5695637|Hyatt Regency Green Bay|Green Bay, WI| 207|44.51758| -88.01064|FALSE|FALSE|TRUE|TRUE
5695637|My Place Hotel - Green Bay|Green Bay, WI| 113|44.49021| -88.05939|FALSE|TRUE|FALSE|TRUE
5695637|Comfort Inn Green Bay|Green Bay, WI|  87|44.47263| -88.07697|TRUE|TRUE|FALSE|TRUE
5695637|Residence Inn by Marriott Green Bay Downtown|Green Bay, WI| 117|44.48014| -88.05150|FALSE|TRUE|FALSE|TRUE
5695637|Nuks Executive Suites|Green Bay, WI| 103|44.45023| -88.06188|TRUE|FALSE|FALSE|TRUE
5695637|Hotel Northland, Autograph Collection|Green Bay, WI| 186|44.51578| -88.01287|FALSE|FALSE|TRUE|TRUE
5695637|Hotel J Green Bay|Green Bay, WI|  91|44.49177| -88.10755|TRUE|FALSE|FALSE|TRUE
5695637|Lodge Kohler|Green Bay, WI| 299|44.50229| -88.06497|FALSE|TRUE|TRUE|TRUE
5695637|Aloft Green Bay, a Marriott Hotel|Green Bay, WI| 117|44.47844| -88.05245|FALSE|TRUE|FALSE|TRUE
5695637|Best Western Green Bay Inn Conference Center|Green Bay, WI| 118|44.49878| -88.05316|FALSE|TRUE|TRUE|TRUE
5695637|AmericInn by Wyndham Green Bay West|Green Bay, WI| 108|44.55953| -88.06557|TRUE|FALSE|FALSE|TRUE
5695637|Radisson Conference Center Green Bay|Green Bay, WI| 149|44.49726| -88.12233|FALSE|FALSE|TRUE|TRUE
5695637|Wingate by Wyndham Green Bay/Airport|Green Bay, WI| 107|44.49453| -88.12332|TRUE|FALSE|FALSE|TRUE
5695637|Fairfield Inn by Marriott Green Bay|Green Bay, WI| 109|44.47178| -88.07625|TRUE|FALSE|FALSE|TRUE
5695637|AmericInn by Wyndham Green Bay Near Stadium|Green Bay, WI| 113|44.47346| -88.07673|FALSE|TRUE|FALSE|TRUE
5695637|Hampton Inn Green Bay Downtown|Green Bay, WI| 129|44.51840| -88.01276|FALSE|FALSE|TRUE|TRUE
5695637|Astor House|Green Bay, WI| 160|44.50501| -88.01518|FALSE|FALSE|TRUE|TRUE
5695637|Hawthorn Suites by Wyndham Green Bay|Green Bay, WI| 132|44.48523| -88.02414|FALSE|FALSE|TRUE|TRUE
5695654|Springhill Suites by Marriott Midtown Cincinnati|Cincinnati, OH| 164|39.11798| -84.49864|FALSE|FALSE|TRUE|TRUE
5695654|Embassy Suites by Hilton Cincinnati RiverCenter|Cincinnati, OH| 183|39.08998| -84.51117|FALSE|TRUE|TRUE|TRUE
5695654|Graduate Cincinnati|Cincinnati, OH| 150|39.13667| -84.50733|FALSE|FALSE|TRUE|TRUE
5695654|Extended Stay America Select Suites - Cincinnati - Florence - Airport|Cincinnati, OH|  90|39.01055| -84.63280|TRUE|FALSE|FALSE|TRUE
5695654|Holiday Inn Cincinnati-Riverfront, an IHG Hotel|Cincinnati, OH| 143|39.08798| -84.52047|FALSE|TRUE|TRUE|TRUE
5695654|Red Roof Inn Cincinnati Airport–Florence/ Erlanger|Cincinnati, OH|  72|39.02683| -84.61616|TRUE|FALSE|FALSE|TRUE
5695654|Hampton Inn & Suites Cincinnati-Downtown|Cincinnati, OH| 175|39.10294| -84.51363|FALSE|TRUE|TRUE|TRUE
5695654|Radisson Hotel Cincinnati Riverfront|Cincinnati, OH| 132|39.08574| -84.52184|FALSE|TRUE|FALSE|TRUE
5695654|21c Museum Hotel Cincinnati|Cincinnati, OH| 415|39.10309| -84.51211|FALSE|TRUE|TRUE|TRUE
5695654|Comfort Inn & Suites|Cincinnati, OH| 100|39.09547| -84.28096|TRUE|FALSE|FALSE|TRUE
5695654|Comfort Suites Cincinnati Airport|Cincinnati, OH| 100|39.07720| -84.66093|TRUE|FALSE|FALSE|TRUE
5695654|Super 8 by Wyndham Fort Mitchell Cincinnati Area|Cincinnati, OH|  69|39.04846| -84.57065|TRUE|FALSE|FALSE|TRUE
5695654|Days Inn by Wyndham Florence Cincinnati Area|Cincinnati, OH|  71|39.00929| -84.63429|TRUE|FALSE|FALSE|TRUE
5695654|Hyatt Regency Cincinnati|Cincinnati, OH| 212|39.10027| -84.51561|FALSE|TRUE|TRUE|TRUE
5695654|Best Western Inn Florence|Cincinnati, OH|  74|39.00272| -84.64350|TRUE|FALSE|FALSE|TRUE
5695654|Days Inn by Wyndham Fort Wright Cincinnati Area|Cincinnati, OH|  67|39.05662| -84.54476|TRUE|FALSE|FALSE|TRUE
5695654|The Westin Cincinnati|Cincinnati, OH| 200|39.10075| -84.51230|FALSE|TRUE|TRUE|TRUE
5695654|Wildwood Inn Tropical Dome & Theme Suites|Cincinnati, OH|  95|38.99075| -84.63626|TRUE|FALSE|FALSE|TRUE
5695654|Hilton Cincinnati Netherland Plaza|Cincinnati, OH| 213|39.10074| -84.51397|FALSE|TRUE|TRUE|TRUE
5695654|Extended Stay America Suites Cincinnati Covington|Cincinnati, OH| 112|39.10312| -84.51202|FALSE|TRUE|FALSE|TRUE
5695654|Comfort Inn Airport Turfway Road|Cincinnati, OH|  90|39.01822| -84.63518|TRUE|FALSE|FALSE|TRUE
5695654|Quality Inn & Suites|Cincinnati, OH|  76|39.10357| -84.52874|TRUE|TRUE|FALSE|TRUE
5695654|Residence Inn by Marriott Cincinnati Downtown/The Phelps|Cincinnati, OH| 201|39.10157| -84.50451|FALSE|FALSE|TRUE|TRUE
5695655|Holiday Inn Cincinnati-Riverfront, an IHG Hotel|Cincinnati, OH| 143|39.08798| -84.52047|FALSE|TRUE|TRUE|TRUE
5695655|Red Roof Inn Cincinnati Airport–Florence/ Erlanger|Cincinnati, OH|  72|39.02683| -84.61616|TRUE|FALSE|FALSE|TRUE
5695655|Hyatt Regency Cincinnati|Cincinnati, OH| 212|39.10027| -84.51561|FALSE|TRUE|TRUE|TRUE
5695655|Springhill Suites by Marriott Midtown Cincinnati|Cincinnati, OH| 164|39.11798| -84.49864|FALSE|FALSE|TRUE|TRUE
5695655|Hilton Cincinnati Netherland Plaza|Cincinnati, OH| 213|39.10074| -84.51397|FALSE|TRUE|TRUE|TRUE
5695655|Extended Stay America Select Suites - Cincinnati - Florence - Airport|Cincinnati, OH|  90|39.01055| -84.63280|TRUE|FALSE|FALSE|TRUE
5695655|Days Inn by Wyndham Florence Cincinnati Area|Cincinnati, OH|  71|39.00929| -84.63429|TRUE|FALSE|FALSE|TRUE
5695655|Comfort Suites Cincinnati Airport|Cincinnati, OH| 100|39.07720| -84.66093|TRUE|FALSE|FALSE|TRUE
5695655|21c Museum Hotel Cincinnati|Cincinnati, OH| 415|39.10309| -84.51211|FALSE|TRUE|TRUE|TRUE
5695655|Quality Inn & Suites|Cincinnati, OH|  76|39.10357| -84.52874|TRUE|TRUE|FALSE|TRUE
5695655|Embassy Suites by Hilton Cincinnati RiverCenter|Cincinnati, OH| 183|39.08998| -84.51117|FALSE|TRUE|TRUE|TRUE
5695655|Extended Stay America Suites Cincinnati Covington|Cincinnati, OH| 112|39.10312| -84.51202|FALSE|TRUE|FALSE|TRUE
5695655|Residence Inn by Marriott Cincinnati Downtown/The Phelps|Cincinnati, OH| 201|39.10157| -84.50451|FALSE|FALSE|TRUE|TRUE
5695655|Radisson Hotel Cincinnati Riverfront|Cincinnati, OH| 132|39.08574| -84.52184|FALSE|TRUE|FALSE|TRUE
5695655|The Westin Cincinnati|Cincinnati, OH| 200|39.10075| -84.51230|FALSE|TRUE|TRUE|TRUE
5695655|Wildwood Inn Tropical Dome & Theme Suites|Cincinnati, OH|  95|38.99075| -84.63626|TRUE|FALSE|FALSE|TRUE
5695655|Days Inn by Wyndham Fort Wright Cincinnati Area|Cincinnati, OH|  67|39.05662| -84.54476|TRUE|FALSE|FALSE|TRUE
5695655|Graduate Cincinnati|Cincinnati, OH| 150|39.13667| -84.50733|FALSE|FALSE|TRUE|TRUE
5695655|Best Western Inn Florence|Cincinnati, OH|  74|39.00272| -84.64350|TRUE|FALSE|FALSE|TRUE
5695655|Super 8 by Wyndham Fort Mitchell Cincinnati Area|Cincinnati, OH|  69|39.04846| -84.57065|TRUE|FALSE|FALSE|TRUE
5695655|Comfort Inn Airport Turfway Road|Cincinnati, OH|  90|39.01822| -84.63518|TRUE|FALSE|FALSE|TRUE
5695655|Comfort Inn & Suites|Cincinnati, OH| 100|39.09547| -84.28096|TRUE|FALSE|FALSE|TRUE
5695655|Hampton Inn & Suites Cincinnati-Downtown|Cincinnati, OH| 175|39.10294| -84.51363|FALSE|TRUE|TRUE|TRUE
5695712|La Quinta Inn & Suites by Wyndham Baltimore Downtown|Baltimore, MD|  94|39.29312| -76.61832|FALSE|TRUE|FALSE|TRUE
5695712|Extended Stay America Suites Baltimore BWI Airport Aero Dr|Baltimore, MD|  91|39.21115| -76.67681|TRUE|FALSE|FALSE|TRUE
5695712|Four Seasons Hotel Baltimore|Baltimore, MD| 729|39.28274| -76.60247|FALSE|TRUE|TRUE|TRUE
5695712|Sheraton Inner Harbor Hotel|Baltimore, MD| 159|39.28459| -76.61541|FALSE|TRUE|TRUE|TRUE
5695712|Extended Stay America Suites Baltimore BWI International Dr|Baltimore, MD|  91|39.17740| -76.66839|TRUE|FALSE|FALSE|TRUE
5695712|Home2 Suites by Hilton Baltimore Downtown, MD|Baltimore, MD|  99|39.29370| -76.61467|FALSE|TRUE|FALSE|TRUE
5695712|Econo Lodge|Baltimore, MD|  74|39.29039| -76.61219|TRUE|TRUE|FALSE|TRUE
5695712|Holiday Inn Express Baltimore Downtown, an IHG Hotel|Baltimore, MD| 128|39.29288| -76.60809|FALSE|FALSE|TRUE|TRUE
5695712|Delta Hotels by Marriott Baltimore Inner Harbor|Baltimore, MD| 179|39.28866| -76.61461|FALSE|TRUE|TRUE|TRUE
5695712|Clarion Hotel BWI Airport Arundel Mills|Baltimore, MD|  76|39.17290| -76.73298|TRUE|FALSE|FALSE|TRUE
5695712|SpringHill Suites by Marriott Baltimore Downtown Convention Center Area|Baltimore, MD| 128|39.29054| -76.62133|FALSE|TRUE|TRUE|TRUE
5695712|Candlewood Suites Baltimore - Inner Harbor, an IHG Hotel|Baltimore, MD|  98|39.29055| -76.61493|FALSE|TRUE|FALSE|TRUE
5695712|Ramada by Wyndham Baltimore West|Baltimore, MD|  78|39.28539| -76.75795|TRUE|FALSE|FALSE|TRUE
5695712|Days Inn by Wyndham Towson|Baltimore, MD|  78|39.39808| -76.56449|TRUE|FALSE|FALSE|TRUE
5695712|Red Roof Inn PLUS+ Baltimore - Washington DC/BWI South|Baltimore, MD|  79|39.17123| -76.73662|TRUE|FALSE|FALSE|TRUE
5695712|Ulysses|Baltimore, MD| 152|39.29973| -76.61548|FALSE|FALSE|TRUE|TRUE
5695712|Red Roof Inn PLUS+ Baltimore - Washington DC/BWI Airport|Baltimore, MD|  79|39.19699| -76.68607|TRUE|FALSE|FALSE|TRUE
5695712|Lord Baltimore Hotel|Baltimore, MD| 222|39.28970| -76.61612|FALSE|TRUE|TRUE|TRUE
5695712|Sagamore Pendry Baltimore|Baltimore, MD| 505|39.28111| -76.59191|FALSE|FALSE|TRUE|TRUE
5695712|Hotel Indigo Baltimore Downtown, an IHG Hotel|Baltimore, MD| 164|39.29519| -76.61676|FALSE|FALSE|TRUE|TRUE
5695712|Hyatt Place Baltimore/BWI Airport|Baltimore, MD|  87|39.20793| -76.67786|TRUE|FALSE|FALSE|TRUE
5695712|Howard Johnson by Wyndham Pikesville|Baltimore, MD|  69|39.36775| -76.71582|TRUE|FALSE|FALSE|TRUE
5695712|Baltimore Marriott Inner Harbor at Camden Yards|Baltimore, MD| 210|39.28701| -76.62109|FALSE|TRUE|TRUE|TRUE
5695712|Hilton Baltimore Inner Harbor|Baltimore, MD| 873|39.28377| -76.60160|FALSE|FALSE|TRUE|TRUE
5695712|Wingate by Wyndham Baltimore BWI Airport|Baltimore, MD|  85|39.19738| -76.68675|TRUE|FALSE|FALSE|TRUE
5695730|Quality Inn Pittsburgh Airport|Pittsburgh, PA|  91|40.44527| -80.17221|TRUE|FALSE|FALSE|TRUE
5695730|Renaissance Pittsburgh Hotel|Pittsburgh, PA| 241|40.44383| -80.00221|FALSE|TRUE|TRUE|TRUE
5695730|Extended Stay America Suites Pittsburgh Airport|Pittsburgh, PA|  87|40.44345| -80.15972|TRUE|FALSE|FALSE|TRUE
5695730|Fairmont Pittsburgh|Pittsburgh, PA| 266|40.44159| -80.00170|FALSE|TRUE|TRUE|TRUE
5695730|Pittsburgh Plaza Hotel|Pittsburgh, PA|  80|40.44300| -79.99506|TRUE|FALSE|FALSE|TRUE
5695730|Kimpton Hotel Monaco Pittsburgh, an IHG Hotel|Pittsburgh, PA| 227|40.44141| -79.99632|FALSE|TRUE|TRUE|TRUE
5695730|Red Roof Inn PLUS+ Pittsburgh South - Airport|Pittsburgh, PA|  80|40.44969| -80.15721|TRUE|FALSE|FALSE|TRUE
5695730|Springhill Suites by Marriott Pittsburgh North Shore|Pittsburgh, PA| 118|40.44859| -80.00462|FALSE|TRUE|FALSE|TRUE
5695730|Days Inn by Wyndham Pittsburgh|Pittsburgh, PA|  96|40.41923| -80.03035|TRUE|FALSE|FALSE|TRUE
5695730|Wyndham Garden Pittsburgh Airport|Pittsburgh, PA|  96|40.46570| -80.19865|TRUE|FALSE|FALSE|TRUE
5695730|The Warhola Bloomfield|Pittsburgh, PA| 371|40.44837| -80.00249|FALSE|TRUE|TRUE|TRUE
5695730|Wyndham Grand Pittsburgh Downtown|Pittsburgh, PA| 182|40.44167| -80.00642|FALSE|TRUE|FALSE|TRUE
5695730|Mansions on Fifth Hotel|Pittsburgh, PA| 227|40.44808| -79.93829|FALSE|FALSE|TRUE|TRUE
5695730|The Oaklander Hotel, Autograph Collection|Pittsburgh, PA| 280|40.44505| -79.95513|FALSE|FALSE|TRUE|TRUE
5695730|Comfort Inn Pittsburgh|Pittsburgh, PA|  96|40.50569| -80.00898|TRUE|FALSE|FALSE|TRUE
5695730|Omni William Penn Hotel|Pittsburgh, PA| 236|40.44060| -79.99659|FALSE|FALSE|TRUE|TRUE
5695730|Sheraton Pittsburgh Hotel at Station Square|Pittsburgh, PA| 214|40.43473| -80.00598|FALSE|TRUE|FALSE|TRUE
5695730|Etage Executive Living|Pittsburgh, PA| 227|40.44092| -80.00390|FALSE|TRUE|TRUE|TRUE
5695730|Comfort Inn Conference Center|Pittsburgh, PA|  88|40.44304| -79.82635|TRUE|FALSE|FALSE|TRUE
5695730|The Industrialist Hotel, Pittsburgh, Autograph Collection|Pittsburgh, PA| 313|40.43960| -80.00141|FALSE|TRUE|TRUE|TRUE
5695730|Residence Inn by Marriott Pittsburgh North Shore|Pittsburgh, PA| 136|40.44791| -80.00721|FALSE|TRUE|FALSE|TRUE
5695730|Extended Stay America Suites Pittsburgh West Mifflin|Pittsburgh, PA|  87|40.36340| -79.86644|TRUE|FALSE|FALSE|TRUE
5695730|Comfort Suites|Pittsburgh, PA|  94|40.41991| -80.03026|TRUE|FALSE|FALSE|TRUE
5695730|Sonesta Simply Suites Pittsburgh Airport|Pittsburgh, PA|  96|40.44908| -80.18300|TRUE|FALSE|FALSE|TRUE
5695730|The Inn on Negley|Pittsburgh, PA| 239|40.45334| -79.93146|FALSE|FALSE|TRUE|TRUE
5697650|Extended Stay America Suites Boston Waltham 32 4th Ave|Boston, MA| 101|42.39379| -71.25915|TRUE|FALSE|FALSE|TRUE
5697650|Four Points by Sheraton Boston Logan Airport Revere|Boston, MA| 106|42.42940| -71.01504|TRUE|FALSE|FALSE|TRUE
5697650|Mandarin Oriental Boston|Boston, MA| 751|42.34869| -71.08160|FALSE|TRUE|TRUE|TRUE
5697650|Copley Square Hotel|Boston, MA| 159|42.34835| -71.07873|FALSE|TRUE|FALSE|TRUE
5697650|The Westin Copley Place, Boston, a Marriott Hotel|Boston, MA| 236|42.34832| -71.07746|FALSE|TRUE|FALSE|TRUE
5697650|Extended Stay America Suites Boston Waltham 52 4th Ave|Boston, MA| 101|42.39450| -71.25845|TRUE|FALSE|FALSE|TRUE
5697650|Best Western Plus New Englander|Boston, MA| 110|42.48082| -71.11883|TRUE|FALSE|FALSE|TRUE
5697650|Howard Johnson by Wyndham Quincy/Boston|Boston, MA| 103|42.26248| -71.01213|TRUE|FALSE|FALSE|TRUE
5697650|The Kendall Hotel|Boston, MA| 807|42.36222| -71.08731|FALSE|FALSE|TRUE|TRUE
5697650|The Langham, Boston|Boston, MA| 550|42.35648| -71.05450|FALSE|FALSE|TRUE|TRUE
5697650|The Farrington Inn|Boston, MA|  80|42.35426| -71.13089|TRUE|FALSE|FALSE|TRUE
5697650|Boston Harbor Hotel|Boston, MA| 575|42.35666| -71.05032|FALSE|FALSE|TRUE|TRUE
5697650|The Newbury Boston|Boston, MA| 597|42.35293| -71.07149|FALSE|FALSE|TRUE|TRUE
5697650|Comfort Inn Woburn - Boston|Boston, MA| 103|42.47895| -71.11530|TRUE|FALSE|FALSE|TRUE
5697650|Hilton Garden Inn Boston/Waltham|Boston, MA| 110|42.39638| -71.25588|TRUE|FALSE|FALSE|TRUE
5697650|Sheraton Boston, a Marriott Hotel|Boston, MA| 177|42.34651| -71.08392|FALSE|TRUE|FALSE|TRUE
5697650|Four Seasons Hotel One Dalton Street, Boston|Boston, MA| 757|42.34571| -71.08394|FALSE|TRUE|TRUE|TRUE
5697650|Red Roof Inn PLUS+ Boston - Logan|Boston, MA| 101|42.36561| -71.00956|TRUE|FALSE|FALSE|TRUE
5697650|The Verb Hotel|Boston, MA| 193|42.34534| -71.09678|FALSE|TRUE|FALSE|TRUE
5697650|Boston Marriott Cambridge|Boston, MA| 637|42.36327| -71.08593|FALSE|FALSE|TRUE|TRUE
5697650|Hilton Boston Back Bay|Boston, MA| 193|42.34630| -71.08494|FALSE|TRUE|FALSE|TRUE
5697650|The Charles Hotel|Boston, MA| 464|42.37229| -71.12298|FALSE|FALSE|TRUE|TRUE
5697650|The Ritz-Carlton, Boston|Boston, MA| 809|42.35317| -71.06369|FALSE|FALSE|TRUE|TRUE
5697650|Hyatt Regency Boston/Cambridge|Boston, MA| 196|42.35391| -71.10550|FALSE|TRUE|FALSE|TRUE
5697650|Arcadian Hotel Brookline |Boston, MA| 172|42.34381| -71.11672|FALSE|TRUE|FALSE|TRUE
5697650|DoubleTree by Hilton Hotel Boston Bayside|Boston, MA| 108|42.32028| -71.04789|TRUE|FALSE|FALSE|TRUE
5697650|Best Western Plus Waltham Boston|Boston, MA| 105|42.39768| -71.25780|TRUE|FALSE|FALSE|TRUE
5697650|Residence Inn by Marriott Boston Back Bay/Fenway|Boston, MA| 208|42.34582| -71.10051|FALSE|TRUE|FALSE|TRUE
5697650|Fifteen Beacon|Boston, MA| 576|42.35832| -71.06193|FALSE|FALSE|TRUE|TRUE
5714915|Welcome Inn on Colorado Blvd|Pasadena, CA|  80|34.13893|-118.20781|TRUE|FALSE|FALSE|TRUE
5714915|Quality Inn Rosemead - Los Angeles|Pasadena, CA|  93|34.08094|-118.06275|TRUE|FALSE|FALSE|TRUE
5714915|Hilton Pasadena|Pasadena, CA| 216|34.14269|-118.14091|FALSE|TRUE|TRUE|TRUE
5714915|Garden Inn|Pasadena, CA|  88|34.09633|-118.07290|TRUE|FALSE|FALSE|TRUE
5714915|JW Marriott Los Angeles L.A. LIVE|Pasadena, CA| 436|34.04524|-118.26647|FALSE|FALSE|TRUE|TRUE
5714915|Sheraton Pasadena Hotel|Pasadena, CA| 165|34.14295|-118.14422|FALSE|TRUE|FALSE|TRUE
5714915|The Westin Pasadena|Pasadena, CA| 213|34.14913|-118.14200|FALSE|TRUE|TRUE|TRUE
5714915|Hollywood Roxy Hotel|Pasadena, CA|  95|34.10069|-118.30964|TRUE|FALSE|FALSE|TRUE
5714915|Langham Huntington, Pasadena, Los Angeles|Pasadena, CA| 797|34.12075|-118.13342|FALSE|FALSE|TRUE|TRUE
5714915|Courtyard by Marriott Old Pasadena|Pasadena, CA| 183|34.14873|-118.15028|FALSE|TRUE|FALSE|TRUE
5714915|Bokai Garden Hotel|Pasadena, CA|  86|34.07467|-118.07403|TRUE|FALSE|FALSE|TRUE
5714915|Hotel Heritage|Pasadena, CA|  88|34.14778|-118.14452|TRUE|TRUE|FALSE|TRUE
5714915|Pasadena Hotel & Pool|Pasadena, CA| 185|34.14778|-118.14452|FALSE|TRUE|TRUE|TRUE
5714915|The Ritz-Carlton, Los Angeles|Pasadena, CA| 773|34.04526|-118.26662|FALSE|FALSE|TRUE|TRUE
5714915|Residence Inn Los Angeles Pasadena/Old Town|Pasadena, CA| 251|34.15027|-118.15085|FALSE|TRUE|TRUE|TRUE
5714915|Hyatt Place Pasadena|Pasadena, CA| 248|34.14493|-118.14189|FALSE|TRUE|TRUE|TRUE
5714915|Glendale Hotel|Pasadena, CA|  92|34.14259|-118.23099|TRUE|FALSE|FALSE|TRUE
5714915|Antonio Hotel|Pasadena, CA|  86|34.04595|-118.20875|TRUE|FALSE|FALSE|TRUE
5714915|City Center Hotel|Pasadena, CA|  86|34.14778|-118.14452|TRUE|TRUE|FALSE|TRUE
5714915|Downtown Los Angeles Proper Hotel, a Member of Design Hotels|Pasadena, CA| 418|34.03937|-118.25892|FALSE|FALSE|TRUE|TRUE
5714915|Conrad Los Angeles|Pasadena, CA| 471|34.14980|-118.13269|FALSE|TRUE|TRUE|TRUE
5714915|Starlight Inn South El Monte|Pasadena, CA|  90|34.03591|-118.03890|TRUE|FALSE|FALSE|TRUE
5718567|The Alexis Inn & Suites - Nashville Airport|Nashville, TN|  93|36.15255| -86.68736|TRUE|FALSE|FALSE|TRUE
5718567|Dream Nashville|Nashville, TN| 370|36.16411| -86.77909|FALSE|TRUE|TRUE|TRUE
5718567|Days Inn by Wyndham Nashville Airport|Nashville, TN|  81|36.13446| -86.72459|TRUE|FALSE|FALSE|TRUE
5718567|JW Marriott Nashville|Nashville, TN| 416|36.15634| -86.78107|FALSE|FALSE|TRUE|TRUE
5718567|1 Hotel Nashville|Nashville, TN| 410|36.15711| -86.78073|FALSE|TRUE|TRUE|TRUE
5718567|Econo Lodge North|Nashville, TN|  80|36.23261| -86.75763|TRUE|FALSE|FALSE|TRUE
5718567|La Quinta Inn & Suites by Wyndham Nashville Downtown / Stadium|Nashville, TN| 175|36.16775| -86.76624|FALSE|TRUE|FALSE|TRUE
5718567|Sleep Inn|Nashville, TN|  80|36.16266| -86.78160|TRUE|TRUE|FALSE|TRUE
5718567|The Joseph, a Luxury Collection Hotel, Nashville|Nashville, TN| 451|36.15658| -86.77473|FALSE|TRUE|TRUE|TRUE
5718567|Ramada by Wyndham Nashville/Music Valley|Nashville, TN|  91|36.21901| -86.69493|TRUE|FALSE|FALSE|TRUE
5718567|Suburban Studios|Nashville, TN|  83|36.17332| -86.60324|TRUE|FALSE|FALSE|TRUE
5718567|Clarion Hotel Nashville Downtown - Stadium|Nashville, TN| 139|36.17484| -86.77378|FALSE|TRUE|FALSE|TRUE
5718567|Days Inn by Wyndham Nashville Saint Thomas West Hospital|Nashville, TN|  85|36.14377| -86.85803|TRUE|FALSE|FALSE|TRUE
5718567|Extended Stay America Suites Nashville Brentwood South|Nashville, TN|  95|36.03414| -86.78058|TRUE|FALSE|FALSE|TRUE
5718567|Hyatt Place Nashville Downtown|Nashville, TN| 198|36.15843| -86.77435|FALSE|TRUE|TRUE|TRUE
5718567|Hilton Nashville Downtown|Nashville, TN| 457|36.16002| -86.77724|FALSE|TRUE|TRUE|TRUE
5718567|Four Seasons Nashville|Nashville, TN| 723|36.16007| -86.77366|FALSE|TRUE|TRUE|TRUE
5718567|Thompson Nashville|Nashville, TN| 378|36.15232| -86.78403|FALSE|FALSE|TRUE|TRUE
5718567|Loews Vanderbilt Hotel|Nashville, TN| 184|36.15066| -86.80216|FALSE|FALSE|TRUE|TRUE
5718567|La Quinta Inn by Wyndham Nashville South|Nashville, TN|  85|36.08417| -86.76250|TRUE|FALSE|FALSE|TRUE
5718567|Extended Stay America Suites Nashville Airport|Nashville, TN|  90|36.15370| -86.69047|TRUE|FALSE|FALSE|TRUE
5718567|The Hermitage Hotel|Nashville, TN| 536|36.16376| -86.78236|FALSE|TRUE|TRUE|TRUE
5718571|Loews Regency New York Hotel|Bronx, NY| 498|40.76457| -73.96901|FALSE|FALSE|TRUE|TRUE
5718571|The Mark|Bronx, NY|1260|40.77527| -73.96340|FALSE|FALSE|TRUE|TRUE
5718571|Hotel 365 Bronx|Bronx, NY| 149|40.81519| -73.92838|FALSE|TRUE|FALSE|TRUE
