id|name|city|price|lat|long|p|t|l|fresh
5655684|Holiday Inn Express Cleveland Downtown, an IHG Hotel|Cleveland, OH| 159|41.50039| -81.68879|FALSE|TRUE|TRUE|TRUE
5655684|Kimpton Schofield Hotel, an IHG Hotel|Cleveland, OH| 159|41.49961| -81.68674|FALSE|TRUE|TRUE|TRUE
5655684|Hyatt Regency Cleveland At The Arcade|Cleveland, OH| 165|41.50076| -81.69075|FALSE|TRUE|TRUE|TRUE
5655684|Crowne Plaza Cleveland at Playhouse Square, an IHG Hotel|Cleveland, OH| 147|41.50049| -81.68329|FALSE|TRUE|FALSE|TRUE
5655684|Travelodge by Wyndham Cleveland Airport|Cleveland, OH|  67|41.41807| -81.79263|TRUE|FALSE|FALSE|TRUE
5655684|The Ritz-Carlton, Cleveland|Cleveland, OH| 479|41.49726| -81.69469|FALSE|TRUE|TRUE|TRUE
5655684|Drury Plaza Hotel Cleveland Downtown|Cleveland, OH| 159|41.50221| -81.69202|FALSE|FALSE|TRUE|TRUE
5655684|Extended Stay America Suites Cleveland Brooklyn|Cleveland, OH|  94|41.42483| -81.75763|TRUE|FALSE|FALSE|TRUE
5655684|Metropolitan at The 9, Autograph Collection|Cleveland, OH| 199|41.49978| -81.68605|FALSE|TRUE|TRUE|TRUE
5655684|Red Roof Inn Cleveland - Independence|Cleveland, OH|  79|41.39458| -81.64999|TRUE|FALSE|FALSE|TRUE
5655684|Hotel Indigo Cleveland Downtown, an IHG Hotel|Cleveland, OH| 152|41.49820| -81.68767|FALSE|TRUE|FALSE|TRUE
5655684|Renaissance Cleveland Hotel|Cleveland, OH| 154|41.49856| -81.69471|FALSE|TRUE|FALSE|TRUE
5655684|Hilton Cleveland Downtown|Cleveland, OH| 179|41.50279| -81.69562|FALSE|FALSE|TRUE|TRUE
5655684|Residence Inn By Marriott Cleveland Downtown|Cleveland, OH| 163|41.49871| -81.68902|FALSE|TRUE|TRUE|TRUE
5655684|Comfort Inn|Cleveland, OH| 100|41.50092| -81.67835|TRUE|FALSE|FALSE|TRUE
5655684|Cleveland Marriott Downtown at Key Tower|Cleveland, OH| 179|41.50133| -81.69440|FALSE|FALSE|TRUE|TRUE
5655684|Travelodge by Wyndham Cleveland Lakewood|Cleveland, OH|  77|41.49014| -81.77088|TRUE|FALSE|FALSE|TRUE
5655684|La Quinta Inn by Wyndham Cleveland Independence|Cleveland, OH| 100|41.39373| -81.64880|TRUE|FALSE|FALSE|TRUE
5655684|Extended Stay America Premier Suites - Cleveland - Independence|Cleveland, OH|  99|41.40293| -81.65252|TRUE|FALSE|FALSE|TRUE
5655684|Days Inn by Wyndham Cleveland Lakewood|Cleveland, OH|  77|41.48959| -81.77313|TRUE|FALSE|FALSE|TRUE
5655684|Aloft Cleveland Downtown|Cleveland, OH| 161|41.50081| -81.70338|FALSE|FALSE|TRUE|TRUE
5655684|Hilton Garden Inn Cleveland Downtown|Cleveland, OH| 138|41.49617| -81.68131|FALSE|TRUE|FALSE|TRUE
5655684|Four Points By Sheraton Cleveland Airport|Cleveland, OH| 115|41.44073| -81.79997|TRUE|FALSE|FALSE|TRUE
5655684|Ramada by Wyndham Cleveland Independence|Cleveland, OH|  99|41.39493| -81.65457|TRUE|FALSE|FALSE|TRUE
5685036|Embassy Suites by Hilton Dallas Frisco Hotel & Convention Center|Frisco, TX| 132|33.09950| -96.81776|FALSE|TRUE|FALSE|TRUE
5685036|Courtyard by Marriott Dallas Plano in Legacy Park|Frisco, TX|  95|33.08177| -96.85642|TRUE|FALSE|FALSE|TRUE
5685036|Renaissance Dallas at Plano Legacy West Hotel|Frisco, TX| 248|33.07836| -96.82741|FALSE|FALSE|TRUE|TRUE
5685036|Sonesta Simply Suites Plano Frisco|Frisco, TX|  90|33.07135| -96.79227|TRUE|FALSE|FALSE|TRUE
5685036|Canopy by Hilton Dallas Frisco Station, TX|Frisco, TX| 130|33.11537| -96.82928|FALSE|TRUE|FALSE|TRUE
5685036|Extended Stay America Suites Dallas Plano Parkway|Frisco, TX|  74|33.01687| -96.79448|TRUE|FALSE|FALSE|TRUE
5685036|Hotel Indigo Frisco, an IHG Hotel|Frisco, TX|  99|33.10297| -96.81901|TRUE|TRUE|FALSE|TRUE
5685036|Tru by Hilton The Colony Dallas|Frisco, TX|  89|33.07220| -96.88071|TRUE|FALSE|FALSE|TRUE
5685036|Cambria Hotel Plano Frisco|Frisco, TX|  90|33.08107| -96.81749|TRUE|FALSE|FALSE|TRUE
5685036|Dallas/Plano Marriott at Legacy Town Center|Frisco, TX| 225|33.07451| -96.82221|FALSE|FALSE|TRUE|TRUE
5685036|Comfort Suites Frisco|Frisco, TX| 101|33.15818| -96.83935|FALSE|TRUE|FALSE|TRUE
5685036|StayOvr at Legacy West - Windrose|Frisco, TX| 223|33.08106| -96.82635|FALSE|FALSE|TRUE|TRUE
5685036|AC Hotel by Marriott Dallas Frisco|Frisco, TX| 123|33.11400| -96.82868|FALSE|TRUE|FALSE|TRUE
5685036|Quality Inn West Plano - Dallas|Frisco, TX|  76|33.01727| -96.79788|TRUE|FALSE|FALSE|TRUE
5685036|Omni Frisco Hotel|Frisco, TX| 258|33.10959| -96.82768|FALSE|TRUE|TRUE|TRUE
5685036|Hyatt Regency Frisco-Dallas|Frisco, TX| 214|33.09931| -96.81311|FALSE|TRUE|TRUE|TRUE
5685036|Hilton Dallas/Plano Granite Park|Frisco, TX| 144|33.08893| -96.82040|FALSE|FALSE|TRUE|TRUE
5685036|Comfort Suites The Colony - Plano West|Frisco, TX|  81|33.06982| -96.88570|TRUE|FALSE|FALSE|TRUE
5685036|Hyatt Place Dallas / The Colony|Frisco, TX|  96|33.07176| -96.88155|TRUE|FALSE|FALSE|TRUE
5685036|Candlewood Suites Dallas-Frisco NW Toyota Ctr, an IHG Hotel|Frisco, TX| 116|33.15801| -96.83308|FALSE|TRUE|FALSE|TRUE
5685036|Sandman Signature Plano - Frisco Hotel|Frisco, TX| 134|33.09052| -96.81492|FALSE|TRUE|TRUE|TRUE
5685036|Marriott Dallas Allen Hotel & Convention Center|Frisco, TX| 243|33.09206| -96.68202|FALSE|FALSE|TRUE|TRUE
5685036|Urbanlights at Legacy West|Frisco, TX| 210|33.07836| -96.82741|FALSE|FALSE|TRUE|TRUE
5685036|The Westin Dallas Stonebriar Golf Resort & Spa|Frisco, TX| 171|33.09155| -96.84028|FALSE|TRUE|TRUE|TRUE
5685036|Holiday Inn Plano - The Colony, an IHG Hotel|Frisco, TX|  96|33.07452| -96.87742|TRUE|FALSE|FALSE|TRUE
5685265|Four Seasons Hotel New Orleans|New Orleans, LA| 446|29.94888| -90.06389|FALSE|FALSE|TRUE|TRUE
5685265|Residence Inn by Marriott New Orleans French Quarter Area/Central Business District|New Orleans, LA| 140|29.95081| -90.07006|FALSE|TRUE|FALSE|TRUE
5685265|Harrahs New Orleans Casino & Hotel|New Orleans, LA| 399|29.94793| -90.06553|FALSE|FALSE|TRUE|TRUE
5685265|Suburban Studios|New Orleans, LA| 100|29.90910| -90.20646|TRUE|FALSE|FALSE|TRUE
5685265|The Windsor Court|New Orleans, LA| 367|29.94984| -90.06644|FALSE|FALSE|TRUE|TRUE
5685265|Lucky Inn|New Orleans, LA| 102|29.96603| -90.08545|TRUE|FALSE|FALSE|TRUE
5685265|Maison de la Luz|New Orleans, LA| 627|29.94879| -90.07202|FALSE|TRUE|TRUE|TRUE
5685265|Audubon Cottages|New Orleans, LA| 361|29.95817| -90.06778|FALSE|FALSE|TRUE|TRUE
5685265|One11 Hotel|New Orleans, LA| 360|29.95196| -90.06481|FALSE|FALSE|TRUE|TRUE
5685265|Federal City Inn & Suites|New Orleans, LA|  96|29.94753| -90.03280|TRUE|FALSE|FALSE|TRUE
5685265|Best Western Bayou Inn|New Orleans, LA|  95|29.90780| -90.16035|TRUE|FALSE|FALSE|TRUE
5685265|The Frenchmen|New Orleans, LA|1569|30.00757| -90.06095|FALSE|FALSE|TRUE|TRUE
5685265|La Quinta Inn by Wyndham New Orleans Veterans / Metairie|New Orleans, LA|  81|30.00483| -90.20567|TRUE|FALSE|FALSE|TRUE
5685265|Olde Town Inn|New Orleans, LA| 103|29.96776| -90.05529|TRUE|FALSE|FALSE|TRUE
5685265|Days Inn by Wyndham New Orleans Pontchartrain|New Orleans, LA|  85|30.00213| -90.03978|TRUE|FALSE|FALSE|TRUE
5685265|Selina Catahoula New Orleans|New Orleans, LA|  96|29.95185| -90.07321|TRUE|TRUE|FALSE|TRUE
5685265|Quality Inn New Orleans I-10 East|New Orleans, LA|  64|30.03715| -89.97409|TRUE|FALSE|FALSE|TRUE
5685265|Hotel Indigo New Orleans French Quarter, an IHG Hotel|New Orleans, LA| 132|29.95241| -90.06986|FALSE|TRUE|FALSE|TRUE
5685265|La Quinta Inn & Suites by Wyndham New Orleans Downtown|New Orleans, LA| 107|29.95089| -90.06941|FALSE|TRUE|FALSE|TRUE
5685265|Virgin Hotels New Orleans|New Orleans, LA| 244|29.94894| -90.07313|FALSE|TRUE|FALSE|TRUE
5685265|The Roosevelt New Orleans, A Waldorf Astoria Hotel|New Orleans, LA| 301|29.95434| -90.07230|FALSE|TRUE|TRUE|TRUE
5685265|Midtown Hotel - Downtown New Orleans|New Orleans, LA| 101|29.94978| -90.06771|TRUE|FALSE|FALSE|TRUE
5685265|The Natchez|New Orleans, LA| 664|29.94974| -90.06870|FALSE|FALSE|TRUE|TRUE
5685265|Canopy by Hilton New Orleans Downtown|New Orleans, LA| 152|29.95404| -90.07420|FALSE|TRUE|FALSE|TRUE
5685265|Hyatt Regency New Orleans|New Orleans, LA| 170|29.94955| -90.07727|FALSE|TRUE|FALSE|TRUE
5685265|The Ritz-Carlton, New Orleans|New Orleans, LA| 294|29.95496| -90.07097|FALSE|TRUE|TRUE|TRUE
5685266|Hyatt Regency New Orleans|New Orleans, LA| 170|29.94955| -90.07727|FALSE|TRUE|FALSE|TRUE
5685266|Harrahs New Orleans Casino & Hotel|New Orleans, LA| 399|29.94793| -90.06553|FALSE|FALSE|TRUE|TRUE
5685266|Midtown Hotel - Downtown New Orleans|New Orleans, LA| 101|29.94978| -90.06771|TRUE|FALSE|FALSE|TRUE
5685266|Audubon Cottages|New Orleans, LA| 361|29.95817| -90.06778|FALSE|FALSE|TRUE|TRUE
5685266|Maison de la Luz|New Orleans, LA| 627|29.94879| -90.07202|FALSE|TRUE|TRUE|TRUE
5685266|The Frenchmen|New Orleans, LA|1569|30.00757| -90.06095|FALSE|FALSE|TRUE|TRUE
5685266|Hotel Indigo New Orleans French Quarter, an IHG Hotel|New Orleans, LA| 132|29.95241| -90.06986|FALSE|TRUE|FALSE|TRUE
5685266|Best Western Bayou Inn|New Orleans, LA|  95|29.90780| -90.16035|TRUE|FALSE|FALSE|TRUE
5685266|Virgin Hotels New Orleans|New Orleans, LA| 244|29.94894| -90.07313|FALSE|TRUE|FALSE|TRUE
5685266|The Natchez|New Orleans, LA| 664|29.94974| -90.06870|FALSE|FALSE|TRUE|TRUE
5685266|Residence Inn by Marriott New Orleans French Quarter Area/Central Business District|New Orleans, LA| 140|29.95081| -90.07006|FALSE|TRUE|FALSE|TRUE
5685266|Lucky Inn|New Orleans, LA| 102|29.96603| -90.08545|TRUE|FALSE|FALSE|TRUE
5685266|Federal City Inn & Suites|New Orleans, LA|  96|29.94753| -90.03280|TRUE|FALSE|FALSE|TRUE
5685266|The Roosevelt New Orleans, A Waldorf Astoria Hotel|New Orleans, LA| 301|29.95434| -90.07230|FALSE|TRUE|TRUE|TRUE
5685266|One11 Hotel|New Orleans, LA| 360|29.95196| -90.06481|FALSE|FALSE|TRUE|TRUE
5685266|The Ritz-Carlton, New Orleans|New Orleans, LA| 294|29.95496| -90.07097|FALSE|TRUE|TRUE|TRUE
5685266|Olde Town Inn|New Orleans, LA| 103|29.96776| -90.05529|TRUE|FALSE|FALSE|TRUE
5685266|Suburban Studios|New Orleans, LA| 100|29.90910| -90.20646|TRUE|FALSE|FALSE|TRUE
5685266|La Quinta Inn by Wyndham New Orleans Veterans / Metairie|New Orleans, LA|  81|30.00483| -90.20567|TRUE|FALSE|FALSE|TRUE
5685266|Quality Inn New Orleans I-10 East|New Orleans, LA|  64|30.03715| -89.97409|TRUE|FALSE|FALSE|TRUE
5685266|Four Seasons Hotel New Orleans|New Orleans, LA| 446|29.94888| -90.06389|FALSE|FALSE|TRUE|TRUE
5685266|La Quinta Inn & Suites by Wyndham New Orleans Downtown|New Orleans, LA| 107|29.95089| -90.06941|FALSE|TRUE|FALSE|TRUE
5685266|The Windsor Court|New Orleans, LA| 367|29.94984| -90.06644|FALSE|FALSE|TRUE|TRUE
5685266|Selina Catahoula New Orleans|New Orleans, LA|  96|29.95185| -90.07321|TRUE|TRUE|FALSE|TRUE
5685266|Canopy by Hilton New Orleans Downtown|New Orleans, LA| 152|29.95404| -90.07420|FALSE|TRUE|FALSE|TRUE
5685266|Days Inn by Wyndham New Orleans Pontchartrain|New Orleans, LA|  85|30.00213| -90.03978|TRUE|FALSE|FALSE|TRUE
5685308|Days Hotel by Wyndham Peoria Glendale Area|Glendale, AZ|  85|33.59079|-112.25157|TRUE|TRUE|FALSE|TRUE
5685308|Premier Inns Tolleson|Glendale, AZ|  89|33.46392|-112.24006|TRUE|FALSE|FALSE|TRUE
5685308|HomeTowne Studios by Red Roof Phoenix - West|Glendale, AZ|  90|33.46438|-112.17166|TRUE|FALSE|FALSE|TRUE
5685308|Premier Inns Metro Center|Glendale, AZ|  89|33.58004|-112.11823|TRUE|FALSE|FALSE|TRUE
5685308|Best Western Tolleson Hotel|Glendale, AZ| 160|33.46469|-112.24145|FALSE|TRUE|TRUE|TRUE
5685308|Holiday Inn Hotel Suites Goodyear, an IHG Hotel|Glendale, AZ| 201|33.45917|-112.34189|FALSE|FALSE|TRUE|TRUE
5685308|Staybridge Suites Phoenix - Glendale Sports Dist, an IHG Hotel|Glendale, AZ| 275|33.54119|-112.26119|FALSE|TRUE|TRUE|TRUE
5685308|Springhill Suites By Marriott Phoenix Glendale Peoria|Glendale, AZ| 218|33.63917|-112.22781|FALSE|FALSE|TRUE|TRUE
5685308|Red Roof Inn PLUS+ Phoenix West|Glendale, AZ|  88|33.46438|-112.17166|TRUE|FALSE|FALSE|TRUE
5685308|Travel Inn - In Phoenix (Alhambra)|Glendale, AZ|  80|33.49380|-112.11609|TRUE|FALSE|FALSE|TRUE
5685308|Springhill Suites Phoenix Glendale Sports & Entertainment District|Glendale, AZ| 165|33.54272|-112.25994|FALSE|TRUE|TRUE|TRUE
5685308|Motel 6 Phoenix, AZ - West|Glendale, AZ|  90|33.46439|-112.17297|TRUE|FALSE|FALSE|TRUE
5685308|Residence Inn Phoenix Glendale Sports & Entertainment District|Glendale, AZ| 195|33.54214|-112.26034|FALSE|TRUE|TRUE|TRUE
5685308|Home2 Suites by Hilton Glendale - Westgate|Glendale, AZ| 179|33.53138|-112.26659|FALSE|TRUE|TRUE|TRUE
5685308|Tru By Hilton Phoenix Glendale Westgate, AZ|Glendale, AZ| 156|33.53125|-112.26562|FALSE|TRUE|FALSE|TRUE
5685308|Super 8 by Wyndham Phoenix West|Glendale, AZ|  70|33.49607|-112.11553|TRUE|FALSE|FALSE|TRUE
5685308|Travelers Inn|Glendale, AZ| 101|33.53865|-112.18599|FALSE|TRUE|FALSE|TRUE
5685308|Red Roof Inn Phoenix - Midtown|Glendale, AZ|  86|33.49583|-112.11374|TRUE|FALSE|FALSE|TRUE
5685308|Courtyard by Marriott Phoenix West/Avondale|Glendale, AZ| 151|33.46610|-112.26699|FALSE|TRUE|FALSE|TRUE
5685308|Best Western Plus Surprise-Phoenix NW|Glendale, AZ| 173|33.63527|-112.34801|FALSE|FALSE|TRUE|TRUE
5685308|Aloft Glendale at Westgate|Glendale, AZ| 245|33.53637|-112.25928|FALSE|TRUE|TRUE|TRUE
5685308|The Wigwam|Glendale, AZ| 274|33.49374|-112.35503|FALSE|FALSE|TRUE|TRUE
5685308|Super 8 by Wyndham Phoenix Metro North|Glendale, AZ|  75|33.55603|-112.11363|TRUE|FALSE|FALSE|TRUE
5685337|Super 8 by Wyndham Phoenix Metro North|Glendale, AZ|  75|33.55603|-112.11363|TRUE|FALSE|FALSE|TRUE
5685337|Aloft Glendale at Westgate|Glendale, AZ| 245|33.53637|-112.25928|FALSE|TRUE|TRUE|TRUE
5685337|Travel Inn - In Phoenix (Alhambra)|Glendale, AZ|  80|33.49380|-112.11609|TRUE|FALSE|FALSE|TRUE
5685337|Holiday Inn Hotel Suites Goodyear, an IHG Hotel|Glendale, AZ| 201|33.45917|-112.34189|FALSE|FALSE|TRUE|TRUE
5685337|Springhill Suites Phoenix Glendale Sports & Entertainment District|Glendale, AZ| 165|33.54272|-112.25994|FALSE|TRUE|TRUE|TRUE
5685337|Super 8 by Wyndham Phoenix West|Glendale, AZ|  70|33.49607|-112.11553|TRUE|FALSE|FALSE|TRUE
5685337|Days Hotel by Wyndham Peoria Glendale Area|Glendale, AZ|  85|33.59079|-112.25157|TRUE|TRUE|FALSE|TRUE
5685337|Springhill Suites By Marriott Phoenix Glendale Peoria|Glendale, AZ| 218|33.63917|-112.22781|FALSE|FALSE|TRUE|TRUE
5685337|Red Roof Inn PLUS+ Phoenix West|Glendale, AZ|  88|33.46438|-112.17166|TRUE|FALSE|FALSE|TRUE
5685337|The Wigwam|Glendale, AZ| 274|33.49374|-112.35503|FALSE|FALSE|TRUE|TRUE
5685337|Best Western Plus Surprise-Phoenix NW|Glendale, AZ| 173|33.63527|-112.34801|FALSE|FALSE|TRUE|TRUE
5685337|Home2 Suites by Hilton Glendale - Westgate|Glendale, AZ| 179|33.53138|-112.26659|FALSE|TRUE|TRUE|TRUE
5685337|Motel 6 Phoenix, AZ - West|Glendale, AZ|  90|33.46439|-112.17297|TRUE|FALSE|FALSE|TRUE
5685337|Premier Inns Metro Center|Glendale, AZ|  89|33.58004|-112.11823|TRUE|FALSE|FALSE|TRUE
5685337|Red Roof Inn Phoenix - Midtown|Glendale, AZ|  86|33.49583|-112.11374|TRUE|FALSE|FALSE|TRUE
5685337|Staybridge Suites Phoenix - Glendale Sports Dist, an IHG Hotel|Glendale, AZ| 275|33.54119|-112.26119|FALSE|TRUE|TRUE|TRUE
5685337|Best Western Tolleson Hotel|Glendale, AZ| 160|33.46469|-112.24145|FALSE|TRUE|TRUE|TRUE
5685337|Travelers Inn|Glendale, AZ| 101|33.53865|-112.18599|FALSE|TRUE|FALSE|TRUE
5685337|Premier Inns Tolleson|Glendale, AZ|  89|33.46392|-112.24006|TRUE|FALSE|FALSE|TRUE
5685337|HomeTowne Studios by Red Roof Phoenix - West|Glendale, AZ|  90|33.46438|-112.17166|TRUE|FALSE|FALSE|TRUE
5685337|Courtyard by Marriott Phoenix West/Avondale|Glendale, AZ| 151|33.46610|-112.26699|FALSE|TRUE|FALSE|TRUE
5685337|Tru By Hilton Phoenix Glendale Westgate, AZ|Glendale, AZ| 156|33.53125|-112.26562|FALSE|TRUE|FALSE|TRUE
5685337|Residence Inn Phoenix Glendale Sports & Entertainment District|Glendale, AZ| 195|33.54214|-112.26034|FALSE|TRUE|TRUE|TRUE
5685507|Arya Inn & Suites|Arlington, TX|  68|32.83452| -96.99184|TRUE|FALSE|FALSE|TRUE
5685507|HomeTowne Studios by Red Roof Dallas - Irving|Arlington, TX|  72|32.86436| -96.99415|TRUE|FALSE|FALSE|TRUE
5685507|Howard Johnson by Wyndham Arlington Ballpark / Six Flags|Arlington, TX|  72|32.75889| -97.07810|TRUE|TRUE|FALSE|TRUE
5685507|Marriott DFW Airport South|Arlington, TX| 188|32.82344| -97.05717|FALSE|FALSE|TRUE|TRUE
5685507|Crowne Plaza Suites Arlington - Ballpark - Stadium, an IHG Hotel|Arlington, TX| 117|32.76056| -97.05647|FALSE|FALSE|TRUE|TRUE
5685507|SpringHill Suites Dallas Arlington North|Arlington, TX| 114|32.76329| -97.07872|FALSE|TRUE|TRUE|TRUE
5685507|Sleep Inn Arlington Near Six Flags|Arlington, TX|  71|32.75355| -97.06618|TRUE|FALSE|FALSE|TRUE
5685507|Embassy Suites by Hilton Dallas DFW Airport South|Arlington, TX| 126|32.83520| -97.02132|FALSE|FALSE|TRUE|TRUE
5685507|Courtyard by Marriott Dallas Arlington/Entertainment Dist|Arlington, TX| 134|32.75760| -97.08895|FALSE|TRUE|TRUE|TRUE
5685507|Live by Loews, Arlington, TX|Arlington, TX| 238|32.74950| -97.08570|FALSE|TRUE|TRUE|TRUE
5685507|Super 8 by Wyndham Irving DFW Airport/South|Arlington, TX|  75|32.83844| -97.01175|TRUE|FALSE|FALSE|TRUE
5685507|Hyatt Place Dallas/Arlington|Arlington, TX| 106|32.75081| -97.06593|FALSE|TRUE|FALSE|TRUE
5685507|Baymont by Wyndham Arlington At Six Flags Dr|Arlington, TX|  56|32.75387| -97.06519|TRUE|FALSE|FALSE|TRUE
5685507|Motel 6 Arlington, Tx – Entertainment District|Arlington, TX|  59|32.74876| -97.09796|TRUE|TRUE|FALSE|TRUE
5685507|Hilton Arlington|Arlington, TX| 133|32.76248| -97.06729|FALSE|FALSE|TRUE|TRUE
5685507|OYO Hotel Irving DFW Airport South|Arlington, TX|  53|32.83824| -96.98151|TRUE|FALSE|FALSE|TRUE
5685507|Extended Stay America Suites Arlington|Arlington, TX|  67|32.73569| -97.10807|TRUE|TRUE|FALSE|TRUE
5685507|Holiday Inn Arlington NE-Rangers Ballpark, an IHG Hotel|Arlington, TX| 107|32.76136| -97.09205|FALSE|TRUE|FALSE|TRUE
5685507|Hyatt Place Dallas/North Arlington/Grand Prairie|Arlington, TX| 113|32.77198| -97.06053|FALSE|FALSE|TRUE|TRUE
5685507|Comfort Suites Arlington - Entertainment District|Arlington, TX| 107|32.75869| -97.11011|FALSE|TRUE|FALSE|TRUE
5685507|SpringHill Suites by Marriott Dallas DFW Airport South/CentrePort|Arlington, TX| 134|32.82729| -97.05926|FALSE|FALSE|TRUE|TRUE
5685507|Sheraton Arlington Hotel|Arlington, TX| 165|32.75686| -97.08185|FALSE|TRUE|TRUE|TRUE
5685507|Quality Inn at Arlington Highlands|Arlington, TX|  64|32.67999| -97.11338|TRUE|FALSE|FALSE|TRUE
5691889|La Quinta Inn & Suites by Wyndham Inglewood|Inglewood, CA| 166|33.93125|-118.34332|FALSE|TRUE|FALSE|TRUE
5691889|Comet Motel|Inglewood, CA|  91|33.93788|-118.26499|TRUE|FALSE|FALSE|TRUE
5691889|Los Angeles Adventurer All Suite Hotel at LAX|Inglewood, CA| 105|33.94520|-118.34886|FALSE|TRUE|FALSE|TRUE
5691889|Holiday Inn Los Angeles - LAX Airport, an IHG Hotel|Inglewood, CA| 156|33.94620|-118.37092|FALSE|TRUE|FALSE|TRUE
5691889|The Peninsula Beverly Hills|Inglewood, CA|1157|34.06576|-118.41072|FALSE|FALSE|TRUE|TRUE
5691889|Casa Del Mar|Inglewood, CA| 882|34.00627|-118.49147|FALSE|FALSE|TRUE|TRUE
5691889|The Beverly Hills Hotel|Inglewood, CA|1692|33.96168|-118.35313|FALSE|TRUE|TRUE|TRUE
5691889|Budget Motel|Inglewood, CA|  97|33.97495|-118.31656|TRUE|FALSE|FALSE|TRUE
5691889|Rosa Bell Motel - Los Angeles|Inglewood, CA|  98|33.99136|-118.30872|TRUE|FALSE|FALSE|TRUE
5691889|L'Ermitage Beverly Hills|Inglewood, CA| 804|34.07254|-118.39540|FALSE|FALSE|TRUE|TRUE
5691889|Four Seasons Los Angeles at Beverly Hills|Inglewood, CA| 959|34.07305|-118.38934|FALSE|FALSE|TRUE|TRUE
5691889|Central Inn Motel|Inglewood, CA|  87|34.00935|-118.25629|TRUE|FALSE|FALSE|TRUE
5691889|1 Hotel West Hollywood|Inglewood, CA| 588|34.09407|-118.37570|FALSE|FALSE|TRUE|TRUE
5691889|Best Western Plus Suites Hotel - Los Angeles LAX Airport|Inglewood, CA| 161|33.94579|-118.36570|FALSE|TRUE|FALSE|TRUE
5691889|Redondo Beach Inn|Inglewood, CA|  78|33.88725|-118.31193|TRUE|FALSE|FALSE|TRUE
5691889|Four Points by Sheraton Los Angeles International Airport|Inglewood, CA|  98|33.94784|-118.38496|TRUE|FALSE|FALSE|TRUE
5691889|SureStay Hotel by Best Western South Gate|Inglewood, CA|  96|33.95138|-118.18214|TRUE|FALSE|FALSE|TRUE
5691889|The London West Hollywood at Beverly Hills|Inglewood, CA| 589|34.08996|-118.38507|FALSE|FALSE|TRUE|TRUE
5691889|The Maybourne Beverly Hills|Inglewood, CA|1213|34.06797|-118.39875|FALSE|FALSE|TRUE|TRUE
5691889|Beverly Wilshire - Beverly Hills, A Four Seasons Hotel|Inglewood, CA|1007|34.06674|-118.40077|FALSE|FALSE|TRUE|TRUE
5691889|Antonio Hotel|Inglewood, CA|  97|33.96168|-118.35313|TRUE|TRUE|FALSE|TRUE
5691889|LAX Stadium Inn - El Segundo/Inglewood|Inglewood, CA|  86|33.93112|-118.35535|TRUE|TRUE|FALSE|TRUE
5691889|Shutters on the Beach|Inglewood, CA| 939|34.00692|-118.49169|FALSE|FALSE|TRUE|TRUE
5691889|Quality Inn & Suites Los Angeles Airport - LAX|Inglewood, CA| 137|33.94493|-118.36455|FALSE|TRUE|FALSE|TRUE
5691889|American Hotel Los Angeles|Inglewood, CA| 104|33.96168|-118.35313|FALSE|TRUE|FALSE|TRUE
5691889|Royal Century Hotel|Inglewood, CA|  92|33.94491|-118.35159|TRUE|TRUE|FALSE|TRUE
5692975|Best Western Plus Suites Hotel - Los Angeles LAX Airport|Inglewood, CA| 161|33.94579|-118.36570|FALSE|TRUE|FALSE|TRUE
5692975|Redondo Beach Inn|Inglewood, CA|  78|33.88725|-118.31193|TRUE|FALSE|FALSE|TRUE
5692975|The Peninsula Beverly Hills|Inglewood, CA|1157|34.06576|-118.41072|FALSE|FALSE|TRUE|TRUE
5692975|The Beverly Hills Hotel|Inglewood, CA|1692|33.96168|-118.35313|FALSE|TRUE|TRUE|TRUE
5692975|L'Ermitage Beverly Hills|Inglewood, CA| 804|34.07254|-118.39540|FALSE|FALSE|TRUE|TRUE
5692975|Rosa Bell Motel - Los Angeles|Inglewood, CA|  98|33.99136|-118.30872|TRUE|FALSE|FALSE|TRUE
5692975|Casa Del Mar|Inglewood, CA| 882|34.00627|-118.49147|FALSE|FALSE|TRUE|TRUE
5692975|Los Angeles Adventurer All Suite Hotel at LAX|Inglewood, CA| 105|33.94520|-118.34886|FALSE|TRUE|FALSE|TRUE
5692975|La Quinta Inn & Suites by Wyndham Inglewood|Inglewood, CA| 166|33.93125|-118.34332|FALSE|TRUE|FALSE|TRUE
5692975|Budget Motel|Inglewood, CA|  97|33.97495|-118.31656|TRUE|FALSE|FALSE|TRUE
5692975|Central Inn Motel|Inglewood, CA|  87|34.00935|-118.25629|TRUE|FALSE|FALSE|TRUE
5692975|Holiday Inn Los Angeles - LAX Airport, an IHG Hotel|Inglewood, CA| 156|33.94620|-118.37092|FALSE|TRUE|FALSE|TRUE
5692975|Four Seasons Los Angeles at Beverly Hills|Inglewood, CA| 959|34.07305|-118.38934|FALSE|FALSE|TRUE|TRUE
5692975|SureStay Hotel by Best Western South Gate|Inglewood, CA|  96|33.95138|-118.18214|TRUE|FALSE|FALSE|TRUE
5692975|LAX Stadium Inn - El Segundo/Inglewood|Inglewood, CA|  86|33.93112|-118.35535|TRUE|TRUE|FALSE|TRUE
5692975|Comet Motel|Inglewood, CA|  91|33.93788|-118.26499|TRUE|FALSE|FALSE|TRUE
5692975|American Hotel Los Angeles|Inglewood, CA| 104|33.96168|-118.35313|FALSE|TRUE|FALSE|TRUE
5692975|Shutters on the Beach|Inglewood, CA| 939|34.00692|-118.49169|FALSE|FALSE|TRUE|TRUE
5692975|Quality Inn & Suites Los Angeles Airport - LAX|Inglewood, CA| 137|33.94493|-118.36455|FALSE|TRUE|FALSE|TRUE
5692975|1 Hotel West Hollywood|Inglewood, CA| 588|34.09407|-118.37570|FALSE|FALSE|TRUE|TRUE
5692975|Antonio Hotel|Inglewood, CA|  97|33.96168|-118.35313|TRUE|TRUE|FALSE|TRUE
5692975|Beverly Wilshire - Beverly Hills, A Four Seasons Hotel|Inglewood, CA|1007|34.06674|-118.40077|FALSE|FALSE|TRUE|TRUE
5692975|Royal Century Hotel|Inglewood, CA|  92|33.94491|-118.35159|TRUE|TRUE|FALSE|TRUE
5692975|The London West Hollywood at Beverly Hills|Inglewood, CA| 589|34.08996|-118.38507|FALSE|FALSE|TRUE|TRUE
5692975|The Maybourne Beverly Hills|Inglewood, CA|1213|34.06797|-118.39875|FALSE|FALSE|TRUE|TRUE
5692975|Four Points by Sheraton Los Angeles International Airport|Inglewood, CA|  98|33.94784|-118.38496|TRUE|FALSE|FALSE|TRUE
5695225|The Ritz-Carlton Bal Harbour, Miami|Miami Gardens, FL|1975|25.89900| -80.12330|FALSE|FALSE|TRUE|TRUE
5695225|Seminole Hard Rock Hotel and Casino|Miami Gardens, FL| 644|26.05082| -80.21155|FALSE|TRUE|TRUE|TRUE
5695225|Grand Palms Spa & Golf Resort|Miami Gardens, FL|  95|26.00016| -80.35079|TRUE|FALSE|FALSE|TRUE
5695225|SpringHill Suites by Marriott Fort Lauderdale Miramar|Miami Gardens, FL| 202|25.97424| -80.29263|FALSE|TRUE|FALSE|TRUE
5695225|Holiday Inn Express Pembroke Pines-Sheridan Street, an IHG Hotel|Miami Gardens, FL| 157|26.02784| -80.34487|TRUE|FALSE|FALSE|TRUE
5695225|Margaritaville Hollywood Beach Resort|Miami Gardens, FL| 687|26.01878| -80.11674|FALSE|FALSE|TRUE|TRUE
5695225|May-Dee Suites|Miami Gardens, FL| 166|26.01073| -80.19495|FALSE|TRUE|FALSE|TRUE
5695225|Hotel Dello Ft Lauderdale Airport, Tapestry Collection by Hilton|Miami Gardens, FL| 160|26.05133| -80.14407|TRUE|FALSE|FALSE|TRUE
5695225|The Oasis Tower at Seminole Hard Rock|Miami Gardens, FL| 670|26.05187| -80.21052|FALSE|FALSE|TRUE|TRUE
5695225|Miami Lakes Hotel|Miami Gardens, FL| 168|25.91206| -80.31126|FALSE|TRUE|FALSE|TRUE
5695225|Home2 Suites by Hilton Miramar FT. Lauderdale|Miami Gardens, FL| 158|25.98326| -80.34737|TRUE|FALSE|FALSE|TRUE
5695225|AC Hotel by Marriott Miami Aventura|Miami Gardens, FL| 374|25.96770| -80.14225|FALSE|TRUE|FALSE|TRUE
5695225|Travelodge by Wyndham Miami Biscayne Bay|Miami Gardens, FL| 156|25.82499| -80.18661|TRUE|FALSE|FALSE|TRUE
5695225|Four Seasons Hotel at The Surf Club|Miami Gardens, FL|3152|25.87772| -80.12142|FALSE|FALSE|TRUE|TRUE
5695225|WoodSpring Suites Miramar|Miami Gardens, FL| 158|25.97539| -80.29685|TRUE|TRUE|FALSE|TRUE
5695225|Grand Beach Hotel Surfside|Miami Gardens, FL|1011|25.88445| -80.12222|FALSE|FALSE|TRUE|TRUE
5695225|Trump International Beach Resort|Miami Gardens, FL| 968|25.94320| -80.12061|FALSE|FALSE|TRUE|TRUE
5695225|The Harrison Hotel Downtown Hollywood|Miami Gardens, FL| 134|26.01073| -80.14622|TRUE|FALSE|FALSE|TRUE
5695225|Dream Inn|Miami Gardens, FL| 228|25.94204| -80.24560|FALSE|TRUE|FALSE|TRUE
5695225|Sonesta Select Miami Lakes|Miami Gardens, FL| 214|25.91614| -80.32612|FALSE|TRUE|FALSE|TRUE
5695225|Grand Beach Hotel Surfside West|Miami Gardens, FL| 757|25.88365| -80.12259|FALSE|FALSE|TRUE|TRUE
5695225|Grand Beach Hotel Bay Harbor|Miami Gardens, FL| 615|25.88727| -80.12905|FALSE|FALSE|TRUE|TRUE
5695225|Stadium Hotel|Miami Gardens, FL| 158|25.95790| -80.23885|TRUE|TRUE|FALSE|TRUE
5695225|Red Carpet Inn Airport/Cruiseport|Miami Gardens, FL| 124|26.08635| -80.17466|TRUE|FALSE|FALSE|TRUE
5695225|The St. Regis Bal Harbour Resort|Miami Gardens, FL|2997|25.88909| -80.12241|FALSE|FALSE|TRUE|TRUE
5695225|Rodeway Inn near Hollywood Beach|Miami Gardens, FL| 153|26.01560| -80.14298|TRUE|FALSE|FALSE|TRUE
5695225|Extended Stay America Suites Fort Lauderdale Davie|Miami Gardens, FL| 166|25.94204| -80.24560|FALSE|TRUE|FALSE|TRUE
5695240|May-Dee Suites|Miami Gardens, FL| 166|26.01073| -80.19495|FALSE|TRUE|FALSE|TRUE
5695240|Holiday Inn Express Pembroke Pines-Sheridan Street, an IHG Hotel|Miami Gardens, FL| 157|26.02784| -80.34487|TRUE|FALSE|FALSE|TRUE
5695240|The Ritz-Carlton Bal Harbour, Miami|Miami Gardens, FL|1975|25.89900| -80.12330|FALSE|FALSE|TRUE|TRUE
5695240|Seminole Hard Rock Hotel and Casino|Miami Gardens, FL| 644|26.05082| -80.21155|FALSE|TRUE|TRUE|TRUE
5695240|The St. Regis Bal Harbour Resort|Miami Gardens, FL|2997|25.88909| -80.12241|FALSE|FALSE|TRUE|TRUE
5695240|The Oasis Tower at Seminole Hard Rock|Miami Gardens, FL| 670|26.05187| -80.21052|FALSE|FALSE|TRUE|TRUE
5695240|Margaritaville Hollywood Beach Resort|Miami Gardens, FL| 687|26.01878| -80.11674|FALSE|FALSE|TRUE|TRUE
5695240|Red Carpet Inn Airport/Cruiseport|Miami Gardens, FL| 124|26.08635| -80.17466|TRUE|FALSE|FALSE|TRUE
5695240|Stadium Hotel|Miami Gardens, FL| 158|25.95790| -80.23885|TRUE|TRUE|FALSE|TRUE
5695240|Grand Beach Hotel Surfside|Miami Gardens, FL|1011|25.88445| -80.12222|FALSE|FALSE|TRUE|TRUE
5695240|Travelodge by Wyndham Miami Biscayne Bay|Miami Gardens, FL| 156|25.82499| -80.18661|TRUE|FALSE|FALSE|TRUE
5695240|Rodeway Inn near Hollywood Beach|Miami Gardens, FL| 153|26.01560| -80.14298|TRUE|FALSE|FALSE|TRUE
5695240|Hotel Dello Ft Lauderdale Airport, Tapestry Collection by Hilton|Miami Gardens, FL| 160|26.05133| -80.14407|TRUE|FALSE|FALSE|TRUE
5695240|The Harrison Hotel Downtown Hollywood|Miami Gardens, FL| 134|26.01073| -80.14622|TRUE|FALSE|FALSE|TRUE
5695240|SpringHill Suites by Marriott Fort Lauderdale Miramar|Miami Gardens, FL| 202|25.97424| -80.29263|FALSE|TRUE|FALSE|TRUE
5695240|Home2 Suites by Hilton Miramar FT. Lauderdale|Miami Gardens, FL| 158|25.98326| -80.34737|TRUE|FALSE|FALSE|TRUE
5695240|Grand Beach Hotel Surfside West|Miami Gardens, FL| 757|25.88365| -80.12259|FALSE|FALSE|TRUE|TRUE
5695240|Grand Beach Hotel Bay Harbor|Miami Gardens, FL| 615|25.88727| -80.12905|FALSE|FALSE|TRUE|TRUE
5695240|Sonesta Select Miami Lakes|Miami Gardens, FL| 214|25.91614| -80.32612|FALSE|TRUE|FALSE|TRUE
5695240|AC Hotel by Marriott Miami Aventura|Miami Gardens, FL| 374|25.96770| -80.14225|FALSE|TRUE|FALSE|TRUE
5695240|WoodSpring Suites Miramar|Miami Gardens, FL| 158|25.97539| -80.29685|TRUE|TRUE|FALSE|TRUE
5695240|Grand Palms Spa & Golf Resort|Miami Gardens, FL|  95|26.00016| -80.35079|TRUE|FALSE|FALSE|TRUE
5695240|Trump International Beach Resort|Miami Gardens, FL| 968|25.94320| -80.12061|FALSE|FALSE|TRUE|TRUE
5695240|Miami Lakes Hotel|Miami Gardens, FL| 168|25.91206| -80.31126|FALSE|TRUE|FALSE|TRUE
5695240|Extended Stay America Suites Fort Lauderdale Davie|Miami Gardens, FL| 166|25.94204| -80.24560|FALSE|TRUE|FALSE|TRUE
5695240|Four Seasons Hotel at The Surf Club|Miami Gardens, FL|3152|25.87772| -80.12142|FALSE|FALSE|TRUE|TRUE
5695240|Dream Inn|Miami Gardens, FL| 228|25.94204| -80.24560|FALSE|TRUE|FALSE|TRUE
5695243|Nobu Hotel Chicago|Chicago, IL| 468|41.88473| -87.64949|FALSE|FALSE|TRUE|TRUE
5695243|The Ritz-Carlton, Chicago|Chicago, IL| 609|41.89782| -87.62228|FALSE|FALSE|TRUE|TRUE
5695243|Club Quarters Hotel, Central Loop, Chicago|Chicago, IL| 140|41.87927| -87.63119|FALSE|TRUE|FALSE|TRUE
5695243|The Majestic Hotel|Chicago, IL| 104|41.94752| -87.64420|TRUE|FALSE|FALSE|TRUE
5695243|Congress Plaza Hotel|Chicago, IL| 147|41.87491| -87.62482|FALSE|TRUE|FALSE|TRUE
5695243|Found Hotel Chicago River North|Chicago, IL|  84|41.89287| -87.63377|TRUE|FALSE|FALSE|TRUE
5695243|Canopy by Hilton Chicago Central Loop|Chicago, IL| 167|41.87821| -87.63427|FALSE|TRUE|TRUE|TRUE
5695243|Selina Chicago|Chicago, IL|  80|41.89848| -87.62562|TRUE|FALSE|FALSE|TRUE
5695243|Park Hyatt Chicago|Chicago, IL| 576|41.89724| -87.62527|FALSE|FALSE|TRUE|TRUE
5695243|Best Western Grant Park Hotel|Chicago, IL| 105|41.86909| -87.62468|TRUE|TRUE|FALSE|TRUE
5695243|Hilton Garden Inn Chicago Central Loop|Chicago, IL| 139|41.87857| -87.63513|FALSE|TRUE|FALSE|TRUE
5695243|CitizenM Chicago Downtown|Chicago, IL| 119|41.88696| -87.62505|FALSE|TRUE|FALSE|TRUE
5695243|Freehand Chicago|Chicago, IL|  98|41.89238| -87.62732|TRUE|FALSE|FALSE|TRUE
5695243|Four Seasons Hotel Chicago|Chicago, IL| 575|41.89961| -87.62488|FALSE|FALSE|TRUE|TRUE
5695243|The Langham, Chicago|Chicago, IL| 608|41.88842| -87.62751|FALSE|FALSE|TRUE|TRUE
5695243|Hotel Versey Days Inn by Wyndham Chicago|Chicago, IL|  94|41.93294| -87.64557|TRUE|FALSE|FALSE|TRUE
5695243|Waldorf Astoria Chicago|Chicago, IL| 663|41.89974| -87.62748|FALSE|FALSE|TRUE|TRUE
5695243|Trump International Hotel & Tower Chicago|Chicago, IL| 540|41.88890| -87.62643|FALSE|FALSE|TRUE|TRUE
5695243|Hotel BnB-2|Chicago, IL|  92|41.89585| -87.63797|TRUE|FALSE|FALSE|TRUE
5695243|The Peninsula Chicago|Chicago, IL| 704|41.89620| -87.62515|FALSE|FALSE|TRUE|TRUE
5695243|Hilton Chicago|Chicago, IL| 187|41.87246| -87.62478|FALSE|TRUE|TRUE|TRUE
5695243|Hilton Garden Inn Chicago Downtown South Loop|Chicago, IL| 119|41.86909| -87.62566|FALSE|TRUE|FALSE|TRUE
5695243|The Whitehall Hotel|Chicago, IL|  95|41.89891| -87.62571|TRUE|FALSE|FALSE|TRUE
5695243|Eurostars Magnificent Mile|Chicago, IL| 106|41.89430| -87.62840|TRUE|FALSE|FALSE|TRUE
5695243|River Hotel|Chicago, IL| 120|41.88766| -87.62556|FALSE|TRUE|FALSE|TRUE
5695243|Travelodge by Wyndham Downtown Chicago|Chicago, IL|  99|41.87429| -87.62539|TRUE|TRUE|FALSE|TRUE
5695257|Selina Chicago|Chicago, IL|  80|41.89848| -87.62562|TRUE|FALSE|FALSE|TRUE
5695257|The Peninsula Chicago|Chicago, IL| 704|41.89620| -87.62515|FALSE|FALSE|TRUE|TRUE
5695257|The Majestic Hotel|Chicago, IL| 104|41.94752| -87.64420|TRUE|FALSE|FALSE|TRUE
5695257|Club Quarters Hotel, Central Loop, Chicago|Chicago, IL| 140|41.87927| -87.63119|FALSE|TRUE|FALSE|TRUE
5695257|Travelodge by Wyndham Downtown Chicago|Chicago, IL|  99|41.87429| -87.62539|TRUE|TRUE|FALSE|TRUE
5695257|River Hotel|Chicago, IL| 120|41.88766| -87.62556|FALSE|TRUE|FALSE|TRUE
5695257|The Langham, Chicago|Chicago, IL| 608|41.88842| -87.62751|FALSE|FALSE|TRUE|TRUE
5695257|Nobu Hotel Chicago|Chicago, IL| 468|41.88473| -87.64949|FALSE|FALSE|TRUE|TRUE
5695257|Hotel BnB-2|Chicago, IL|  92|41.89585| -87.63797|TRUE|FALSE|FALSE|TRUE
5695257|Hilton Chicago|Chicago, IL| 187|41.87246| -87.62478|FALSE|TRUE|TRUE|TRUE
5695257|Hilton Garden Inn Chicago Central Loop|Chicago, IL| 139|41.87857| -87.63513|FALSE|TRUE|FALSE|TRUE
5695257|The Whitehall Hotel|Chicago, IL|  95|41.89891| -87.62571|TRUE|FALSE|FALSE|TRUE
5695257|The Ritz-Carlton, Chicago|Chicago, IL| 609|41.89782| -87.62228|FALSE|FALSE|TRUE|TRUE
5695257|CitizenM Chicago Downtown|Chicago, IL| 119|41.88696| -87.62505|FALSE|TRUE|FALSE|TRUE
5695257|Canopy by Hilton Chicago Central Loop|Chicago, IL| 167|41.87821| -87.63427|FALSE|TRUE|TRUE|TRUE
5695257|Park Hyatt Chicago|Chicago, IL| 576|41.89724| -87.62527|FALSE|FALSE|TRUE|TRUE
5695257|Trump International Hotel & Tower Chicago|Chicago, IL| 540|41.88890| -87.62643|FALSE|FALSE|TRUE|TRUE
5695257|Hotel Versey Days Inn by Wyndham Chicago|Chicago, IL|  94|41.93294| -87.64557|TRUE|FALSE|FALSE|TRUE
5695257|Best Western Grant Park Hotel|Chicago, IL| 105|41.86909| -87.62468|TRUE|TRUE|FALSE|TRUE
5695257|Congress Plaza Hotel|Chicago, IL| 147|41.87491| -87.62482|FALSE|TRUE|FALSE|TRUE
5695257|Freehand Chicago|Chicago, IL|  98|41.89238| -87.62732|TRUE|FALSE|FALSE|TRUE
5695257|Eurostars Magnificent Mile|Chicago, IL| 106|41.89430| -87.62840|TRUE|FALSE|FALSE|TRUE
5695257|Waldorf Astoria Chicago|Chicago, IL| 663|41.89974| -87.62748|FALSE|FALSE|TRUE|TRUE
5695257|Found Hotel Chicago River North|Chicago, IL|  84|41.89287| -87.63377|TRUE|FALSE|FALSE|TRUE
5695257|Four Seasons Hotel Chicago|Chicago, IL| 575|41.89961| -87.62488|FALSE|FALSE|TRUE|TRUE
5695257|Hilton Garden Inn Chicago Downtown South Loop|Chicago, IL| 119|41.86909| -87.62566|FALSE|TRUE|FALSE|TRUE
5695259|Four Seasons Hotel Chicago|Chicago, IL| 575|41.89961| -87.62488|FALSE|FALSE|TRUE|TRUE
5695259|Club Quarters Hotel, Central Loop, Chicago|Chicago, IL| 140|41.87927| -87.63119|FALSE|TRUE|FALSE|TRUE
5695259|River Hotel|Chicago, IL| 120|41.88766| -87.62556|FALSE|TRUE|FALSE|TRUE
5695259|Freehand Chicago|Chicago, IL|  98|41.89238| -87.62732|TRUE|FALSE|FALSE|TRUE
5695259|Travelodge by Wyndham Downtown Chicago|Chicago, IL|  99|41.87429| -87.62539|TRUE|TRUE|FALSE|TRUE
5695259|Best Western Grant Park Hotel|Chicago, IL| 105|41.86909| -87.62468|TRUE|TRUE|FALSE|TRUE
5695259|Hilton Chicago|Chicago, IL| 187|41.87246| -87.62478|FALSE|TRUE|TRUE|TRUE
5695259|The Whitehall Hotel|Chicago, IL|  95|41.89891| -87.62571|TRUE|FALSE|FALSE|TRUE
5695259|Hilton Garden Inn Chicago Central Loop|Chicago, IL| 139|41.87857| -87.63513|FALSE|TRUE|FALSE|TRUE
5695259|Hotel BnB-2|Chicago, IL|  92|41.89585| -87.63797|TRUE|FALSE|FALSE|TRUE
5695259|Eurostars Magnificent Mile|Chicago, IL| 106|41.89430| -87.62840|TRUE|FALSE|FALSE|TRUE
5695259|Nobu Hotel Chicago|Chicago, IL| 468|41.88473| -87.64949|FALSE|FALSE|TRUE|TRUE
5695259|Congress Plaza Hotel|Chicago, IL| 147|41.87491| -87.62482|FALSE|TRUE|FALSE|TRUE
5695259|Trump International Hotel & Tower Chicago|Chicago, IL| 540|41.88890| -87.62643|FALSE|FALSE|TRUE|TRUE
5695259|Waldorf Astoria Chicago|Chicago, IL| 663|41.89974| -87.62748|FALSE|FALSE|TRUE|TRUE
5695259|CitizenM Chicago Downtown|Chicago, IL| 119|41.88696| -87.62505|FALSE|TRUE|FALSE|TRUE
5695259|Selina Chicago|Chicago, IL|  80|41.89848| -87.62562|TRUE|FALSE|FALSE|TRUE
5695259|The Ritz-Carlton, Chicago|Chicago, IL| 609|41.89782| -87.62228|FALSE|FALSE|TRUE|TRUE
5695259|Park Hyatt Chicago|Chicago, IL| 576|41.89724| -87.62527|FALSE|FALSE|TRUE|TRUE
5695259|The Majestic Hotel|Chicago, IL| 104|41.94752| -87.64420|TRUE|FALSE|FALSE|TRUE
5695259|Hotel Versey Days Inn by Wyndham Chicago|Chicago, IL|  94|41.93294| -87.64557|TRUE|FALSE|FALSE|TRUE
5695259|Hilton Garden Inn Chicago Downtown South Loop|Chicago, IL| 119|41.86909| -87.62566|FALSE|TRUE|FALSE|TRUE
5695259|The Peninsula Chicago|Chicago, IL| 704|41.89620| -87.62515|FALSE|FALSE|TRUE|TRUE
5695259|The Langham, Chicago|Chicago, IL| 608|41.88842| -87.62751|FALSE|FALSE|TRUE|TRUE
5695259|Found Hotel Chicago River North|Chicago, IL|  84|41.89287| -87.63377|TRUE|FALSE|FALSE|TRUE
5695259|Canopy by Hilton Chicago Central Loop|Chicago, IL| 167|41.87821| -87.63427|FALSE|TRUE|TRUE|TRUE
5695261|Courtyard by Marriott Boston Norwood/Canton|Foxborough, MA| 115|42.17532| -71.19010|TRUE|FALSE|FALSE|TRUE
5695261|Home2 Suites by Hilton Walpole Foxboro|Foxborough, MA| 137|42.10473| -71.25585|FALSE|TRUE|TRUE|TRUE
5695261|Americas Best Value Inn Foxboro|Foxborough, MA| 120|42.08196| -71.28072|TRUE|TRUE|FALSE|TRUE
5695261|Red Roof Inn PLUS+ Boston - Mansfield/ Foxboro|Foxborough, MA|  83|42.03411| -71.23668|TRUE|FALSE|FALSE|TRUE
5695261|Hampton Inn Franklin/Milford|Foxborough, MA| 128|42.06515| -71.39754|FALSE|FALSE|TRUE|TRUE
5695261|Residence Inn by Marriott Boston-Franklin|Foxborough, MA| 135|42.06538| -71.24783|FALSE|TRUE|TRUE|TRUE
5695261|Residence Inn by Marriott Foxborough|Foxborough, MA| 135|42.04473| -71.23833|FALSE|TRUE|TRUE|TRUE
5695261|Sonesta Select Boston Foxborough Mansfield|Foxborough, MA| 103|42.03978| -71.23689|TRUE|FALSE|FALSE|TRUE
5695261|Best Western Plus The Inn at Sharon/Foxboro|Foxborough, MA| 104|42.12324| -71.23031|TRUE|TRUE|FALSE|TRUE
5695261|Best Western Plus Executive Residency Franklin|Foxborough, MA| 110|42.06149| -71.39714|TRUE|FALSE|FALSE|TRUE
5695261|Hampton Inn Boston - Norwood|Foxborough, MA| 113|42.19696| -71.18431|TRUE|FALSE|FALSE|TRUE
5695261|Four Points By Sheraton Norwood|Foxborough, MA| 161|42.17541| -71.19446|FALSE|FALSE|TRUE|TRUE
5695261|The Proctor Mansion Inn|Foxborough, MA| 695|42.06550| -71.32757|FALSE|TRUE|TRUE|TRUE
5695261|Renaissance by Marriott Boston Patriot Place Hotel|Foxborough, MA| 161|42.09045| -71.26853|FALSE|TRUE|TRUE|TRUE
5695261|Hilton Garden Inn Foxborough Patriot Place|Foxborough, MA| 146|42.09150| -71.26865|FALSE|TRUE|TRUE|TRUE
5695261|Residence Inn by Marriott Boston Norwood|Foxborough, MA| 109|42.16943| -71.20033|TRUE|FALSE|FALSE|TRUE
5695261|Econo Lodge Sharon|Foxborough, MA|  85|42.12519| -71.23042|TRUE|TRUE|FALSE|TRUE
5695261|SpringHill Suites by Marriott Wrentham Plainville|Foxborough, MA| 124|42.03871| -71.31233|FALSE|FALSE|TRUE|TRUE
5695261|Comfort Inn Foxboro – Mansfield|Foxborough, MA|  95|42.03943| -71.23985|TRUE|TRUE|FALSE|TRUE
5695261|TownePlace Suites by Marriott Wrentham Plainville|Foxborough, MA| 162|42.03856| -71.31183|FALSE|FALSE|TRUE|TRUE
5695277|Four Points By Sheraton Norwood|Foxborough, MA| 161|42.17541| -71.19446|FALSE|FALSE|TRUE|TRUE
5695277|SpringHill Suites by Marriott Wrentham Plainville|Foxborough, MA| 124|42.03871| -71.31233|FALSE|FALSE|TRUE|TRUE
5695277|Residence Inn by Marriott Foxborough|Foxborough, MA| 135|42.04473| -71.23833|FALSE|TRUE|TRUE|TRUE
5695277|Sonesta Select Boston Foxborough Mansfield|Foxborough, MA| 103|42.03978| -71.23689|TRUE|FALSE|FALSE|TRUE
5695277|Best Western Plus The Inn at Sharon/Foxboro|Foxborough, MA| 104|42.12324| -71.23031|TRUE|TRUE|FALSE|TRUE
5695277|Comfort Inn Foxboro – Mansfield|Foxborough, MA|  95|42.03943| -71.23985|TRUE|TRUE|FALSE|TRUE
5695277|TownePlace Suites by Marriott Wrentham Plainville|Foxborough, MA| 162|42.03856| -71.31183|FALSE|FALSE|TRUE|TRUE
5695277|The Proctor Mansion Inn|Foxborough, MA| 695|42.06550| -71.32757|FALSE|TRUE|TRUE|TRUE
5695277|Residence Inn by Marriott Boston Norwood|Foxborough, MA| 109|42.16943| -71.20033|TRUE|FALSE|FALSE|TRUE
5695277|Red Roof Inn PLUS+ Boston - Mansfield/ Foxboro|Foxborough, MA|  83|42.03411| -71.23668|TRUE|FALSE|FALSE|TRUE
5695277|Home2 Suites by Hilton Walpole Foxboro|Foxborough, MA| 137|42.10473| -71.25585|FALSE|TRUE|TRUE|TRUE
5695277|Courtyard by Marriott Boston Norwood/Canton|Foxborough, MA| 115|42.17532| -71.19010|TRUE|FALSE|FALSE|TRUE
5695277|Americas Best Value Inn Foxboro|Foxborough, MA| 120|42.08196| -71.28072|TRUE|TRUE|FALSE|TRUE
5695277|Renaissance by Marriott Boston Patriot Place Hotel|Foxborough, MA| 161|42.09045| -71.26853|FALSE|TRUE|TRUE|TRUE
5695277|Hampton Inn Franklin/Milford|Foxborough, MA| 128|42.06515| -71.39754|FALSE|FALSE|TRUE|TRUE
5695277|Best Western Plus Executive Residency Franklin|Foxborough, MA| 110|42.06149| -71.39714|TRUE|FALSE|FALSE|TRUE
5695277|Hilton Garden Inn Foxborough Patriot Place|Foxborough, MA| 146|42.09150| -71.26865|FALSE|TRUE|TRUE|TRUE
5695277|Hampton Inn Boston - Norwood|Foxborough, MA| 113|42.19696| -71.18431|TRUE|FALSE|FALSE|TRUE
5695277|Econo Lodge Sharon|Foxborough, MA|  85|42.12519| -71.23042|TRUE|TRUE|FALSE|TRUE
5695277|Residence Inn by Marriott Boston-Franklin|Foxborough, MA| 135|42.06538| -71.24783|FALSE|TRUE|TRUE|TRUE
5695279|Extended Stay America Suites Washington DC Landover|Landover, MD| 102|38.93400| -76.89664|FALSE|TRUE|FALSE|TRUE
5695279|Super 8 by Wyndham Camp Springs/Andrews AFB DC Area|Landover, MD|  80|38.81399| -76.89603|TRUE|FALSE|FALSE|TRUE
5695279|Days Inn by Wyndham Camp Springs/Andrews AFB DC Area|Landover, MD|  72|38.81392| -76.89562|TRUE|FALSE|FALSE|TRUE
5695279|Motto by Hilton Washington DC City Center|Landover, MD|  87|38.89995| -77.02120|TRUE|FALSE|FALSE|TRUE
5695279|Wyndham Garden Washington DC Area|Landover, MD| 124|38.93725| -76.91708|FALSE|FALSE|TRUE|TRUE
5695279|Quality Inn Takoma Park|Landover, MD|  90|38.98395| -76.98675|TRUE|FALSE|FALSE|TRUE
5695279|Days Inn by Wyndham College Park|Landover, MD|  91|39.00442| -76.93000|TRUE|FALSE|FALSE|TRUE
5695279|Salamander Washington DC|Landover, MD| 405|38.88366| -77.03032|FALSE|FALSE|TRUE|TRUE
5695279|Conrad Washington, DC|Landover, MD| 387|38.90137| -77.02528|FALSE|FALSE|TRUE|TRUE
5695279|Waldorf Astoria Washington DC|Landover, MD| 552|38.89411| -77.02758|FALSE|FALSE|TRUE|TRUE
5695279|Quality Inn Near Joint Base Andrews - Washington Area|Landover, MD|  85|38.82076| -76.88784|TRUE|FALSE|FALSE|TRUE
5695279|Pendry Washington DC - The Wharf|Landover, MD| 431|38.87756| -77.02241|FALSE|FALSE|TRUE|TRUE
5695279|Generator Hotel Washington DC|Landover, MD| 108|38.92562| -76.88939|FALSE|TRUE|FALSE|TRUE
5695279|WoodSpring Suites Washington DC East Arena Drive|Landover, MD|  92|38.90793| -76.85133|FALSE|TRUE|FALSE|TRUE
5695279|DoubleTree by Hilton Largo/Washington DC|Landover, MD| 141|38.91566| -76.84879|FALSE|TRUE|TRUE|TRUE
5695279|Metro Points Hotel|Landover, MD|  90|38.95892| -76.86889|TRUE|FALSE|FALSE|TRUE
5695279|Staybridge Suites Washington DC East - Largo, an IHG Hotel|Landover, MD| 138|38.90699| -76.84066|FALSE|TRUE|TRUE|TRUE
5695279|Holiday Inn Express I-95 Capitol Beltway-Largo, an IHG Hotel|Landover, MD| 108|38.91377| -76.84897|FALSE|TRUE|FALSE|TRUE
5695279|Comfort Inn at Joint Base Andrews|Landover, MD|  85|38.78030| -76.89002|TRUE|FALSE|FALSE|TRUE
5695279|Comfort Inn Largo-Washington DC East|Landover, MD|  99|38.89449| -76.84227|FALSE|TRUE|FALSE|TRUE
5695279|Holiday Inn Express Washington DC - BW Parkway, an IHG Hotel|Landover, MD| 121|38.93820| -76.91022|FALSE|FALSE|TRUE|TRUE
5695279|Residence Inn Largo Medical Center Drive|Landover, MD| 157|38.90744| -76.84777|FALSE|TRUE|TRUE|TRUE
5695279|Econo Lodge Andrews Air Force Base|Landover, MD|  82|38.78201| -76.89081|TRUE|FALSE|FALSE|TRUE
5695279|Days Inn by Wyndham Lanham Washington D.C|Landover, MD|  86|38.96226| -76.86088|TRUE|FALSE|FALSE|TRUE
5695279|Homewood Suites by Hilton Largo/Washington, D.C.|Landover, MD| 158|38.91444| -76.84935|FALSE|TRUE|TRUE|TRUE
5695279|Best Western Capital Beltway|Landover, MD|  91|38.96184| -76.86511|TRUE|FALSE|FALSE|TRUE
5695279|Courtyard Largo Medical Center Drive|Landover, MD| 118|38.90692| -76.84692|FALSE|TRUE|FALSE|TRUE
5695281|Days Inn by Wyndham College Park|Landover, MD|  91|39.00442| -76.93000|TRUE|FALSE|FALSE|TRUE
5695281|Homewood Suites by Hilton Largo/Washington, D.C.|Landover, MD| 158|38.91444| -76.84935|FALSE|TRUE|TRUE|TRUE
5695281|WoodSpring Suites Washington DC East Arena Drive|Landover, MD|  92|38.90793| -76.85133|FALSE|TRUE|FALSE|TRUE
5695281|Courtyard Largo Medical Center Drive|Landover, MD| 118|38.90692| -76.84692|FALSE|TRUE|FALSE|TRUE
5695281|Super 8 by Wyndham Camp Springs/Andrews AFB DC Area|Landover, MD|  80|38.81399| -76.89603|TRUE|FALSE|FALSE|TRUE
5695281|Econo Lodge Andrews Air Force Base|Landover, MD|  82|38.78201| -76.89081|TRUE|FALSE|FALSE|TRUE
5695281|Quality Inn Near Joint Base Andrews - Washington Area|Landover, MD|  85|38.82076| -76.88784|TRUE|FALSE|FALSE|TRUE
5695281|Comfort Inn Largo-Washington DC East|Landover, MD|  99|38.89449| -76.84227|FALSE|TRUE|FALSE|TRUE
5695281|Days Inn by Wyndham Camp Springs/Andrews AFB DC Area|Landover, MD|  72|38.81392| -76.89562|TRUE|FALSE|FALSE|TRUE
5695281|Holiday Inn Express Washington DC - BW Parkway, an IHG Hotel|Landover, MD| 121|38.93820| -76.91022|FALSE|FALSE|TRUE|TRUE
5695281|Waldorf Astoria Washington DC|Landover, MD| 552|38.89411| -77.02758|FALSE|FALSE|TRUE|TRUE
5695281|Salamander Washington DC|Landover, MD| 405|38.88366| -77.03032|FALSE|FALSE|TRUE|TRUE
5695281|Pendry Washington DC - The Wharf|Landover, MD| 431|38.87756| -77.02241|FALSE|FALSE|TRUE|TRUE
5695281|Staybridge Suites Washington DC East - Largo, an IHG Hotel|Landover, MD| 138|38.90699| -76.84066|FALSE|TRUE|TRUE|TRUE
5695281|DoubleTree by Hilton Largo/Washington DC|Landover, MD| 141|38.91566| -76.84879|FALSE|TRUE|TRUE|TRUE
5695281|Days Inn by Wyndham Lanham Washington D.C|Landover, MD|  86|38.96226| -76.86088|TRUE|FALSE|FALSE|TRUE
5695281|Motto by Hilton Washington DC City Center|Landover, MD|  87|38.89995| -77.02120|TRUE|FALSE|FALSE|TRUE
5695281|Extended Stay America Suites Washington DC Landover|Landover, MD| 102|38.93400| -76.89664|FALSE|TRUE|FALSE|TRUE
5695281|Holiday Inn Express I-95 Capitol Beltway-Largo, an IHG Hotel|Landover, MD| 108|38.91377| -76.84897|FALSE|TRUE|FALSE|TRUE
5695281|Metro Points Hotel|Landover, MD|  90|38.95892| -76.86889|TRUE|FALSE|FALSE|TRUE
5695281|Best Western Capital Beltway|Landover, MD|  91|38.96184| -76.86511|TRUE|FALSE|FALSE|TRUE
5695281|Generator Hotel Washington DC|Landover, MD| 108|38.92562| -76.88939|FALSE|TRUE|FALSE|TRUE
5695281|Wyndham Garden Washington DC Area|Landover, MD| 124|38.93725| -76.91708|FALSE|FALSE|TRUE|TRUE
5695281|Comfort Inn at Joint Base Andrews|Landover, MD|  85|38.78030| -76.89002|TRUE|FALSE|FALSE|TRUE
5695281|Residence Inn Largo Medical Center Drive|Landover, MD| 157|38.90744| -76.84777|FALSE|TRUE|TRUE|TRUE
5695281|Quality Inn Takoma Park|Landover, MD|  90|38.98395| -76.98675|TRUE|FALSE|FALSE|TRUE
5695281|Conrad Washington, DC|Landover, MD| 387|38.90137| -77.02528|FALSE|FALSE|TRUE|TRUE
5695295|Courtyard Largo Medical Center Drive|Landover, MD| 118|38.90692| -76.84692|FALSE|TRUE|FALSE|TRUE
5695295|Quality Inn Takoma Park|Landover, MD|  90|38.98395| -76.98675|TRUE|FALSE|FALSE|TRUE
5695295|Extended Stay America Suites Washington DC Landover|Landover, MD| 102|38.93400| -76.89664|FALSE|TRUE|FALSE|TRUE
5695295|Motto by Hilton Washington DC City Center|Landover, MD|  87|38.89995| -77.02120|TRUE|FALSE|FALSE|TRUE
5695295|Days Inn by Wyndham Camp Springs/Andrews AFB DC Area|Landover, MD|  72|38.81392| -76.89562|TRUE|FALSE|FALSE|TRUE
5695295|Staybridge Suites Washington DC East - Largo, an IHG Hotel|Landover, MD| 138|38.90699| -76.84066|FALSE|TRUE|TRUE|TRUE
5695295|Days Inn by Wyndham Lanham Washington D.C|Landover, MD|  86|38.96226| -76.86088|TRUE|FALSE|FALSE|TRUE
5695295|WoodSpring Suites Washington DC East Arena Drive|Landover, MD|  92|38.90793| -76.85133|FALSE|TRUE|FALSE|TRUE
5695295|Super 8 by Wyndham Camp Springs/Andrews AFB DC Area|Landover, MD|  80|38.81399| -76.89603|TRUE|FALSE|FALSE|TRUE
5695295|Comfort Inn at Joint Base Andrews|Landover, MD|  85|38.78030| -76.89002|TRUE|FALSE|FALSE|TRUE
5695295|Pendry Washington DC - The Wharf|Landover, MD| 431|38.87756| -77.02241|FALSE|FALSE|TRUE|TRUE
5695295|Best Western Capital Beltway|Landover, MD|  91|38.96184| -76.86511|TRUE|FALSE|FALSE|TRUE
5695295|Holiday Inn Express Washington DC - BW Parkway, an IHG Hotel|Landover, MD| 121|38.93820| -76.91022|FALSE|FALSE|TRUE|TRUE
5695295|Generator Hotel Washington DC|Landover, MD| 108|38.92562| -76.88939|FALSE|TRUE|FALSE|TRUE
5695295|Waldorf Astoria Washington DC|Landover, MD| 552|38.89411| -77.02758|FALSE|FALSE|TRUE|TRUE
5695295|DoubleTree by Hilton Largo/Washington DC|Landover, MD| 141|38.91566| -76.84879|FALSE|TRUE|TRUE|TRUE
5695295|Holiday Inn Express I-95 Capitol Beltway-Largo, an IHG Hotel|Landover, MD| 108|38.91377| -76.84897|FALSE|TRUE|FALSE|TRUE
5695295|Quality Inn Near Joint Base Andrews - Washington Area|Landover, MD|  85|38.82076| -76.88784|TRUE|FALSE|FALSE|TRUE
5695295|Homewood Suites by Hilton Largo/Washington, D.C.|Landover, MD| 158|38.91444| -76.84935|FALSE|TRUE|TRUE|TRUE
5695295|Wyndham Garden Washington DC Area|Landover, MD| 124|38.93725| -76.91708|FALSE|FALSE|TRUE|TRUE
5695295|Conrad Washington, DC|Landover, MD| 387|38.90137| -77.02528|FALSE|FALSE|TRUE|TRUE
5695295|Econo Lodge Andrews Air Force Base|Landover, MD|  82|38.78201| -76.89081|TRUE|FALSE|FALSE|TRUE
5695295|Metro Points Hotel|Landover, MD|  90|38.95892| -76.86889|TRUE|FALSE|FALSE|TRUE
5695295|Residence Inn Largo Medical Center Drive|Landover, MD| 157|38.90744| -76.84777|FALSE|TRUE|TRUE|TRUE
5695295|Salamander Washington DC|Landover, MD| 405|38.88366| -77.03032|FALSE|FALSE|TRUE|TRUE
5695295|Days Inn by Wyndham College Park|Landover, MD|  91|39.00442| -76.93000|TRUE|FALSE|FALSE|TRUE
5695295|Comfort Inn Largo-Washington DC East|Landover, MD|  99|38.89449| -76.84227|FALSE|TRUE|FALSE|TRUE
5695297|Rodeway Inn Near Ybor City - Casino|Tampa, FL|  94|27.96992| -82.40352|TRUE|FALSE|FALSE|TRUE
5695297|Extended Stay America Suites Tampa Airport N Westshore Blvd|Tampa, FL| 108|27.95563| -82.52407|TRUE|TRUE|FALSE|TRUE
5695297|Hilton Tampa Airport Westshore|Tampa, FL| 153|27.96260| -82.51278|FALSE|TRUE|FALSE|TRUE
5695297|Holiday Inn Tampa Westshore - Airport Area, an IHG Hotel|Tampa, FL| 154|27.95161| -82.52501|FALSE|TRUE|FALSE|TRUE
5695297|Extended Stay America Suites Tampa Airport Spruce Street|Tampa, FL| 108|27.95890| -82.51729|TRUE|TRUE|FALSE|TRUE
5695297|JW Marriott Tampa Water Street|Tampa, FL| 380|27.94191| -82.45367|FALSE|FALSE|TRUE|TRUE
5695297|Suburban Studios Airport|Tampa, FL| 108|27.99615| -82.55702|TRUE|FALSE|FALSE|TRUE
5695297|The Tampa EDITION|Tampa, FL| 521|27.94369| -82.45085|FALSE|FALSE|TRUE|TRUE
5695297|Econo Lodge Busch Gardens|Tampa, FL| 111|28.03202| -82.44045|TRUE|FALSE|FALSE|TRUE
5695297|The Westshore Grand, A Tribute Portfolio Hotel, Tampa|Tampa, FL| 173|27.94355| -82.52540|FALSE|FALSE|TRUE|TRUE
5695297|Marriott Tampa Westshore|Tampa, FL| 182|27.95304| -82.52309|FALSE|TRUE|TRUE|TRUE
5695297|Extended Stay America Suites Tampa Airport Memorial Hwy|Tampa, FL| 102|28.00674| -82.59229|TRUE|FALSE|FALSE|TRUE
5695297|Hampton Inn & Suites Tampa Airport Avion Park Westshore|Tampa, FL| 182|27.95936| -82.53385|FALSE|TRUE|TRUE|TRUE
5695297|Hyatt Place Tampa Downtown|Tampa, FL| 192|27.94781| -82.45653|FALSE|FALSE|TRUE|TRUE
5695297|Tampa Airport Marriott|Tampa, FL| 283|27.98187| -82.53461|FALSE|TRUE|TRUE|TRUE
5695297|La Quinta Inn & Suites by Wyndham Tampa Fairgrounds - Casino|Tampa, FL| 107|27.98951| -82.35775|TRUE|FALSE|FALSE|TRUE
5695297|Epicurean Hotel, Autograph Collection|Tampa, FL| 466|27.93072| -82.48342|FALSE|FALSE|TRUE|TRUE
5695297|La Quinta Inn by Wyndham Tampa Bay Airport|Tampa, FL| 118|27.95908| -82.52582|FALSE|TRUE|FALSE|TRUE
5695297|Extended Stay America Suites Tampa North Airport|Tampa, FL|  97|27.99748| -82.54671|TRUE|FALSE|FALSE|TRUE
5695297|Quality Inn & Suites Near Fairgrounds Ybor City|Tampa, FL|  93|27.96827| -82.40370|TRUE|FALSE|FALSE|TRUE
5695297|Hotel Tampa Riverwalk|Tampa, FL| 174|27.94467| -82.45879|FALSE|FALSE|TRUE|TRUE
5695297|Econo Lodge Airport at RJ Stadium|Tampa, FL|  75|27.97587| -82.50333|TRUE|TRUE|FALSE|TRUE
5695297|Ramada by Wyndham Tampa Airport Westshore|Tampa, FL| 134|27.95393| -82.52474|FALSE|TRUE|FALSE|TRUE
5695297|Seminole Hard Rock Hotel & Casino Tampa|Tampa, FL| 544|27.99338| -82.37198|FALSE|FALSE|TRUE|TRUE
5695311|The Westshore Grand, A Tribute Portfolio Hotel, Tampa|Tampa, FL| 173|27.94355| -82.52540|FALSE|FALSE|TRUE|TRUE
5695311|Extended Stay America Suites Tampa Airport Spruce Street|Tampa, FL| 108|27.95890| -82.51729|TRUE|TRUE|FALSE|TRUE
5695311|Extended Stay America Suites Tampa North Airport|Tampa, FL|  97|27.99748| -82.54671|TRUE|FALSE|FALSE|TRUE
5695311|Holiday Inn Tampa Westshore - Airport Area, an IHG Hotel|Tampa, FL| 154|27.95161| -82.52501|FALSE|TRUE|FALSE|TRUE
5695311|Extended Stay America Suites Tampa Airport N Westshore Blvd|Tampa, FL| 108|27.95563| -82.52407|TRUE|TRUE|FALSE|TRUE
5695311|Hyatt Place Tampa Downtown|Tampa, FL| 192|27.94781| -82.45653|FALSE|FALSE|TRUE|TRUE
5695311|Hampton Inn & Suites Tampa Airport Avion Park Westshore|Tampa, FL| 182|27.95936| -82.53385|FALSE|TRUE|TRUE|TRUE
5695311|La Quinta Inn & Suites by Wyndham Tampa Fairgrounds - Casino|Tampa, FL| 107|27.98951| -82.35775|TRUE|FALSE|FALSE|TRUE
5695311|Ramada by Wyndham Tampa Airport Westshore|Tampa, FL| 134|27.95393| -82.52474|FALSE|TRUE|FALSE|TRUE
5695311|Rodeway Inn Near Ybor City - Casino|Tampa, FL|  94|27.96992| -82.40352|TRUE|FALSE|FALSE|TRUE
5695311|Extended Stay America Suites Tampa Airport Memorial Hwy|Tampa, FL| 102|28.00674| -82.59229|TRUE|FALSE|FALSE|TRUE
5695311|La Quinta Inn by Wyndham Tampa Bay Airport|Tampa, FL| 118|27.95908| -82.52582|FALSE|TRUE|FALSE|TRUE
5695311|Quality Inn & Suites Near Fairgrounds Ybor City|Tampa, FL|  93|27.96827| -82.40370|TRUE|FALSE|FALSE|TRUE
5695311|Epicurean Hotel, Autograph Collection|Tampa, FL| 466|27.93072| -82.48342|FALSE|FALSE|TRUE|TRUE
5695311|Suburban Studios Airport|Tampa, FL| 108|27.99615| -82.55702|TRUE|FALSE|FALSE|TRUE
5695311|Hilton Tampa Airport Westshore|Tampa, FL| 153|27.96260| -82.51278|FALSE|TRUE|FALSE|TRUE
5695311|Seminole Hard Rock Hotel & Casino Tampa|Tampa, FL| 544|27.99338| -82.37198|FALSE|FALSE|TRUE|TRUE
5695311|Tampa Airport Marriott|Tampa, FL| 283|27.98187| -82.53461|FALSE|TRUE|TRUE|TRUE
5695311|Marriott Tampa Westshore|Tampa, FL| 182|27.95304| -82.52309|FALSE|TRUE|TRUE|TRUE
5695311|The Tampa EDITION|Tampa, FL| 521|27.94369| -82.45085|FALSE|FALSE|TRUE|TRUE
5695311|Econo Lodge Busch Gardens|Tampa, FL| 111|28.03202| -82.44045|TRUE|FALSE|FALSE|TRUE
5695311|Econo Lodge Airport at RJ Stadium|Tampa, FL|  75|27.97587| -82.50333|TRUE|TRUE|FALSE|TRUE
5695311|Hotel Tampa Riverwalk|Tampa, FL| 174|27.94467| -82.45879|FALSE|FALSE|TRUE|TRUE
5695311|JW Marriott Tampa Water Street|Tampa, FL| 380|27.94191| -82.45367|FALSE|FALSE|TRUE|TRUE
5695313|Comfort Suites Hobby Airport|Houston, TX|  81|29.65130| -95.25535|TRUE|FALSE|FALSE|TRUE
5695313|The Post Oak Hotel at Uptown Houston|Houston, TX| 600|29.75218| -95.45701|FALSE|FALSE|TRUE|TRUE
5695313|Courtyard by Marriott Houston Medical Center/NRG Park|Houston, TX| 126|29.69663| -95.41361|FALSE|TRUE|TRUE|TRUE
5695313|InterContinental Houston Medical Center, an IHG Hotel|Houston, TX| 172|29.70753| -95.40466|FALSE|TRUE|TRUE|TRUE
5695313|Wingate Houston near NRG Park/Medical Center|Houston, TX| 123|29.68090| -95.41281|FALSE|TRUE|TRUE|TRUE
5695313|Summit Inn|Houston, TX|  76|29.70020| -95.37769|TRUE|FALSE|FALSE|TRUE
5695313|Blossom Hotel Houston|Houston, TX| 193|29.69952| -95.39943|FALSE|TRUE|TRUE|TRUE
5695313|SureStay Plus Hotel by Best Western Houston Medical Center|Houston, TX|  95|29.70827| -95.40412|FALSE|TRUE|FALSE|TRUE
5695313|Howard Johnson by Wyndham Houston|Houston, TX|  57|29.77823| -95.40776|TRUE|FALSE|FALSE|TRUE
5695313|Express Inn Hobby|Houston, TX|  64|29.65164| -95.25715|TRUE|FALSE|FALSE|TRUE
5695313|Days Inn & Suites by Wyndham Downtown/University of Houston|Houston, TX|  66|29.71069| -95.31080|TRUE|FALSE|FALSE|TRUE
5695313|La Colombe d'Or Hotel|Houston, TX| 461|29.74164| -95.39162|FALSE|FALSE|TRUE|TRUE
5695313|Travelodge by Wyndham Houston Hobby Airport|Houston, TX|  55|29.65237| -95.26050|TRUE|FALSE|FALSE|TRUE
5695313|The Westin Houston Medical Center|Houston, TX| 196|29.70970| -95.40158|FALSE|FALSE|TRUE|TRUE
5695313|Romana Hotel|Houston, TX|  59|29.71082| -95.50405|TRUE|FALSE|FALSE|TRUE
5695313|Extended Stay America Suites Houston Med Ctr Braeswood Bl|Houston, TX|  89|29.70196| -95.40047|TRUE|TRUE|FALSE|TRUE
5695313|Comfort Suites near Texas Medical Center - NRG Stadium|Houston, TX| 115|29.68975| -95.41665|FALSE|TRUE|FALSE|TRUE
5695313|Hilton Garden Inn Houston Medical Center, TX|Houston, TX| 123|29.70455| -95.38559|FALSE|FALSE|TRUE|TRUE
5695313|Extended Stay America Suites Houston Med Ctr Greenway Plaza|Houston, TX|  83|29.73165| -95.41454|TRUE|FALSE|FALSE|TRUE
5695313|Hampton Inn & Suites Houston Medical Center NRG Park|Houston, TX| 123|29.69593| -95.40283|FALSE|TRUE|TRUE|TRUE
5695313|Holiday Inn Express Houston - Galleria Area, an IHG Hotel|Houston, TX| 119|29.74278| -95.45675|FALSE|FALSE|TRUE|TRUE
5695313|Extended Stay America Suites Houston Med Ctr NRG Park Kirby|Houston, TX|  94|29.69120| -95.41169|FALSE|TRUE|FALSE|TRUE
5695313|America's Inn Sugarland Stafford|Houston, TX|  61|29.66489| -95.55532|TRUE|FALSE|FALSE|TRUE
5695313|Candlewood Suites Houston Medical Center, an IHG Hotel|Houston, TX|  93|29.67581| -95.42636|FALSE|TRUE|FALSE|TRUE
5695329|Days Inn & Suites by Wyndham Downtown/University of Houston|Houston, TX|  66|29.71069| -95.31080|TRUE|FALSE|FALSE|TRUE
5695329|InterContinental Houston Medical Center, an IHG Hotel|Houston, TX| 172|29.70753| -95.40466|FALSE|TRUE|TRUE|TRUE
5695329|Romana Hotel|Houston, TX|  59|29.71082| -95.50405|TRUE|FALSE|FALSE|TRUE
5695329|The Post Oak Hotel at Uptown Houston|Houston, TX| 600|29.75218| -95.45701|FALSE|FALSE|TRUE|TRUE
5695329|Holiday Inn Express Houston - Galleria Area, an IHG Hotel|Houston, TX| 119|29.74278| -95.45675|FALSE|FALSE|TRUE|TRUE
5695329|Comfort Suites Hobby Airport|Houston, TX|  81|29.65130| -95.25535|TRUE|FALSE|FALSE|TRUE
5695329|America's Inn Sugarland Stafford|Houston, TX|  61|29.66489| -95.55532|TRUE|FALSE|FALSE|TRUE
5695329|Howard Johnson by Wyndham Houston|Houston, TX|  57|29.77823| -95.40776|TRUE|FALSE|FALSE|TRUE
5695329|Extended Stay America Suites Houston Med Ctr NRG Park Kirby|Houston, TX|  94|29.69120| -95.41169|FALSE|TRUE|FALSE|TRUE
5695329|Travelodge by Wyndham Houston Hobby Airport|Houston, TX|  55|29.65237| -95.26050|TRUE|FALSE|FALSE|TRUE
5695329|Wingate Houston near NRG Park/Medical Center|Houston, TX| 123|29.68090| -95.41281|FALSE|TRUE|TRUE|TRUE
5695329|La Colombe d'Or Hotel|Houston, TX| 461|29.74164| -95.39162|FALSE|FALSE|TRUE|TRUE
5695329|Candlewood Suites Houston Medical Center, an IHG Hotel|Houston, TX|  93|29.67581| -95.42636|FALSE|TRUE|FALSE|TRUE
5695329|Courtyard by Marriott Houston Medical Center/NRG Park|Houston, TX| 126|29.69663| -95.41361|FALSE|TRUE|TRUE|TRUE
5695329|Blossom Hotel Houston|Houston, TX| 193|29.69952| -95.39943|FALSE|TRUE|TRUE|TRUE
5695329|Express Inn Hobby|Houston, TX|  64|29.65164| -95.25715|TRUE|FALSE|FALSE|TRUE
5695329|The Westin Houston Medical Center|Houston, TX| 196|29.70970| -95.40158|FALSE|FALSE|TRUE|TRUE
5695329|SureStay Plus Hotel by Best Western Houston Medical Center|Houston, TX|  95|29.70827| -95.40412|FALSE|TRUE|FALSE|TRUE
5695329|Comfort Suites near Texas Medical Center - NRG Stadium|Houston, TX| 115|29.68975| -95.41665|FALSE|TRUE|FALSE|TRUE
5695329|Summit Inn|Houston, TX|  76|29.70020| -95.37769|TRUE|FALSE|FALSE|TRUE
5695329|Extended Stay America Suites Houston Med Ctr Greenway Plaza|Houston, TX|  83|29.73165| -95.41454|TRUE|FALSE|FALSE|TRUE
5695329|Hampton Inn & Suites Houston Medical Center NRG Park|Houston, TX| 123|29.69593| -95.40283|FALSE|TRUE|TRUE|TRUE
5695329|Extended Stay America Suites Houston Med Ctr Braeswood Bl|Houston, TX|  89|29.70196| -95.40047|TRUE|TRUE|FALSE|TRUE
5695329|Hilton Garden Inn Houston Medical Center, TX|Houston, TX| 123|29.70455| -95.38559|FALSE|FALSE|TRUE|TRUE
5695331|Clarion Hotel Philadelphia International Airport|Philadelphia, PA| 110|39.86626| -75.31162|TRUE|FALSE|FALSE|TRUE
5695331|Travelodge by Wyndham Bellmawr|Philadelphia, PA|  86|39.86208| -75.07705|TRUE|FALSE|FALSE|TRUE
5695331|The Rittenhouse Philadelphia|Philadelphia, PA| 558|39.94966| -75.16482|FALSE|TRUE|TRUE|TRUE
5695331|DoubleTree by Hilton Philadelphia Center City|Philadelphia, PA| 168|39.94792| -75.16413|FALSE|TRUE|FALSE|TRUE
5695331|Warwick Hotel Rittenhouse Square|Philadelphia, PA| 170|39.94917| -75.16954|FALSE|TRUE|FALSE|TRUE
5695331|Parkway Inn|Philadelphia, PA|  70|39.91875| -75.32845|TRUE|FALSE|FALSE|TRUE
5695331|Club Quarters Hotel Rittenhouse Square, Philadelphia|Philadelphia, PA| 155|39.95122| -75.16840|FALSE|TRUE|FALSE|TRUE
5695331|Days Inn by Wyndham Springfield/Phil.Intl Airport|Philadelphia, PA|  95|39.91948| -75.32802|TRUE|FALSE|FALSE|TRUE
5695331|Days Inn by Wyndham Philadelphia - Roosevelt Boulevard|Philadelphia, PA| 109|40.02974| -75.10607|TRUE|FALSE|FALSE|TRUE
5695331|Red Carpet Inn Philadelphia Airport|Philadelphia, PA|  76|39.87242| -75.28119|TRUE|FALSE|FALSE|TRUE
5695331|Guild House Hotel|Philadelphia, PA| 424|39.94819| -75.16268|FALSE|TRUE|TRUE|TRUE
5695331|Wyndham Garden Philadelphia Airport|Philadelphia, PA| 101|39.86764| -75.30377|TRUE|FALSE|FALSE|TRUE
5695331|BnB Philadelphia - Boutique Hotel|Philadelphia, PA| 621|39.97993| -75.12262|FALSE|FALSE|TRUE|TRUE
5695331|W Philadelphia|Philadelphia, PA| 219|39.95124| -75.16490|FALSE|TRUE|TRUE|TRUE
5695331|Lokal Hotel - Old City|Philadelphia, PA| 372|39.95328| -75.14486|FALSE|FALSE|TRUE|TRUE
5695331|Red Roof Inn PLUS+ Philadelphia Airport|Philadelphia, PA|  92|39.86820| -75.30609|TRUE|FALSE|FALSE|TRUE
5695331|Extended Stay America Suites Philadelphia Cherry Hill|Philadelphia, PA| 103|39.88385| -75.24823|TRUE|FALSE|FALSE|TRUE
5695331|Days Inn by Wyndham Runnemede Philadelphia Area|Philadelphia, PA|  90|39.85779| -75.07254|TRUE|FALSE|FALSE|TRUE
5695331|The Ritz-Carlton, Philadelphia|Philadelphia, PA| 419|39.95128| -75.16427|FALSE|TRUE|TRUE|TRUE
5695331|Sofitel Philadelphia at Rittenhouse Square|Philadelphia, PA| 196|39.95085| -75.16911|FALSE|TRUE|FALSE|TRUE
5695331|Wm. Mulherin's Sons Hotel|Philadelphia, PA| 375|39.97171| -75.13506|FALSE|FALSE|TRUE|TRUE
5695331|Fitler Club|Philadelphia, PA| 384|39.95349| -75.17914|FALSE|FALSE|TRUE|TRUE
5695331|Radisson Hotel Philadelphia, PA|Philadelphia, PA| 124|39.94917| -75.16954|FALSE|TRUE|FALSE|TRUE
5695331|Courtyard Philadelphia South at The Navy Yard|Philadelphia, PA| 210|39.89545| -75.17173|FALSE|TRUE|TRUE|TRUE
5695331|Four Seasons Hotel Philadelphia at Comcast Center|Philadelphia, PA| 809|39.95509| -75.17090|FALSE|FALSE|TRUE|TRUE
5695333|Wyndham Garden Philadelphia Airport|Philadelphia, PA| 101|39.86764| -75.30377|TRUE|FALSE|FALSE|TRUE
5695333|W Philadelphia|Philadelphia, PA| 219|39.95124| -75.16490|FALSE|TRUE|TRUE|TRUE
5695333|Four Seasons Hotel Philadelphia at Comcast Center|Philadelphia, PA| 809|39.95509| -75.17090|FALSE|FALSE|TRUE|TRUE
5695333|Sofitel Philadelphia at Rittenhouse Square|Philadelphia, PA| 196|39.95085| -75.16911|FALSE|TRUE|FALSE|TRUE
5695333|The Ritz-Carlton, Philadelphia|Philadelphia, PA| 419|39.95128| -75.16427|FALSE|TRUE|TRUE|TRUE
5695333|Days Inn by Wyndham Philadelphia - Roosevelt Boulevard|Philadelphia, PA| 109|40.02974| -75.10607|TRUE|FALSE|FALSE|TRUE
5695333|Clarion Hotel Philadelphia International Airport|Philadelphia, PA| 110|39.86626| -75.31162|TRUE|FALSE|FALSE|TRUE
5695333|Guild House Hotel|Philadelphia, PA| 424|39.94819| -75.16268|FALSE|TRUE|TRUE|TRUE
5695333|Red Roof Inn PLUS+ Philadelphia Airport|Philadelphia, PA|  92|39.86820| -75.30609|TRUE|FALSE|FALSE|TRUE
5695333|DoubleTree by Hilton Philadelphia Center City|Philadelphia, PA| 168|39.94792| -75.16413|FALSE|TRUE|FALSE|TRUE
5695333|Travelodge by Wyndham Bellmawr|Philadelphia, PA|  86|39.86208| -75.07705|TRUE|FALSE|FALSE|TRUE
5695333|Parkway Inn|Philadelphia, PA|  70|39.91875| -75.32845|TRUE|FALSE|FALSE|TRUE
5695333|Days Inn by Wyndham Runnemede Philadelphia Area|Philadelphia, PA|  90|39.85779| -75.07254|TRUE|FALSE|FALSE|TRUE
5695333|Red Carpet Inn Philadelphia Airport|Philadelphia, PA|  76|39.87242| -75.28119|TRUE|FALSE|FALSE|TRUE
5695333|Fitler Club|Philadelphia, PA| 384|39.95349| -75.17914|FALSE|FALSE|TRUE|TRUE
5695333|Lokal Hotel - Old City|Philadelphia, PA| 372|39.95328| -75.14486|FALSE|FALSE|TRUE|TRUE
5695333|Club Quarters Hotel Rittenhouse Square, Philadelphia|Philadelphia, PA| 155|39.95122| -75.16840|FALSE|TRUE|FALSE|TRUE
5695333|The Rittenhouse Philadelphia|Philadelphia, PA| 558|39.94966| -75.16482|FALSE|TRUE|TRUE|TRUE
5695333|BnB Philadelphia - Boutique Hotel|Philadelphia, PA| 621|39.97993| -75.12262|FALSE|FALSE|TRUE|TRUE
5695333|Courtyard Philadelphia South at The Navy Yard|Philadelphia, PA| 210|39.89545| -75.17173|FALSE|TRUE|TRUE|TRUE
5695333|Radisson Hotel Philadelphia, PA|Philadelphia, PA| 124|39.94917| -75.16954|FALSE|TRUE|FALSE|TRUE
5695333|Days Inn by Wyndham Springfield/Phil.Intl Airport|Philadelphia, PA|  95|39.91948| -75.32802|TRUE|FALSE|FALSE|TRUE
5695333|Warwick Hotel Rittenhouse Square|Philadelphia, PA| 170|39.94917| -75.16954|FALSE|TRUE|FALSE|TRUE
5695333|Extended Stay America Suites Philadelphia Cherry Hill|Philadelphia, PA| 103|39.88385| -75.24823|TRUE|FALSE|FALSE|TRUE
5695333|Wm. Mulherin's Sons Hotel|Philadelphia, PA| 375|39.97171| -75.13506|FALSE|FALSE|TRUE|TRUE
5695349|Travelodge by Wyndham Seattle By The Space Needle|Seattle, WA|  92|47.62041|-122.34467|TRUE|FALSE|FALSE|TRUE
5695349|Extended Stay America Suites Seattle Tukwila|Seattle, WA| 114|47.47484|-122.27262|TRUE|FALSE|FALSE|TRUE
5695349|W Seattle|Seattle, WA| 190|47.57093|-122.38652|FALSE|FALSE|TRUE|TRUE
5695349|Crowne Plaza Seattle - Downtown, an IHG Hotel|Seattle, WA| 168|47.60821|-122.33211|FALSE|TRUE|FALSE|TRUE
5695349|Hotel Hotel Hostel|Seattle, WA|  96|47.65120|-122.35013|TRUE|FALSE|FALSE|TRUE
5695349|citizenM Seattle Pioneer Square|Seattle, WA| 131|47.60196|-122.33582|FALSE|TRUE|FALSE|TRUE
5695349|Sheraton Grand Seattle|Seattle, WA| 180|47.61083|-122.33400|FALSE|FALSE|TRUE|TRUE
5695349|Motif Seattle, a Destination by Hyatt Hotel|Seattle, WA| 188|47.61000|-122.33557|FALSE|FALSE|TRUE|TRUE
5695349|Extended Stay America Suites Seattle Bellevue Factoria|Seattle, WA| 109|47.63458|-122.13137|TRUE|FALSE|FALSE|TRUE
5695349|College Inn Hotel|Seattle, WA| 113|47.65545|-122.31301|TRUE|FALSE|FALSE|TRUE
5695349|Embassy Suites by Hilton Seattle Downtown Pioneer Square|Seattle, WA| 229|47.59808|-122.33093|FALSE|TRUE|TRUE|TRUE
5695349|Lotte Hotel Seattle|Seattle, WA| 405|47.60525|-122.33084|FALSE|TRUE|TRUE|TRUE
5695349|Hyatt Regency Seattle|Seattle, WA| 186|47.61482|-122.33458|FALSE|FALSE|TRUE|TRUE
5695349|Ramada by Wyndham Seatac Airport North|Seattle, WA|  82|47.47926|-122.28351|TRUE|FALSE|FALSE|TRUE
5695349|Quality Inn Bellevue|Seattle, WA| 103|47.58134|-122.13688|TRUE|FALSE|FALSE|TRUE
5695349|Super 8 by Wyndham SeaTac Airport|Seattle, WA| 104|47.45934|-122.28822|TRUE|FALSE|FALSE|TRUE
5695349|Bellevue Club Hotel|Seattle, WA| 393|47.60535|-122.18956|FALSE|FALSE|TRUE|TRUE
5695349|Ramada by Wyndham SeaTac Airport|Seattle, WA|  92|47.45269|-122.29469|TRUE|FALSE|FALSE|TRUE
5695349|Ramada by Wyndham SeaTac Airport North|Seattle, WA|  77|47.47926|-122.28351|TRUE|FALSE|FALSE|TRUE
5695349|Extended Stay America Suites Seattle Redmond|Seattle, WA| 114|47.63458|-122.13137|TRUE|FALSE|FALSE|TRUE
5695349|Renaissance Seattle Hotel|Seattle, WA| 176|47.60667|-122.33068|FALSE|TRUE|FALSE|TRUE
5695349|The Westin Seattle|Seattle, WA| 180|47.61369|-122.33827|FALSE|FALSE|TRUE|TRUE
5695349|Four Seasons Hotel Seattle|Seattle, WA| 791|47.60738|-122.33916|FALSE|TRUE|TRUE|TRUE
5695349|The Alexis Royal Sonesta Hotel Seattle|Seattle, WA| 202|47.60477|-122.33690|FALSE|TRUE|TRUE|TRUE
5695349|Courtyard Seattle Downtown Pioneer Square|Seattle, WA| 180|47.60289|-122.33277|FALSE|TRUE|TRUE|TRUE
5695349|Executive Hotel Pacific|Seattle, WA| 125|47.60702|-122.33344|FALSE|TRUE|FALSE|TRUE
5695349|Fairmont Olympic Hotel|Seattle, WA| 338|47.60806|-122.33393|FALSE|TRUE|TRUE|TRUE
5695351|Sheraton Grand Seattle|Seattle, WA| 180|47.61083|-122.33400|FALSE|FALSE|TRUE|TRUE
5695351|Fairmont Olympic Hotel|Seattle, WA| 338|47.60806|-122.33393|FALSE|TRUE|TRUE|TRUE
5695351|Extended Stay America Suites Seattle Bellevue Factoria|Seattle, WA| 109|47.63458|-122.13137|TRUE|FALSE|FALSE|TRUE
5695351|Quality Inn Bellevue|Seattle, WA| 103|47.58134|-122.13688|TRUE|FALSE|FALSE|TRUE
5695351|Four Seasons Hotel Seattle|Seattle, WA| 791|47.60738|-122.33916|FALSE|TRUE|TRUE|TRUE
5695351|Motif Seattle, a Destination by Hyatt Hotel|Seattle, WA| 188|47.61000|-122.33557|FALSE|FALSE|TRUE|TRUE
5695351|citizenM Seattle Pioneer Square|Seattle, WA| 131|47.60196|-122.33582|FALSE|TRUE|FALSE|TRUE
5695351|W Seattle|Seattle, WA| 190|47.57093|-122.38652|FALSE|FALSE|TRUE|TRUE
5695351|Hyatt Regency Seattle|Seattle, WA| 186|47.61482|-122.33458|FALSE|FALSE|TRUE|TRUE
5695351|The Alexis Royal Sonesta Hotel Seattle|Seattle, WA| 202|47.60477|-122.33690|FALSE|TRUE|TRUE|TRUE
5695351|Executive Hotel Pacific|Seattle, WA| 125|47.60702|-122.33344|FALSE|TRUE|FALSE|TRUE
5695351|Extended Stay America Suites Seattle Tukwila|Seattle, WA| 114|47.47484|-122.27262|TRUE|FALSE|FALSE|TRUE
5695351|Crowne Plaza Seattle - Downtown, an IHG Hotel|Seattle, WA| 168|47.60821|-122.33211|FALSE|TRUE|FALSE|TRUE
5695351|Hotel Hotel Hostel|Seattle, WA|  96|47.65120|-122.35013|TRUE|FALSE|FALSE|TRUE
5695351|Super 8 by Wyndham SeaTac Airport|Seattle, WA| 104|47.45934|-122.28822|TRUE|FALSE|FALSE|TRUE
5695351|Bellevue Club Hotel|Seattle, WA| 393|47.60535|-122.18956|FALSE|FALSE|TRUE|TRUE
5695351|Ramada by Wyndham SeaTac Airport North|Seattle, WA|  77|47.47926|-122.28351|TRUE|FALSE|FALSE|TRUE
5695351|College Inn Hotel|Seattle, WA| 113|47.65545|-122.31301|TRUE|FALSE|FALSE|TRUE
5695351|The Westin Seattle|Seattle, WA| 180|47.61369|-122.33827|FALSE|FALSE|TRUE|TRUE
5695351|Embassy Suites by Hilton Seattle Downtown Pioneer Square|Seattle, WA| 229|47.59808|-122.33093|FALSE|TRUE|TRUE|TRUE
5695351|Ramada by Wyndham Seatac Airport North|Seattle, WA|  82|47.47926|-122.28351|TRUE|FALSE|FALSE|TRUE
5695351|Ramada by Wyndham SeaTac Airport|Seattle, WA|  92|47.45269|-122.29469|TRUE|FALSE|FALSE|TRUE
5695351|Travelodge by Wyndham Seattle By The Space Needle|Seattle, WA|  92|47.62041|-122.34467|TRUE|FALSE|FALSE|TRUE
5695351|Extended Stay America Suites Seattle Redmond|Seattle, WA| 114|47.63458|-122.13137|TRUE|FALSE|FALSE|TRUE
5695351|Lotte Hotel Seattle|Seattle, WA| 405|47.60525|-122.33084|FALSE|TRUE|TRUE|TRUE
5695351|Courtyard Seattle Downtown Pioneer Square|Seattle, WA| 180|47.60289|-122.33277|FALSE|TRUE|TRUE|TRUE
5695351|Renaissance Seattle Hotel|Seattle, WA| 176|47.60667|-122.33068|FALSE|TRUE|FALSE|TRUE
5695368|El Cortez Hotel and Casino - 21 and Over|Las Vegas, NV|  73|36.16943|-115.13873|TRUE|FALSE|FALSE|TRUE
5695368|Secret Suites at Vdara|Las Vegas, NV|1766|36.10928|-115.17776|FALSE|TRUE|TRUE|TRUE
5695368|Oasis at Gold Spike - Adults Only|Las Vegas, NV|  60|36.17095|-115.13982|TRUE|FALSE|FALSE|TRUE
5695368|OYO Hotel and Casino Las Vegas|Las Vegas, NV|  82|36.10039|-115.16772|FALSE|TRUE|FALSE|TRUE
5695368|Alexis Park All Suite Resort|Las Vegas, NV| 125|36.10762|-115.15554|FALSE|TRUE|FALSE|TRUE
5695368|Fairfield Inn and Suites by Marriott Las Vegas South|Las Vegas, NV| 144|36.08451|-115.18330|FALSE|TRUE|TRUE|TRUE
5695368|Thunderbird Hotel|Las Vegas, NV|  59|36.15581|-115.14903|TRUE|FALSE|FALSE|TRUE
5695368|Longhorn Casino & Hotel|Las Vegas, NV|  76|36.10704|-115.05916|TRUE|FALSE|FALSE|TRUE
5695368|Courtyard by Marriott Las Vegas South|Las Vegas, NV| 124|36.08382|-115.18304|FALSE|TRUE|FALSE|TRUE
5695368|Mardi Gras Hotel & Casino|Las Vegas, NV|  73|36.12549|-115.15446|TRUE|FALSE|FALSE|TRUE
5695368|The Venetian Prestige Club Lounge|Las Vegas, NV| 685|36.12117|-115.16965|FALSE|FALSE|TRUE|TRUE
5695368|Bellagio|Las Vegas, NV| 957|36.11311|-115.17701|FALSE|TRUE|TRUE|TRUE
5695368|Howard Johnson by Wyndham Las Vegas near the Strip|Las Vegas, NV|  76|36.09948|-115.16580|TRUE|TRUE|FALSE|TRUE
5695368|Arizona Charlie's Boulder|Las Vegas, NV|  69|36.12406|-115.07554|TRUE|FALSE|FALSE|TRUE
5695368|Conrad Las Vegas at Resorts World|Las Vegas, NV| 186|36.13448|-115.16566|FALSE|FALSE|TRUE|TRUE
5695368|Silver Sevens Hotel & Casino|Las Vegas, NV|  73|36.11376|-115.15265|TRUE|FALSE|FALSE|TRUE
5695368|Las Vegas Hilton at Resorts World|Las Vegas, NV| 163|36.13516|-115.16667|FALSE|FALSE|TRUE|TRUE
5695368|Nobu Hotel at Caesars Palace|Las Vegas, NV| 618|36.11671|-115.17519|FALSE|TRUE|TRUE|TRUE
5695368|Four Queens Hotel and Casino|Las Vegas, NV|  67|36.16987|-115.14371|TRUE|FALSE|FALSE|TRUE
5695368|Westgate Las Vegas Resort & Casino|Las Vegas, NV| 147|36.13529|-115.15246|FALSE|FALSE|TRUE|TRUE
5695368|Virgin Hotels Las Vegas, Curio Collection by Hilton|Las Vegas, NV| 157|36.10877|-115.15373|FALSE|FALSE|TRUE|TRUE
5695368|Hotel Apache|Las Vegas, NV|  55|36.17113|-115.14408|TRUE|FALSE|FALSE|TRUE
5695368|Palms Casino Resort|Las Vegas, NV| 194|36.11444|-115.19482|FALSE|TRUE|TRUE|TRUE
5695368|Hampton Inn Tropicana|Las Vegas, NV| 125|36.09967|-115.18338|FALSE|TRUE|FALSE|TRUE
5695373|College Inn Hotel|Seattle, WA| 113|47.65545|-122.31301|TRUE|FALSE|FALSE|TRUE
5695373|Courtyard Seattle Downtown Pioneer Square|Seattle, WA| 180|47.60289|-122.33277|FALSE|TRUE|TRUE|TRUE
5695373|Quality Inn Bellevue|Seattle, WA| 103|47.58134|-122.13688|TRUE|FALSE|FALSE|TRUE
5695373|W Seattle|Seattle, WA| 190|47.57093|-122.38652|FALSE|FALSE|TRUE|TRUE
5695373|Travelodge by Wyndham Seattle By The Space Needle|Seattle, WA|  92|47.62041|-122.34467|TRUE|FALSE|FALSE|TRUE
5695373|The Alexis Royal Sonesta Hotel Seattle|Seattle, WA| 202|47.60477|-122.33690|FALSE|TRUE|TRUE|TRUE
5695373|The Westin Seattle|Seattle, WA| 180|47.61369|-122.33827|FALSE|FALSE|TRUE|TRUE
5695373|Sheraton Grand Seattle|Seattle, WA| 180|47.61083|-122.33400|FALSE|FALSE|TRUE|TRUE
5695373|Bellevue Club Hotel|Seattle, WA| 393|47.60535|-122.18956|FALSE|FALSE|TRUE|TRUE
5695373|Ramada by Wyndham Seatac Airport North|Seattle, WA|  82|47.47926|-122.28351|TRUE|FALSE|FALSE|TRUE
5695373|Renaissance Seattle Hotel|Seattle, WA| 176|47.60667|-122.33068|FALSE|TRUE|FALSE|TRUE
5695373|Ramada by Wyndham SeaTac Airport|Seattle, WA|  92|47.45269|-122.29469|TRUE|FALSE|FALSE|TRUE
5695373|Hyatt Regency Seattle|Seattle, WA| 186|47.61482|-122.33458|FALSE|FALSE|TRUE|TRUE
5695373|Lotte Hotel Seattle|Seattle, WA| 405|47.60525|-122.33084|FALSE|TRUE|TRUE|TRUE
5695373|Extended Stay America Suites Seattle Redmond|Seattle, WA| 114|47.63458|-122.13137|TRUE|FALSE|FALSE|TRUE
5695373|Super 8 by Wyndham SeaTac Airport|Seattle, WA| 104|47.45934|-122.28822|TRUE|FALSE|FALSE|TRUE
5695373|Fairmont Olympic Hotel|Seattle, WA| 338|47.60806|-122.33393|FALSE|TRUE|TRUE|TRUE
5695373|citizenM Seattle Pioneer Square|Seattle, WA| 131|47.60196|-122.33582|FALSE|TRUE|FALSE|TRUE
5695373|Ramada by Wyndham SeaTac Airport North|Seattle, WA|  77|47.47926|-122.28351|TRUE|FALSE|FALSE|TRUE
5695373|Executive Hotel Pacific|Seattle, WA| 125|47.60702|-122.33344|FALSE|TRUE|FALSE|TRUE
5695373|Motif Seattle, a Destination by Hyatt Hotel|Seattle, WA| 188|47.61000|-122.33557|FALSE|FALSE|TRUE|TRUE
5695373|Crowne Plaza Seattle - Downtown, an IHG Hotel|Seattle, WA| 168|47.60821|-122.33211|FALSE|TRUE|FALSE|TRUE
5695373|Extended Stay America Suites Seattle Bellevue Factoria|Seattle, WA| 109|47.63458|-122.13137|TRUE|FALSE|FALSE|TRUE
5695373|Four Seasons Hotel Seattle|Seattle, WA| 791|47.60738|-122.33916|FALSE|TRUE|TRUE|TRUE
5695373|Extended Stay America Suites Seattle Tukwila|Seattle, WA| 114|47.47484|-122.27262|TRUE|FALSE|FALSE|TRUE
5695373|Embassy Suites by Hilton Seattle Downtown Pioneer Square|Seattle, WA| 229|47.59808|-122.33093|FALSE|TRUE|TRUE|TRUE
5695373|Hotel Hotel Hostel|Seattle, WA|  96|47.65120|-122.35013|TRUE|FALSE|FALSE|TRUE
5695382|OYO Hotel and Casino Las Vegas|Las Vegas, NV|  82|36.10039|-115.16772|FALSE|TRUE|FALSE|TRUE
5695382|Westgate Las Vegas Resort & Casino|Las Vegas, NV| 147|36.13529|-115.15246|FALSE|FALSE|TRUE|TRUE
5695382|Arizona Charlie's Boulder|Las Vegas, NV|  69|36.12406|-115.07554|TRUE|FALSE|FALSE|TRUE
5695382|Oasis at Gold Spike - Adults Only|Las Vegas, NV|  60|36.17095|-115.13982|TRUE|FALSE|FALSE|TRUE
5695382|Thunderbird Hotel|Las Vegas, NV|  59|36.15581|-115.14903|TRUE|FALSE|FALSE|TRUE
5695382|Alexis Park All Suite Resort|Las Vegas, NV| 125|36.10762|-115.15554|FALSE|TRUE|FALSE|TRUE
5695382|Howard Johnson by Wyndham Las Vegas near the Strip|Las Vegas, NV|  76|36.09948|-115.16580|TRUE|TRUE|FALSE|TRUE
5695382|Las Vegas Hilton at Resorts World|Las Vegas, NV| 163|36.13516|-115.16667|FALSE|FALSE|TRUE|TRUE
5695382|Courtyard by Marriott Las Vegas South|Las Vegas, NV| 124|36.08382|-115.18304|FALSE|TRUE|FALSE|TRUE
5695382|Silver Sevens Hotel & Casino|Las Vegas, NV|  73|36.11376|-115.15265|TRUE|FALSE|FALSE|TRUE
5695382|Mardi Gras Hotel & Casino|Las Vegas, NV|  73|36.12549|-115.15446|TRUE|FALSE|FALSE|TRUE
5695382|Longhorn Casino & Hotel|Las Vegas, NV|  76|36.10704|-115.05916|TRUE|FALSE|FALSE|TRUE
5695382|Palms Casino Resort|Las Vegas, NV| 194|36.11444|-115.19482|FALSE|TRUE|TRUE|TRUE
5695382|The Venetian Prestige Club Lounge|Las Vegas, NV| 685|36.12117|-115.16965|FALSE|FALSE|TRUE|TRUE
5695382|Conrad Las Vegas at Resorts World|Las Vegas, NV| 186|36.13448|-115.16566|FALSE|FALSE|TRUE|TRUE
5695382|El Cortez Hotel and Casino - 21 and Over|Las Vegas, NV|  73|36.16943|-115.13873|TRUE|FALSE|FALSE|TRUE
5695382|Hampton Inn Tropicana|Las Vegas, NV| 125|36.09967|-115.18338|FALSE|TRUE|FALSE|TRUE
5695382|Bellagio|Las Vegas, NV| 957|36.11311|-115.17701|FALSE|TRUE|TRUE|TRUE
5695382|Four Queens Hotel and Casino|Las Vegas, NV|  67|36.16987|-115.14371|TRUE|FALSE|FALSE|TRUE
5695382|Hotel Apache|Las Vegas, NV|  55|36.17113|-115.14408|TRUE|FALSE|FALSE|TRUE
5695382|Fairfield Inn and Suites by Marriott Las Vegas South|Las Vegas, NV| 144|36.08451|-115.18330|FALSE|TRUE|TRUE|TRUE
5695382|Nobu Hotel at Caesars Palace|Las Vegas, NV| 618|36.11671|-115.17519|FALSE|TRUE|TRUE|TRUE
5695382|Virgin Hotels Las Vegas, Curio Collection by Hilton|Las Vegas, NV| 157|36.10877|-115.15373|FALSE|FALSE|TRUE|TRUE
5695382|Secret Suites at Vdara|Las Vegas, NV|1766|36.10928|-115.17776|FALSE|TRUE|TRUE|TRUE
5695383|Conrad Las Vegas at Resorts World|Las Vegas, NV| 186|36.13448|-115.16566|FALSE|FALSE|TRUE|TRUE
5695383|Westgate Las Vegas Resort & Casino|Las Vegas, NV| 147|36.13529|-115.15246|FALSE|FALSE|TRUE|TRUE
5695383|Silver Sevens Hotel & Casino|Las Vegas, NV|  73|36.11376|-115.15265|TRUE|FALSE|FALSE|TRUE
5695383|Las Vegas Hilton at Resorts World|Las Vegas, NV| 163|36.13516|-115.16667|FALSE|FALSE|TRUE|TRUE
5695383|Bellagio|Las Vegas, NV| 957|36.11311|-115.17701|FALSE|TRUE|TRUE|TRUE
5695383|Palms Casino Resort|Las Vegas, NV| 194|36.11444|-115.19482|FALSE|TRUE|TRUE|TRUE
5695383|Howard Johnson by Wyndham Las Vegas near the Strip|Las Vegas, NV|  76|36.09948|-115.16580|TRUE|TRUE|FALSE|TRUE
5695383|Alexis Park All Suite Resort|Las Vegas, NV| 125|36.10762|-115.15554|FALSE|TRUE|FALSE|TRUE
5695383|Mardi Gras Hotel & Casino|Las Vegas, NV|  73|36.12549|-115.15446|TRUE|FALSE|FALSE|TRUE
5695383|Four Queens Hotel and Casino|Las Vegas, NV|  67|36.16987|-115.14371|TRUE|FALSE|FALSE|TRUE
5695383|Virgin Hotels Las Vegas, Curio Collection by Hilton|Las Vegas, NV| 157|36.10877|-115.15373|FALSE|FALSE|TRUE|TRUE
5695383|Nobu Hotel at Caesars Palace|Las Vegas, NV| 618|36.11671|-115.17519|FALSE|TRUE|TRUE|TRUE
5695383|Thunderbird Hotel|Las Vegas, NV|  59|36.15581|-115.14903|TRUE|FALSE|FALSE|TRUE
5695383|OYO Hotel and Casino Las Vegas|Las Vegas, NV|  82|36.10039|-115.16772|FALSE|TRUE|FALSE|TRUE
5695383|Hotel Apache|Las Vegas, NV|  55|36.17113|-115.14408|TRUE|FALSE|FALSE|TRUE
5695383|Secret Suites at Vdara|Las Vegas, NV|1766|36.10928|-115.17776|FALSE|TRUE|TRUE|TRUE
5695383|The Venetian Prestige Club Lounge|Las Vegas, NV| 685|36.12117|-115.16965|FALSE|FALSE|TRUE|TRUE
5695383|Longhorn Casino & Hotel|Las Vegas, NV|  76|36.10704|-115.05916|TRUE|FALSE|FALSE|TRUE
5695383|El Cortez Hotel and Casino - 21 and Over|Las Vegas, NV|  73|36.16943|-115.13873|TRUE|FALSE|FALSE|TRUE
5695383|Fairfield Inn and Suites by Marriott Las Vegas South|Las Vegas, NV| 144|36.08451|-115.18330|FALSE|TRUE|TRUE|TRUE
5695383|Arizona Charlie's Boulder|Las Vegas, NV|  69|36.12406|-115.07554|TRUE|FALSE|FALSE|TRUE
5695383|Oasis at Gold Spike - Adults Only|Las Vegas, NV|  60|36.17095|-115.13982|TRUE|FALSE|FALSE|TRUE
5695383|Courtyard by Marriott Las Vegas South|Las Vegas, NV| 124|36.08382|-115.18304|FALSE|TRUE|FALSE|TRUE
5695383|Hampton Inn Tropicana|Las Vegas, NV| 125|36.09967|-115.18338|FALSE|TRUE|FALSE|TRUE
5695385|Casa Del Mar|Inglewood, CA| 882|34.00627|-118.49147|FALSE|FALSE|TRUE|TRUE
5695385|Comet Motel|Inglewood, CA|  91|33.93788|-118.26499|TRUE|FALSE|FALSE|TRUE
5695385|Best Western Plus Suites Hotel - Los Angeles LAX Airport|Inglewood, CA| 161|33.94579|-118.36570|FALSE|TRUE|FALSE|TRUE
5695385|La Quinta Inn & Suites by Wyndham Inglewood|Inglewood, CA| 166|33.93125|-118.34332|FALSE|TRUE|FALSE|TRUE
5695385|The Beverly Hills Hotel|Inglewood, CA|1692|33.96168|-118.35313|FALSE|TRUE|TRUE|TRUE
5695385|Los Angeles Adventurer All Suite Hotel at LAX|Inglewood, CA| 105|33.94520|-118.34886|FALSE|TRUE|FALSE|TRUE
5695385|Four Points by Sheraton Los Angeles International Airport|Inglewood, CA|  98|33.94784|-118.38496|TRUE|FALSE|FALSE|TRUE
5695385|L'Ermitage Beverly Hills|Inglewood, CA| 804|34.07254|-118.39540|FALSE|FALSE|TRUE|TRUE
5695385|Redondo Beach Inn|Inglewood, CA|  78|33.88725|-118.31193|TRUE|FALSE|FALSE|TRUE
5695385|American Hotel Los Angeles|Inglewood, CA| 104|33.96168|-118.35313|FALSE|TRUE|FALSE|TRUE
5695385|Royal Century Hotel|Inglewood, CA|  92|33.94491|-118.35159|TRUE|TRUE|FALSE|TRUE
5695385|The London West Hollywood at Beverly Hills|Inglewood, CA| 589|34.08996|-118.38507|FALSE|FALSE|TRUE|TRUE
5695385|LAX Stadium Inn - El Segundo/Inglewood|Inglewood, CA|  86|33.93112|-118.35535|TRUE|TRUE|FALSE|TRUE
5695385|SureStay Hotel by Best Western South Gate|Inglewood, CA|  96|33.95138|-118.18214|TRUE|FALSE|FALSE|TRUE
5695385|The Peninsula Beverly Hills|Inglewood, CA|1157|34.06576|-118.41072|FALSE|FALSE|TRUE|TRUE
5695385|Shutters on the Beach|Inglewood, CA| 939|34.00692|-118.49169|FALSE|FALSE|TRUE|TRUE
5695385|Holiday Inn Los Angeles - LAX Airport, an IHG Hotel|Inglewood, CA| 156|33.94620|-118.37092|FALSE|TRUE|FALSE|TRUE
5695385|Rosa Bell Motel - Los Angeles|Inglewood, CA|  98|33.99136|-118.30872|TRUE|FALSE|FALSE|TRUE
5695385|Antonio Hotel|Inglewood, CA|  97|33.96168|-118.35313|TRUE|TRUE|FALSE|TRUE
5695385|Central Inn Motel|Inglewood, CA|  87|34.00935|-118.25629|TRUE|FALSE|FALSE|TRUE
5695385|Four Seasons Los Angeles at Beverly Hills|Inglewood, CA| 959|34.07305|-118.38934|FALSE|FALSE|TRUE|TRUE
5695385|1 Hotel West Hollywood|Inglewood, CA| 588|34.09407|-118.37570|FALSE|FALSE|TRUE|TRUE
5695385|The Maybourne Beverly Hills|Inglewood, CA|1213|34.06797|-118.39875|FALSE|FALSE|TRUE|TRUE
5695385|Beverly Wilshire - Beverly Hills, A Four Seasons Hotel|Inglewood, CA|1007|34.06674|-118.40077|FALSE|FALSE|TRUE|TRUE
5695385|Quality Inn & Suites Los Angeles Airport - LAX|Inglewood, CA| 137|33.94493|-118.36455|FALSE|TRUE|FALSE|TRUE
5695385|Budget Motel|Inglewood, CA|  97|33.97495|-118.31656|TRUE|FALSE|FALSE|TRUE
5695418|La Quinta Inn & Suites by Wyndham Inglewood|Inglewood, CA| 166|33.93125|-118.34332|FALSE|TRUE|FALSE|TRUE
5695418|Rosa Bell Motel - Los Angeles|Inglewood, CA|  98|33.99136|-118.30872|TRUE|FALSE|FALSE|TRUE
5695418|The Beverly Hills Hotel|Inglewood, CA|1692|33.96168|-118.35313|FALSE|TRUE|TRUE|TRUE
5695418|Best Western Plus Suites Hotel - Los Angeles LAX Airport|Inglewood, CA| 161|33.94579|-118.36570|FALSE|TRUE|FALSE|TRUE
5695418|Los Angeles Adventurer All Suite Hotel at LAX|Inglewood, CA| 105|33.94520|-118.34886|FALSE|TRUE|FALSE|TRUE
5695418|LAX Stadium Inn - El Segundo/Inglewood|Inglewood, CA|  86|33.93112|-118.35535|TRUE|TRUE|FALSE|TRUE
5695418|Casa Del Mar|Inglewood, CA| 882|34.00627|-118.49147|FALSE|FALSE|TRUE|TRUE
5695418|L'Ermitage Beverly Hills|Inglewood, CA| 804|34.07254|-118.39540|FALSE|FALSE|TRUE|TRUE
5695418|Central Inn Motel|Inglewood, CA|  87|34.00935|-118.25629|TRUE|FALSE|FALSE|TRUE
5695418|Budget Motel|Inglewood, CA|  97|33.97495|-118.31656|TRUE|FALSE|FALSE|TRUE
5695418|Holiday Inn Los Angeles - LAX Airport, an IHG Hotel|Inglewood, CA| 156|33.94620|-118.37092|FALSE|TRUE|FALSE|TRUE
5695418|The Maybourne Beverly Hills|Inglewood, CA|1213|34.06797|-118.39875|FALSE|FALSE|TRUE|TRUE
5695418|Comet Motel|Inglewood, CA|  91|33.93788|-118.26499|TRUE|FALSE|FALSE|TRUE
5695418|Four Points by Sheraton Los Angeles International Airport|Inglewood, CA|  98|33.94784|-118.38496|TRUE|FALSE|FALSE|TRUE
5695418|SureStay Hotel by Best Western South Gate|Inglewood, CA|  96|33.95138|-118.18214|TRUE|FALSE|FALSE|TRUE
5695418|Beverly Wilshire - Beverly Hills, A Four Seasons Hotel|Inglewood, CA|1007|34.06674|-118.40077|FALSE|FALSE|TRUE|TRUE
5695418|The Peninsula Beverly Hills|Inglewood, CA|1157|34.06576|-118.41072|FALSE|FALSE|TRUE|TRUE
5695418|Royal Century Hotel|Inglewood, CA|  92|33.94491|-118.35159|TRUE|TRUE|FALSE|TRUE
5695418|Redondo Beach Inn|Inglewood, CA|  78|33.88725|-118.31193|TRUE|FALSE|FALSE|TRUE
5695418|American Hotel Los Angeles|Inglewood, CA| 104|33.96168|-118.35313|FALSE|TRUE|FALSE|TRUE
5695418|1 Hotel West Hollywood|Inglewood, CA| 588|34.09407|-118.37570|FALSE|FALSE|TRUE|TRUE
5695418|Quality Inn & Suites Los Angeles Airport - LAX|Inglewood, CA| 137|33.94493|-118.36455|FALSE|TRUE|FALSE|TRUE
5695418|Antonio Hotel|Inglewood, CA|  97|33.96168|-118.35313|TRUE|TRUE|FALSE|TRUE
5695418|Shutters on the Beach|Inglewood, CA| 939|34.00692|-118.49169|FALSE|FALSE|TRUE|TRUE
5695418|Four Seasons Los Angeles at Beverly Hills|Inglewood, CA| 959|34.07305|-118.38934|FALSE|FALSE|TRUE|TRUE
5695418|The London West Hollywood at Beverly Hills|Inglewood, CA| 589|34.08996|-118.38507|FALSE|FALSE|TRUE|TRUE
5695426|Fort Pontchartrain Detroit, a Wyndham Hotel|Detroit, MI| 194|42.32806| -83.04758|FALSE|TRUE|FALSE|TRUE
5695426|The Inn at 97 Winder|Detroit, MI| 211|42.34159| -83.05194|FALSE|TRUE|FALSE|TRUE
5695426|The Westin Book Cadillac Detroit|Detroit, MI| 341|42.33211| -83.05021|FALSE|TRUE|TRUE|TRUE
5695426|Hotel Chataura|Detroit, MI|  71|42.32265| -83.17231|TRUE|FALSE|FALSE|TRUE
5695426|Howard Johnson Plaza Hotel by Wyndham Windsor|Detroit, MI|  62|42.28575| -83.01772|TRUE|FALSE|FALSE|TRUE
5695426|The Henry Hotel, Autograph Collection|Detroit, MI| 225|42.32036| -83.21697|FALSE|FALSE|TRUE|TRUE
5695426|MGM Grand Detroit|Detroit, MI| 317|42.33326| -83.06006|FALSE|FALSE|TRUE|TRUE
5695426|Detroit Foundation Hotel|Detroit, MI| 279|42.32833| -83.04836|FALSE|TRUE|TRUE|TRUE
5695426|Best Western Greenfield Inn|Detroit, MI| 108|42.28229| -83.19649|TRUE|FALSE|FALSE|TRUE
5695426|Comfort Inn Windsor|Detroit, MI| 112|42.27391| -83.01523|TRUE|FALSE|FALSE|TRUE
5695426|Hilton Garden Inn Detroit Downtown|Detroit, MI| 253|42.33591| -83.04504|FALSE|TRUE|TRUE|TRUE
5695426|The Siren Hotel|Detroit, MI| 256|42.33574| -83.04859|FALSE|TRUE|TRUE|TRUE
5695426|Atheneum Suite Hotel|Detroit, MI| 206|42.33409| -83.04267|FALSE|TRUE|FALSE|TRUE
5695426|Stonecroft Inn|Detroit, MI|  99|42.27279| -83.01288|TRUE|FALSE|FALSE|TRUE
5695426|Extended Stay America Suites Detroit Dearborn|Detroit, MI| 100|42.32078| -83.22193|TRUE|FALSE|FALSE|TRUE
5695426|DoubleTree Suites by Hilton Detroit Downtown - Fort Shelby|Detroit, MI| 224|42.32922| -83.05290|FALSE|TRUE|TRUE|TRUE
5695426|Shinola Hotel|Detroit, MI| 297|42.33439| -83.04858|FALSE|TRUE|TRUE|TRUE
5695426|The Leo Collection Detroit, Ascend Hotel Collection|Detroit, MI|  96|42.25452| -83.18582|TRUE|FALSE|FALSE|TRUE
5695426|Baymont by Wyndham Downtown Detroit|Detroit, MI|  95|42.34123| -83.01435|TRUE|FALSE|FALSE|TRUE
5695426|Comfort Inn Near Greenfield Village|Detroit, MI| 103|42.30758| -83.23197|TRUE|FALSE|FALSE|TRUE
5695426|MotorCity Casino Hotel|Detroit, MI| 252|42.33889| -83.06778|FALSE|FALSE|TRUE|TRUE
5695426|Mint House Detroit - Times Square|Detroit, MI| 216|42.33458| -83.05246|FALSE|TRUE|TRUE|TRUE
5695426|Best Western Plus Waterfront Hotel|Detroit, MI| 112|42.31881| -83.04286|TRUE|FALSE|FALSE|TRUE
5695426|Travelodge by Wyndham Windsor|Detroit, MI|  73|42.26241| -82.97094|TRUE|FALSE|FALSE|TRUE
5695436|Home2 Suites by Hilton Atlanta Downtown|Atlanta, GA| 123|33.75698| -84.39114|FALSE|TRUE|TRUE|TRUE
5695436|Sonesta Select Atlanta Midtown Georgia Tech|Atlanta, GA| 125|33.78546| -84.39267|FALSE|FALSE|TRUE|TRUE
5695436|Econo Lodge At Six Flags|Atlanta, GA|  87|33.77361| -84.55028|TRUE|FALSE|FALSE|TRUE
5695436|Reverb by Hard Rock Atlanta Downtown|Atlanta, GA| 156|33.75348| -84.39925|FALSE|TRUE|TRUE|TRUE
5695436|Days Inn by Wyndham Hartsfield Jackson Atlanta Airport West|Atlanta, GA|  77|33.63341| -84.49180|TRUE|FALSE|FALSE|TRUE
5695436|Microtel Inn by Wyndham Atlanta Airport|Atlanta, GA|  82|33.62339| -84.45537|TRUE|FALSE|FALSE|TRUE
5695436|Clarion Inn & Suites Atlanta Downtown|Atlanta, GA| 103|33.74900| -84.40337|FALSE|TRUE|FALSE|TRUE
5695436|Howard Johnson by Wyndham Atlanta Airport/College Park|Atlanta, GA|  74|33.61529| -84.43967|TRUE|FALSE|FALSE|TRUE
5695436|Holiday Inn Express and Suites Atlanta Downtown, an IHG Hotel|Atlanta, GA| 109|33.75789| -84.38989|FALSE|TRUE|FALSE|TRUE
5695436|Nobu Hotel Atlanta|Atlanta, GA| 467|33.85439| -84.36349|FALSE|FALSE|TRUE|TRUE
5695436|OYO Hotel Decatur I-285 The Perimeter|Atlanta, GA|  83|33.73786| -84.23582|TRUE|FALSE|FALSE|TRUE
5695436|Hyatt Place Atlanta Centennial Park|Atlanta, GA| 143|33.76254| -84.39597|FALSE|TRUE|TRUE|TRUE
5695436|Quality Inn Atlanta Airport - Central|Atlanta, GA|  80|33.62451| -84.45417|TRUE|FALSE|FALSE|TRUE
5695436|The Starling Atlanta Midtown, Curio Collection by Hilton|Atlanta, GA| 123|33.78698| -84.38139|FALSE|FALSE|TRUE|TRUE
5695436|SpringHill Suites by Marriott Atlanta Downtown|Atlanta, GA| 116|33.76497| -84.39502|FALSE|TRUE|FALSE|TRUE
5695436|Omni Atlanta Hotel at CNN Center|Atlanta, GA| 223|33.75915| -84.39494|FALSE|TRUE|TRUE|TRUE
5695436|Econo Lodge Conley|Atlanta, GA|  73|33.66714| -84.33847|TRUE|FALSE|FALSE|TRUE
5695436|The American Hotel Atlanta Downtown - a DoubleTree by Hilton|Atlanta, GA| 107|33.75931| -84.38992|FALSE|TRUE|FALSE|TRUE
5695436|Rodeway Inn|Atlanta, GA|  65|33.74900| -84.38798|TRUE|FALSE|FALSE|TRUE
5695436|AC Hotel by Marriott Atlanta Downtown|Atlanta, GA| 131|33.75994| -84.39102|FALSE|TRUE|TRUE|TRUE
5695436|Quality Suites Atlanta Airport East|Atlanta, GA|  83|33.61301| -84.40140|TRUE|FALSE|FALSE|TRUE
5695436|Thompson Buckhead|Atlanta, GA| 435|33.83833| -84.37435|FALSE|FALSE|TRUE|TRUE
5695436|Fairfield Inn & Suites Atlanta Downtown|Atlanta, GA| 121|33.75287| -84.39119|FALSE|TRUE|FALSE|TRUE
5695436|The Westin Peachtree Plaza, Atlanta|Atlanta, GA| 179|33.75941| -84.38836|FALSE|FALSE|TRUE|TRUE
5695436|Econo Lodge|Atlanta, GA|  82|33.65881| -84.43356|TRUE|FALSE|FALSE|TRUE
5695437|SpringHill Suites by Marriott Atlanta Downtown|Atlanta, GA| 116|33.76497| -84.39502|FALSE|TRUE|FALSE|TRUE
5695437|Omni Atlanta Hotel at CNN Center|Atlanta, GA| 223|33.75915| -84.39494|FALSE|TRUE|TRUE|TRUE
5695437|Nobu Hotel Atlanta|Atlanta, GA| 467|33.85439| -84.36349|FALSE|FALSE|TRUE|TRUE
5695437|Econo Lodge At Six Flags|Atlanta, GA|  87|33.77361| -84.55028|TRUE|FALSE|FALSE|TRUE
5695437|Reverb by Hard Rock Atlanta Downtown|Atlanta, GA| 156|33.75348| -84.39925|FALSE|TRUE|TRUE|TRUE
5695437|Days Inn by Wyndham Hartsfield Jackson Atlanta Airport West|Atlanta, GA|  77|33.63341| -84.49180|TRUE|FALSE|FALSE|TRUE
5695437|Howard Johnson by Wyndham Atlanta Airport/College Park|Atlanta, GA|  74|33.61529| -84.43967|TRUE|FALSE|FALSE|TRUE
5695437|Econo Lodge Conley|Atlanta, GA|  73|33.66714| -84.33847|TRUE|FALSE|FALSE|TRUE
5695437|OYO Hotel Decatur I-285 The Perimeter|Atlanta, GA|  83|33.73786| -84.23582|TRUE|FALSE|FALSE|TRUE
5695437|Quality Suites Atlanta Airport East|Atlanta, GA|  83|33.61301| -84.40140|TRUE|FALSE|FALSE|TRUE
5695437|Microtel Inn by Wyndham Atlanta Airport|Atlanta, GA|  82|33.62339| -84.45537|TRUE|FALSE|FALSE|TRUE
5695437|Holiday Inn Express and Suites Atlanta Downtown, an IHG Hotel|Atlanta, GA| 109|33.75789| -84.38989|FALSE|TRUE|FALSE|TRUE
5695437|The Starling Atlanta Midtown, Curio Collection by Hilton|Atlanta, GA| 123|33.78698| -84.38139|FALSE|FALSE|TRUE|TRUE
5695437|Sonesta Select Atlanta Midtown Georgia Tech|Atlanta, GA| 125|33.78546| -84.39267|FALSE|FALSE|TRUE|TRUE
5695437|Thompson Buckhead|Atlanta, GA| 435|33.83833| -84.37435|FALSE|FALSE|TRUE|TRUE
5695437|Clarion Inn & Suites Atlanta Downtown|Atlanta, GA| 103|33.74900| -84.40337|FALSE|TRUE|FALSE|TRUE
5695437|Econo Lodge|Atlanta, GA|  82|33.65881| -84.43356|TRUE|FALSE|FALSE|TRUE
5695437|Hyatt Place Atlanta Centennial Park|Atlanta, GA| 143|33.76254| -84.39597|FALSE|TRUE|TRUE|TRUE
5695437|The American Hotel Atlanta Downtown - a DoubleTree by Hilton|Atlanta, GA| 107|33.75931| -84.38992|FALSE|TRUE|FALSE|TRUE
5695437|Rodeway Inn|Atlanta, GA|  65|33.74900| -84.38798|TRUE|FALSE|FALSE|TRUE
5695437|Quality Inn Atlanta Airport - Central|Atlanta, GA|  80|33.62451| -84.45417|TRUE|FALSE|FALSE|TRUE
5695437|Home2 Suites by Hilton Atlanta Downtown|Atlanta, GA| 123|33.75698| -84.39114|FALSE|TRUE|TRUE|TRUE
5695437|The Westin Peachtree Plaza, Atlanta|Atlanta, GA| 179|33.75941| -84.38836|FALSE|FALSE|TRUE|TRUE
5695437|Fairfield Inn & Suites Atlanta Downtown|Atlanta, GA| 121|33.75287| -84.39119|FALSE|TRUE|FALSE|TRUE
5695437|AC Hotel by Marriott Atlanta Downtown|Atlanta, GA| 131|33.75994| -84.39102|FALSE|TRUE|TRUE|TRUE
5695439|Moxy Minneapolis Downtown|Minneapolis, MN| 122|44.97654| -93.25742|FALSE|TRUE|FALSE|TRUE
5695439|Super 8 by Wyndham Bloomington/Airport|Minneapolis, MN|  70|44.86102| -93.27530|TRUE|FALSE|FALSE|TRUE
5695439|Red Roof Inn Minneapolis Plymouth|Minneapolis, MN|  77|45.00805| -93.45408|TRUE|FALSE|FALSE|TRUE
5695439|Key Inn Roseville|Minneapolis, MN|  65|45.01836| -93.18679|TRUE|FALSE|FALSE|TRUE
5695439|Hyatt Centric Downtown Minneapolis|Minneapolis, MN| 152|44.97583| -93.26845|FALSE|TRUE|TRUE|TRUE
5695439|Aloft Minneapolis|Minneapolis, MN| 124|44.97651| -93.25505|FALSE|TRUE|FALSE|TRUE
5695439|Quality Inn - In the business district|Minneapolis, MN|  72|44.97775| -93.26501|TRUE|TRUE|FALSE|TRUE
5695439|Best Western Plus The Normandy Inn & Suites|Minneapolis, MN| 115|44.97305| -93.26731|FALSE|TRUE|FALSE|TRUE
5695439|Hilton Minneapolis|Minneapolis, MN| 144|44.97259| -93.27287|FALSE|FALSE|TRUE|TRUE
5695439|Baymont by Wyndham Bloomington MSP Airport|Minneapolis, MN|  77|44.86329| -93.25730|TRUE|FALSE|FALSE|TRUE
5695439|Avant Inn|Minneapolis, MN|  74|45.07401| -93.30702|TRUE|FALSE|FALSE|TRUE
5695439|Courtyard by Marriott Minneapolis Downtown|Minneapolis, MN| 129|44.97373| -93.24731|FALSE|TRUE|FALSE|TRUE
5695439|Super 8 by Wyndham Brooklyn Center/MPLS|Minneapolis, MN|  73|45.07261| -93.30496|TRUE|FALSE|FALSE|TRUE
5695439|Microtel Inn and Suites by Wyndham Bloomington MSP Airport|Minneapolis, MN|  75|44.86138| -93.26265|TRUE|FALSE|FALSE|TRUE
5695439|Canopy by Hilton Minneapolis Mill District|Minneapolis, MN| 154|44.97677| -93.25885|FALSE|TRUE|TRUE|TRUE
5695439|The Westin Edina Galleria|Minneapolis, MN| 347|44.87755| -93.32247|FALSE|FALSE|TRUE|TRUE
5695439|Rand Tower Hotel, Minneapolis, a Marriott Tribute Portfolio Hotel|Minneapolis, MN| 153|44.97736| -93.26964|FALSE|TRUE|TRUE|TRUE
5695439|La Quinta Inn by Wyndham Minneapolis Airport Bloomington|Minneapolis, MN|  71|44.86043| -93.27699|TRUE|FALSE|FALSE|TRUE
5695439|Hotel Ivy, a Luxury Collection Hotel, Minneapolis|Minneapolis, MN| 346|44.97150| -93.27269|FALSE|FALSE|TRUE|TRUE
5695439|Four Seasons Hotel Minneapolis|Minneapolis, MN| 678|44.98167| -93.26952|FALSE|FALSE|TRUE|TRUE
5695439|Loews Minneapolis Hotel|Minneapolis, MN| 170|44.97890| -93.27509|FALSE|FALSE|TRUE|TRUE
5695439|The Marquette Hotel, Curio Collection by Hilton|Minneapolis, MN| 154|44.97612| -93.27158|FALSE|TRUE|TRUE|TRUE
5695439|Days Inn by Wyndham Mounds View Twin Cities North|Minneapolis, MN|  74|45.09651| -93.19255|TRUE|FALSE|FALSE|TRUE
5695439|W Minneapolis - The Foshay|Minneapolis, MN| 163|44.97473| -93.27201|FALSE|FALSE|TRUE|TRUE
5695439|Radisson RED Minneapolis|Minneapolis, MN| 129|44.97683| -93.26034|FALSE|TRUE|FALSE|TRUE
5695441|Aloft Minneapolis|Minneapolis, MN| 124|44.97651| -93.25505|FALSE|TRUE|FALSE|TRUE
5695441|Key Inn Roseville|Minneapolis, MN|  65|45.01836| -93.18679|TRUE|FALSE|FALSE|TRUE
5695441|Super 8 by Wyndham Bloomington/Airport|Minneapolis, MN|  70|44.86102| -93.27530|TRUE|FALSE|FALSE|TRUE
5695441|Canopy by Hilton Minneapolis Mill District|Minneapolis, MN| 154|44.97677| -93.25885|FALSE|TRUE|TRUE|TRUE
5695441|Red Roof Inn Minneapolis Plymouth|Minneapolis, MN|  77|45.00805| -93.45408|TRUE|FALSE|FALSE|TRUE
5695441|Microtel Inn and Suites by Wyndham Bloomington MSP Airport|Minneapolis, MN|  75|44.86138| -93.26265|TRUE|FALSE|FALSE|TRUE
5695441|Hilton Minneapolis|Minneapolis, MN| 144|44.97259| -93.27287|FALSE|FALSE|TRUE|TRUE
5695441|Days Inn by Wyndham Mounds View Twin Cities North|Minneapolis, MN|  74|45.09651| -93.19255|TRUE|FALSE|FALSE|TRUE
5695441|The Westin Edina Galleria|Minneapolis, MN| 347|44.87755| -93.32247|FALSE|FALSE|TRUE|TRUE
5695441|Avant Inn|Minneapolis, MN|  74|45.07401| -93.30702|TRUE|FALSE|FALSE|TRUE
5695441|Hotel Ivy, a Luxury Collection Hotel, Minneapolis|Minneapolis, MN| 346|44.97150| -93.27269|FALSE|FALSE|TRUE|TRUE
5695441|The Marquette Hotel, Curio Collection by Hilton|Minneapolis, MN| 154|44.97612| -93.27158|FALSE|TRUE|TRUE|TRUE
5695441|Four Seasons Hotel Minneapolis|Minneapolis, MN| 678|44.98167| -93.26952|FALSE|FALSE|TRUE|TRUE
5695441|Baymont by Wyndham Bloomington MSP Airport|Minneapolis, MN|  77|44.86329| -93.25730|TRUE|FALSE|FALSE|TRUE
5695441|Courtyard by Marriott Minneapolis Downtown|Minneapolis, MN| 129|44.97373| -93.24731|FALSE|TRUE|FALSE|TRUE
5695441|Rand Tower Hotel, Minneapolis, a Marriott Tribute Portfolio Hotel|Minneapolis, MN| 153|44.97736| -93.26964|FALSE|TRUE|TRUE|TRUE
5695441|Radisson RED Minneapolis|Minneapolis, MN| 129|44.97683| -93.26034|FALSE|TRUE|FALSE|TRUE
5695441|Loews Minneapolis Hotel|Minneapolis, MN| 170|44.97890| -93.27509|FALSE|FALSE|TRUE|TRUE
5695441|W Minneapolis - The Foshay|Minneapolis, MN| 163|44.97473| -93.27201|FALSE|FALSE|TRUE|TRUE
5695441|La Quinta Inn by Wyndham Minneapolis Airport Bloomington|Minneapolis, MN|  71|44.86043| -93.27699|TRUE|FALSE|FALSE|TRUE
5695441|Moxy Minneapolis Downtown|Minneapolis, MN| 122|44.97654| -93.25742|FALSE|TRUE|FALSE|TRUE
5695441|Super 8 by Wyndham Brooklyn Center/MPLS|Minneapolis, MN|  73|45.07261| -93.30496|TRUE|FALSE|FALSE|TRUE
5695441|Best Western Plus The Normandy Inn & Suites|Minneapolis, MN| 115|44.97305| -93.26731|FALSE|TRUE|FALSE|TRUE
5695441|Quality Inn - In the business district|Minneapolis, MN|  72|44.97775| -93.26501|TRUE|TRUE|FALSE|TRUE
5695441|Hyatt Centric Downtown Minneapolis|Minneapolis, MN| 152|44.97583| -93.26845|FALSE|TRUE|TRUE|TRUE
5695458|Hilton Garden Inn Sunnyvale|Santa Clara, CA| 105|37.39492|-122.03012|TRUE|FALSE|FALSE|TRUE
5695458|Embassy Suites by Hilton Santa Clara Silicon Valley|Santa Clara, CA| 176|37.38396|-121.97864|FALSE|TRUE|TRUE|TRUE
5695458|Hilton Santa Clara|Santa Clara, CA| 139|37.40263|-121.97688|FALSE|TRUE|FALSE|TRUE
5695458|Santa Clara Marriott|Santa Clara, CA| 191|37.39068|-121.97426|FALSE|TRUE|TRUE|TRUE
5695458|Comfort Inn Sunnyvale - Silicon Valley|Santa Clara, CA| 101|37.39973|-122.02596|TRUE|FALSE|FALSE|TRUE
5695458|Hotel Fairchild|Santa Clara, CA| 105|37.40647|-122.06442|TRUE|FALSE|FALSE|TRUE
5695458|Cherry Orchard Inn|Santa Clara, CA| 105|37.35299|-122.00325|TRUE|FALSE|FALSE|TRUE
5695458|Delta Hotels by Marriott Santa Clara|Santa Clara, CA| 138|37.38366|-121.96216|FALSE|TRUE|FALSE|TRUE
5695458|Aloft Santa Clara|Santa Clara, CA| 134|37.41779|-121.97647|FALSE|TRUE|FALSE|TRUE
5695458|Hotel Zico|Santa Clara, CA|  88|37.37969|-122.06857|TRUE|FALSE|FALSE|TRUE
5695458|Residence Inn by Marriott San Jose North/Silicon Valley|Santa Clara, CA| 155|37.42185|-121.97903|FALSE|FALSE|TRUE|TRUE
5695458|Comfort Inn Palo Alto|Santa Clara, CA|  98|37.41675|-122.12836|TRUE|FALSE|FALSE|TRUE
5695458|Quality Inn & Suites Silicon Valley|Santa Clara, CA|  91|37.35174|-121.97989|TRUE|FALSE|FALSE|TRUE
5695458|AC Hotel by Marriott San Jose Santa Clara|Santa Clara, CA| 152|37.38548|-121.98044|FALSE|TRUE|TRUE|TRUE
5695458|Hotel Valencia Santana Row|Santa Clara, CA| 468|37.32084|-121.94809|FALSE|FALSE|TRUE|TRUE
