id|name|city|price|lat|long|p|t|l|fresh
5502788|Hilton Garden Inn Columbia|Columbia, MO| 144|38.97470| -92.28922|FALSE|FALSE|TRUE|TRUE
5502788|Drury Plaza Hotel Columbia East|Columbia, MO| 133|38.96065| -92.28959|FALSE|FALSE|TRUE|TRUE
5502788|voco The Tiger Hotel, an IHG Hotel|Columbia, MO| 166|38.95087| -92.32880|FALSE|TRUE|TRUE|TRUE
5502788|Best Western Plus Columbia Inn|Columbia, MO|  81|38.96281| -92.29375|TRUE|FALSE|FALSE|TRUE
5502788|SpringHill Suites by Marriott Columbia|Columbia, MO|  98|38.96508| -92.28535|TRUE|FALSE|FALSE|TRUE
5502788|Holiday Inn Executive Center-Columbia Mall, an IHG Hotel|Columbia, MO| 123|38.96700| -92.37362|FALSE|FALSE|TRUE|TRUE
5502788|Residence Inn by Marriott Columbia|Columbia, MO| 111|38.96227| -92.28418|TRUE|FALSE|FALSE|TRUE
5502788|Country Inn & Suites by Radisson, Columbia, MO|Columbia, MO| 107|38.95968| -92.28967|TRUE|FALSE|FALSE|TRUE
5502788|Staybridge Suites Columbia, an IHG Hotel|Columbia, MO| 128|38.95885| -92.29115|FALSE|TRUE|TRUE|TRUE
5502788|Courtyard by Marriott Columbia Missouri|Columbia, MO| 129|38.91432| -92.29258|FALSE|TRUE|TRUE|TRUE
5502788|Comfort Suites Columbia - University Area|Columbia, MO|  84|38.96602| -92.35411|TRUE|TRUE|FALSE|TRUE
5502788|Wingate by Wyndham - Columbia|Columbia, MO| 103|38.95827| -92.29132|TRUE|TRUE|FALSE|TRUE
5502788|Ramada by Wyndham Columbia|Columbia, MO|  72|38.96032| -92.29371|TRUE|TRUE|FALSE|TRUE
5502788|Holiday Inn Columbia East, an IHG Hotel|Columbia, MO| 113|38.95811| -92.25256|FALSE|FALSE|TRUE|TRUE
5502788|Hampton Inn Columbia|Columbia, MO| 124|38.96294| -92.28750|FALSE|FALSE|TRUE|TRUE
5502788|Stoney Creek Hotel Columbia|Columbia, MO| 113|38.92172| -92.33819|FALSE|TRUE|TRUE|TRUE
5502788|The Broadway Columbia - a DoubleTree by Hilton|Columbia, MO| 125|38.95175| -92.32465|FALSE|TRUE|TRUE|TRUE
5502788|La Quinta Inn & Suites by Wyndham Columbia|Columbia, MO|  66|38.96803| -92.37609|TRUE|FALSE|FALSE|TRUE
5502788|Extended Stay America Suites Columbia Stadium Blvd|Columbia, MO| 113|38.93925| -92.35196|FALSE|TRUE|TRUE|TRUE
5502788|Super 8 by Wyndham Columbia East|Columbia, MO|  66|38.96089| -92.25079|TRUE|FALSE|FALSE|TRUE
5502788|Red Roof Inn Columbia, MO|Columbia, MO|  68|38.97044| -92.33521|TRUE|TRUE|FALSE|TRUE
5502854|Days Inn by Wyndham Nashville Saint Thomas West Hospital|Nashville, TN|  85|36.14377| -86.85803|TRUE|FALSE|FALSE|TRUE
5502854|Four Seasons Nashville|Nashville, TN| 579|36.16007| -86.77366|FALSE|FALSE|TRUE|TRUE
5502854|Fairlane Hotel|Nashville, TN| 595|36.16481| -86.77989|FALSE|FALSE|TRUE|TRUE
5502854|Hyatt House Nashville at Vanderbilt|Nashville, TN| 184|36.15156| -86.80233|FALSE|TRUE|FALSE|TRUE
5502854|The Hermitage Hotel|Nashville, TN| 618|36.16376| -86.78236|FALSE|FALSE|TRUE|TRUE
5502854|Hampton Inn Nashville/Vanderbilt|Nashville, TN| 143|36.15119| -86.79870|FALSE|TRUE|FALSE|TRUE
5502854|21c Museum Hotel Nashville|Nashville, TN| 484|36.16530| -86.77772|FALSE|FALSE|TRUE|TRUE
5502854|Hotel Avery|Nashville, TN|  87|36.08095| -86.95314|TRUE|FALSE|FALSE|TRUE
5502854|Dream Nashville|Nashville, TN| 463|36.16411| -86.77909|FALSE|FALSE|TRUE|TRUE
5502854|Thompson Nashville|Nashville, TN| 412|36.15232| -86.78403|FALSE|FALSE|TRUE|TRUE
5502854|Extended Stay America Suites Nashville Airport|Nashville, TN|  90|36.15370| -86.69047|TRUE|FALSE|FALSE|TRUE
5502854|La Quinta Inn by Wyndham Nashville South|Nashville, TN|  81|36.08417| -86.76250|TRUE|FALSE|FALSE|TRUE
5502854|The Alexis Inn & Suites - Nashville Airport|Nashville, TN| 100|36.15255| -86.68736|TRUE|FALSE|FALSE|TRUE
5502854|Holiday Inn Nashville - Vanderbilt - Dwtn, an IHG Hotel|Nashville, TN| 157|36.14483| -86.81087|FALSE|TRUE|FALSE|TRUE
5502854|The Joseph, a Luxury Collection Hotel, Nashville|Nashville, TN| 439|36.15658| -86.77473|FALSE|FALSE|TRUE|TRUE
5502854|Moxy Nashville Vanderbilt Area|Nashville, TN| 167|36.13630| -86.79908|FALSE|TRUE|FALSE|TRUE
5502854|Hampton Inn & Suites Nashville-Vanderbilt-Elliston Place|Nashville, TN| 144|36.14946| -86.80703|FALSE|TRUE|FALSE|TRUE
5502854|Days Inn by Wyndham Nashville North/Opryland Area|Nashville, TN| 100|36.23617| -86.75912|TRUE|FALSE|FALSE|TRUE
5502854|Graduate Nashville|Nashville, TN| 276|36.15155| -86.79988|FALSE|TRUE|FALSE|TRUE
5502854|1 Hotel Nashville|Nashville, TN| 468|36.15711| -86.78073|FALSE|FALSE|TRUE|TRUE
5502854|Hutton Hotel|Nashville, TN| 529|36.15304| -86.79707|FALSE|TRUE|TRUE|TRUE
5502854|Hilton Nashville Downtown|Nashville, TN| 404|36.16002| -86.77724|FALSE|FALSE|TRUE|TRUE
5502854|Extended Stay America Suites Nashville Airport Music City|Nashville, TN|  96|36.12632| -86.67737|TRUE|FALSE|FALSE|TRUE
5502854|Super 8 by Wyndham Nashville Near Downtown / I-40|Nashville, TN|  95|36.13443| -86.72443|TRUE|FALSE|FALSE|TRUE
5502854|Econo Lodge North|Nashville, TN|  80|36.23261| -86.75763|TRUE|FALSE|FALSE|TRUE
5502854|Quality Inn Opryland Area|Nashville, TN|  96|36.22526| -86.69636|TRUE|FALSE|FALSE|TRUE
5502854|The Hayes Street Hotel Nashville|Nashville, TN| 164|36.15290| -86.79873|FALSE|TRUE|FALSE|TRUE
5502854|Element Nashville Vanderbilt West End|Nashville, TN| 147|36.15223| -86.81926|FALSE|TRUE|FALSE|TRUE
5502854|Homewood Suites by Hilton Nashville Vanderbilt, TN|Nashville, TN| 197|36.14805| -86.80744|FALSE|TRUE|FALSE|TRUE
5586231|Extended Stay America Suites Lubbock Southwest|Lubbock, TX|  72|33.54321|-101.93798|TRUE|FALSE|FALSE|TRUE
5586231|Sleep Inn And Suites Lubbock|Lubbock, TX|  70|33.56399|-101.94149|TRUE|FALSE|FALSE|TRUE
5586231|Courtyard by Marriott Lubbock|Lubbock, TX| 134|33.52755|-101.90002|FALSE|FALSE|TRUE|TRUE
5586231|Cotton Court Hotel|Lubbock, TX| 176|33.58522|-101.85337|FALSE|TRUE|TRUE|TRUE
5586231|Quality Inn & Suites|Lubbock, TX|  67|33.56116|-101.94406|TRUE|FALSE|FALSE|TRUE
5586231|Quality Suites|Lubbock, TX|  71|33.56116|-101.94406|TRUE|FALSE|FALSE|TRUE
5586231|Overton Hotel and Conference Center|Lubbock, TX| 173|33.59081|-101.86785|FALSE|TRUE|TRUE|TRUE
5586231|Hilton Garden Inn Lubbock|Lubbock, TX| 265|33.55272|-101.94626|FALSE|FALSE|TRUE|TRUE
5586231|Hyatt Place Lubbock|Lubbock, TX| 155|33.58975|-101.86685|FALSE|TRUE|TRUE|TRUE
5586231|DoubleTree by Hilton Lubbock University Area|Lubbock, TX| 276|33.59061|-101.85448|FALSE|TRUE|TRUE|TRUE
5586231|Embassy Suites Lubbock|Lubbock, TX| 136|33.53485|-101.92493|FALSE|FALSE|TRUE|TRUE
5586231|Holiday Inn Express Hotel Suites Lubbock Southwest-Wolfforth, an IHG Hotel|Lubbock, TX|  76|33.51812|-101.99336|TRUE|FALSE|FALSE|TRUE
5586231|Courtyard by Marriott Lubbock Downtown/University Area|Lubbock, TX| 165|33.59357|-101.86484|FALSE|TRUE|TRUE|TRUE
5586231|Guest House Inn|Lubbock, TX|  79|33.57748|-101.87494|FALSE|TRUE|FALSE|TRUE
5586231|Holiday Inn Lubbock South, an IHG Hotel|Lubbock, TX| 130|33.53761|-101.95020|FALSE|FALSE|TRUE|TRUE
5586231|SureStay Plus Hotel by Best Western Lubbock Medical Center|Lubbock, TX|  70|33.57735|-101.89807|TRUE|TRUE|FALSE|TRUE
5586231|Staybridge Suites Lubbock, an IHG Hotel|Lubbock, TX| 119|33.57749|-101.87191|FALSE|TRUE|FALSE|TRUE
5586231|Hawthorn Suites by Wyndham Lubbock|Lubbock, TX|  87|33.57286|-101.90641|FALSE|TRUE|FALSE|TRUE
5586231|Best Western Plus Lubbock Windsor Inn|Lubbock, TX|  56|33.54299|-101.84613|TRUE|FALSE|FALSE|TRUE
5586231|Baymont by Wyndham Lubbock West|Lubbock, TX|  70|33.55275|-101.94364|TRUE|FALSE|FALSE|TRUE
5586231|Pioneer Pocket Hotel|Lubbock, TX| 153|33.58474|-101.84827|FALSE|TRUE|TRUE|TRUE
5586231|Red Roof Inn & Conference Center Lubbock|Lubbock, TX|  64|33.53243|-101.84589|TRUE|FALSE|FALSE|TRUE
5586231|Howard Johnson by Wyndham Lubbock TX|Lubbock, TX|  57|33.54754|-101.84618|TRUE|FALSE|FALSE|TRUE
5586238|Hilton Garden Inn Manhattan|Manhattan, KS| 157|39.17522| -96.56066|FALSE|TRUE|TRUE|TRUE
5586238|Holiday Inn Manhattan at the Campus, an IHG Hotel|Manhattan, KS| 127|39.18551| -96.58258|TRUE|TRUE|TRUE|TRUE
5586238|Best Western Manhattan Inn|Manhattan, KS| 111|39.18655| -96.54925|TRUE|TRUE|TRUE|TRUE
5586238|Quality Inn & Suites|Manhattan, KS|  97|39.18052| -96.55399|TRUE|FALSE|TRUE|TRUE
5586238|Candlewood Suites Manhattan, an IHG Hotel|Manhattan, KS| 125|39.17538| -96.55936|TRUE|FALSE|TRUE|TRUE
5586238|Moore House Bed and Breakfast|Manhattan, KS| 138|39.18431| -96.58524|TRUE|TRUE|TRUE|TRUE
5586238|Super 8 by Wyndham Manhattan KS|Manhattan, KS|  79|39.18120| -96.55578|TRUE|TRUE|FALSE|TRUE
5586238|Courtyard by Marriott Manhattan Aggieville|Manhattan, KS| 114|39.18634| -96.57501|TRUE|TRUE|TRUE|TRUE
5586238|Parkwood Inn & Suites|Manhattan, KS|  98|39.17513| -96.58270|TRUE|TRUE|TRUE|TRUE
5586238|Four Points by Sheraton Manhattan|Manhattan, KS|  93|39.17028| -96.59746|TRUE|TRUE|FALSE|TRUE
5586238|Comfort Suites Manhattan|Manhattan, KS| 121|39.19068| -96.55642|TRUE|TRUE|TRUE|TRUE
5586238|The Bluemont Hotel|Manhattan, KS| 139|39.18713| -96.57578|FALSE|TRUE|TRUE|TRUE
5601220|Aloft Tucson University|Tucson, AZ| 181|32.23575|-110.94326|FALSE|TRUE|TRUE|TRUE
5601220|Travel Inn|Tucson, AZ|  81|32.11720|-110.86047|TRUE|FALSE|FALSE|TRUE
5601220|Ramada by Wyndham Tucson|Tucson, AZ| 104|32.21628|-110.98119|FALSE|FALSE|TRUE|TRUE
5601220|Hotel Tucson City Center, Ascend Hotel Collection|Tucson, AZ| 120|32.22622|-110.97912|FALSE|TRUE|TRUE|TRUE
5601220|GLH Hotel|Tucson, AZ|  82|32.24987|-110.99386|TRUE|FALSE|FALSE|TRUE
5601220|Graduate Tucson|Tucson, AZ| 168|32.23282|-110.95767|FALSE|TRUE|TRUE|TRUE
5601220|Ramada by Wyndham Viscount Suites Tucson East|Tucson, AZ|  85|32.22223|-110.88847|TRUE|FALSE|FALSE|TRUE
5601220|Quality Inn Tucson Airport - East Valencia|Tucson, AZ|  78|32.13453|-110.92957|TRUE|FALSE|FALSE|TRUE
5601220|Quality Inn near Downtown Tucson|Tucson, AZ|  71|32.22187|-110.97127|TRUE|TRUE|FALSE|TRUE
5601220|AC Hotel by Marriott Tucson Downtown|Tucson, AZ| 447|32.22152|-110.96749|FALSE|TRUE|TRUE|TRUE
5601220|Best Western Royal Sun Inn & Suites|Tucson, AZ| 101|32.23488|-110.97199|FALSE|TRUE|FALSE|TRUE
5601220|DoubleTree by Hilton Tucson Downtown Convention Center|Tucson, AZ| 503|32.21732|-110.97321|FALSE|TRUE|TRUE|TRUE
5601220|3 Palms Tucson North Foothills|Tucson, AZ|  86|32.34139|-110.97772|TRUE|FALSE|FALSE|TRUE
5601220|The Tuxon Hotel, Tucson, a Member of Design Hotels|Tucson, AZ| 137|32.20999|-110.98072|FALSE|FALSE|TRUE|TRUE
5601220|DoubleTree Suites by Hilton Tucson - Williams Center|Tucson, AZ| 128|32.22206|-110.87831|FALSE|FALSE|TRUE|TRUE
5601220|Days Inn by Wyndham Tucson Airport|Tucson, AZ|  77|32.16423|-110.91671|TRUE|FALSE|FALSE|TRUE
5601220|Econo Lodge near the University of Arizona|Tucson, AZ|  74|32.23188|-110.95011|TRUE|TRUE|FALSE|TRUE
5601220|Days Inn Tucson City Center|Tucson, AZ|  84|32.23119|-110.98414|TRUE|FALSE|FALSE|TRUE
5601220|Stone Inn U of A|Tucson, AZ| 105|32.23820|-110.97141|FALSE|TRUE|TRUE|TRUE
5601220|DoubleTree by Hilton Tucson - Reid Park|Tucson, AZ| 169|32.21500|-110.90842|FALSE|FALSE|TRUE|TRUE
5601220|Hotel McCoy - Art, Coffee, Beer, Wine|Tucson, AZ| 104|32.19975|-110.98054|FALSE|FALSE|TRUE|TRUE
5601220|Red Roof Inn Tucson Downtown – University|Tucson, AZ|  80|32.23879|-110.97157|TRUE|TRUE|FALSE|TRUE
5601252|Signature Inn Oakland|Berkeley, CA| 113|37.82909|-122.25522|TRUE|FALSE|FALSE|TRUE
5601252|The Clancy, Autograph Collection|Berkeley, CA| 511|37.78588|-122.39690|FALSE|FALSE|TRUE|TRUE
5601252|Hotel North Beach|Berkeley, CA|  80|37.87152|-122.27304|TRUE|TRUE|FALSE|TRUE
5601252|San Remo Hotel|Berkeley, CA| 118|37.80429|-122.41360|TRUE|FALSE|FALSE|TRUE
5601252|La Quinta Inn by Wyndham Berkeley|Berkeley, CA| 121|37.86797|-122.29574|FALSE|TRUE|FALSE|TRUE
5601252|Europa Hotel|Berkeley, CA|  78|37.79814|-122.40687|TRUE|FALSE|FALSE|TRUE
5601252|1 Hotel San Francisco|Berkeley, CA| 650|37.79359|-122.39305|FALSE|FALSE|TRUE|TRUE
5601252|SureStay Plus Hotel by Best Western Point Richmond|Berkeley, CA| 101|37.92652|-122.37889|TRUE|FALSE|FALSE|TRUE
5601252|Quality Inn University|Berkeley, CA| 123|37.87145|-122.27639|FALSE|TRUE|FALSE|TRUE
5601252|Harbor Court Hotel|Berkeley, CA| 547|37.79259|-122.39218|FALSE|FALSE|TRUE|TRUE
5601252|Hotel Shattuck Plaza|Berkeley, CA| 193|37.86918|-122.26849|FALSE|TRUE|TRUE|TRUE
5601252|Omni San Francisco Hotel|Berkeley, CA| 408|37.79296|-122.40313|FALSE|FALSE|TRUE|TRUE
5601252|Hyatt Regency San Francisco|Berkeley, CA| 622|37.79422|-122.39567|FALSE|FALSE|TRUE|TRUE
5601252|Berkeley City Club|Berkeley, CA| 225|37.86749|-122.26276|FALSE|TRUE|TRUE|TRUE
5601252|Jack London Inn|Berkeley, CA|  87|37.79532|-122.27602|TRUE|FALSE|FALSE|TRUE
5601252|Bay Breeze Inn|Berkeley, CA| 116|37.76396|-122.21570|TRUE|FALSE|FALSE|TRUE
5601252|Radisson Hotel Oakland Airport|Berkeley, CA| 103|37.74201|-122.19492|TRUE|FALSE|FALSE|TRUE
5601252|Rodeway Inn|Berkeley, CA| 100|37.87052|-122.28325|TRUE|TRUE|FALSE|TRUE
5601252|Graduate Berkeley|Berkeley, CA| 166|37.86792|-122.25631|FALSE|TRUE|FALSE|TRUE
5601252|Residence Inn by Marriott Berkeley|Berkeley, CA| 189|37.87076|-122.26719|FALSE|TRUE|FALSE|TRUE
5601252|Le Meridien San Francisco|Berkeley, CA| 396|37.79471|-122.40073|FALSE|FALSE|TRUE|TRUE
5601252|Hyatt Place Emeryville/San Francisco Bay Area|Berkeley, CA| 191|37.83732|-122.29222|FALSE|FALSE|TRUE|TRUE
5601252|Aiden by Best Western @ Berkeley|Berkeley, CA| 162|37.87054|-122.28218|FALSE|TRUE|FALSE|TRUE
5601252|Four Seasons Hotel San Francisco at Embarcadero|Berkeley, CA| 648|37.79246|-122.40079|FALSE|FALSE|TRUE|TRUE
5601252|Nash Hotel|Berkeley, CA| 134|37.87223|-122.26955|FALSE|TRUE|FALSE|TRUE
5601252|Civic Center Lodge|Berkeley, CA| 103|37.79535|-122.26516|TRUE|FALSE|FALSE|TRUE
5601292|Empire Studios By Barsala|Pullman, WA| 219|46.72978|-117.18174|FALSE|TRUE|TRUE|TRUE
5601292|Hotel McCoy - Art, Coffee, Beer, Wine|Pullman, WA| 120|46.72914|-117.17718|TRUE|TRUE|TRUE|TRUE
5601292|Holiday Inn Express And Suites Pullman, an IHG Hotel|Pullman, WA| 135|46.71599|-117.16699|TRUE|TRUE|TRUE|TRUE
5601292|Coast Hilltop Inn|Pullman, WA| 110|46.73252|-117.19249|TRUE|TRUE|TRUE|TRUE
5601292|American Travel Inn|Pullman, WA|  70|46.72611|-117.18555|TRUE|TRUE|FALSE|TRUE
5601292|Quality Inn Paradise Creek|Pullman, WA|  80|46.72054|-117.16316|TRUE|TRUE|FALSE|TRUE
5601292|Residence Inn Pullman|Pullman, WA| 149|46.73899|-117.15119|FALSE|TRUE|TRUE|TRUE
5601292|Cougar Land Motel|Pullman, WA|  66|46.73009|-117.18242|TRUE|TRUE|FALSE|TRUE
5601292|Empire Apartments By Barsala|Pullman, WA| 207|46.72978|-117.18174|FALSE|TRUE|TRUE|TRUE
5601292|Best Western Plus University Inn|Pullman, WA| 129|46.73341|-117.02370|TRUE|FALSE|TRUE|TRUE
5601292|FairBridge Inn - Moscow|Pullman, WA|  78|46.73389|-117.02137|TRUE|FALSE|FALSE|TRUE
5601292|Monarch Motel|Pullman, WA| 146|46.73040|-117.00231|FALSE|FALSE|TRUE|TRUE
5601292|Super 8 by Wyndham Moscow / Pullman|Pullman, WA|  81|46.73389|-117.01691|TRUE|FALSE|TRUE|TRUE
5601292|Courtyard by Marriott Pullman|Pullman, WA| 122|46.73995|-117.15026|TRUE|TRUE|TRUE|TRUE
5601318|Rodeway Inn Willamette River|Corvallis, OR|  85|44.56630|-123.25790|TRUE|TRUE|TRUE|TRUE
5601318|Courtyard by Marriott Corvallis|Corvallis, OR| 271|44.56043|-123.26086|FALSE|TRUE|TRUE|TRUE
5601318|Hilton Garden Inn Corvallis|Corvallis, OR| 207|44.55772|-123.27843|TRUE|TRUE|TRUE|TRUE
5601318|Hotel Corvallis|Corvallis, OR| 135|44.56220|-123.26377|TRUE|TRUE|TRUE|TRUE
5601318|Super 8 by Wyndham Corvallis|Corvallis, OR| 109|44.56739|-123.25737|TRUE|TRUE|TRUE|TRUE
5601318|Holiday Inn Express Corvallis-On the River, an IHG Hotel|Corvallis, OR| 182|44.57086|-123.25585|TRUE|TRUE|TRUE|TRUE
5601318|Best Western Corvallis|Corvallis, OR| 144|44.58362|-123.25871|TRUE|TRUE|TRUE|TRUE
5601318|Days Inn by Wyndham Corvallis|Corvallis, OR|  96|44.57641|-123.26017|TRUE|TRUE|TRUE|TRUE
5601318|Galaxie Motel|Corvallis, OR|  78|44.53967|-123.35769|TRUE|FALSE|FALSE|TRUE
5601318|Econo Lodge Corvallis Near University|Corvallis, OR|  97|44.58360|-123.25957|TRUE|TRUE|TRUE|TRUE
5601318|Comfort Suites|Corvallis, OR| 129|44.58410|-123.25942|TRUE|TRUE|TRUE|TRUE
5606035|Sleep Inn And Suites Laurel|College Park, MD|  82|39.10618| -76.83862|TRUE|FALSE|FALSE|TRUE
5606035|Residence Inn by Marriott Washington Downtown/Convention Center|College Park, MD| 609|38.90437| -77.02423|FALSE|FALSE|TRUE|TRUE
5606035|Red Roof Inn Washington DC - College Park|College Park, MD| 102|39.00537| -76.92962|FALSE|TRUE|FALSE|TRUE
5606035|Eaton DC|College Park, MD| 620|38.90280| -77.02846|FALSE|FALSE|TRUE|TRUE
5606035|The Hotel at the University of Maryland|College Park, MD| 186|38.98694| -76.93571|FALSE|TRUE|FALSE|TRUE
5606035|Cambria Hotel College Park|College Park, MD| 147|38.99322| -76.93242|FALSE|TRUE|FALSE|TRUE
5606035|College Park Marriott Hotel & Conference Center|College Park, MD| 151|38.98637| -76.95444|FALSE|TRUE|FALSE|TRUE
5606035|Courtyard by Marriott Washington Downtown/Convention Center|College Park, MD| 539|38.90437| -77.02459|FALSE|FALSE|TRUE|TRUE
5606035|Howard Johnson by Wyndham College Park|College Park, MD|  95|39.00441| -76.92960|TRUE|TRUE|FALSE|TRUE
5606035|InterContinental Washington D.C. - The Wharf, an IHG Hotel|College Park, MD| 545|38.87936| -77.02490|FALSE|FALSE|TRUE|TRUE
5606035|Pendry Washington DC - The Wharf|College Park, MD| 741|38.98970| -76.93776|FALSE|TRUE|TRUE|TRUE
5606035|Quality Inn Takoma Park|College Park, MD|  94|38.98395| -76.98675|TRUE|FALSE|FALSE|TRUE
5606035|Waldorf Astoria Washington DC|College Park, MD| 929|38.89411| -77.02758|FALSE|FALSE|TRUE|TRUE
5606035|Washington Marriott at Metro Center|College Park, MD| 631|38.89931| -77.02804|FALSE|FALSE|TRUE|TRUE
5606035|Extended Stay America Suites Washington DC Landover|College Park, MD|  97|38.98970| -76.93776|FALSE|TRUE|FALSE|TRUE
5606035|Red Roof Inn Washington DC - Lanham|College Park, MD|  86|38.96478| -76.85962|TRUE|FALSE|FALSE|TRUE
5606035|Canopy by Hilton Washington DC The Wharf|College Park, MD| 579|38.87886| -77.02350|FALSE|FALSE|TRUE|TRUE
5606035|Kimpton George Hotel, an IHG Hotel|College Park, MD| 547|38.89633| -77.00989|FALSE|FALSE|TRUE|TRUE
5606035|Red Roof Inn Washington DC - Laurel|College Park, MD|  73|39.06305| -76.83745|TRUE|FALSE|FALSE|TRUE
5606035|Best Western Capital Beltway|College Park, MD|  91|38.96184| -76.86511|TRUE|FALSE|FALSE|TRUE
5606035|Salamander Washington DC|College Park, MD| 630|38.98970| -76.93776|FALSE|TRUE|TRUE|TRUE
5606035|Days Inn by Wyndham Lanham Washington D.C|College Park, MD|  96|38.96226| -76.86088|TRUE|FALSE|FALSE|TRUE
5606035|Comfort Inn College Park North|College Park, MD|  85|39.04968| -76.93597|TRUE|FALSE|FALSE|TRUE
5606035|WoodSpring Suites Washington DC East Arena Drive|College Park, MD|  88|38.90793| -76.85133|TRUE|FALSE|FALSE|TRUE
5606035|Best Western Plus College Park Hotel|College Park, MD| 121|38.99396| -76.93216|FALSE|TRUE|FALSE|TRUE
5606035|Days Inn by Wyndham College Park|College Park, MD|  91|39.00442| -76.93000|TRUE|TRUE|FALSE|TRUE
5612248|Clarion Hotel Philadelphia International Airport|Philadelphia, PA| 115|39.86626| -75.31162|TRUE|FALSE|FALSE|TRUE
5612248|Wyndham Philadelphia Historic District|Philadelphia, PA| 118|39.95196| -75.14741|FALSE|TRUE|FALSE|TRUE
5612248|AKA Rittenhouse Square|Philadelphia, PA| 367|39.95039| -75.17040|FALSE|TRUE|FALSE|TRUE
5612248|Days Inn by Wyndham Springfield/Phil.Intl Airport|Philadelphia, PA|  99|39.91948| -75.32802|TRUE|FALSE|FALSE|TRUE
5612248|The Logan Philadelphia, Curio Collection by Hilton|Philadelphia, PA| 641|39.95693| -75.17027|FALSE|FALSE|TRUE|TRUE
5612248|Parkway Inn|Philadelphia, PA|  95|39.91875| -75.32845|TRUE|FALSE|FALSE|TRUE
5612248|Super 8 by Wyndham Gloucester|Philadelphia, PA| 120|39.95258| -75.16522|FALSE|TRUE|FALSE|TRUE
5612248|Philly Inn & Suites|Philadelphia, PA| 131|39.95258| -75.16522|FALSE|TRUE|FALSE|TRUE
5612248|Radisson Hotel Philadelphia, PA|Philadelphia, PA|  99|39.94917| -75.16954|TRUE|TRUE|FALSE|TRUE
5612248|Red Carpet Inn Philadelphia Airport|Philadelphia, PA|  76|39.87242| -75.28119|TRUE|FALSE|FALSE|TRUE
5612248|Philadelphia Airport Marriott|Philadelphia, PA| 395|39.87784| -75.24443|FALSE|FALSE|TRUE|TRUE
5612248|The Westin Philadelphia|Philadelphia, PA| 434|39.95211| -75.16849|FALSE|TRUE|TRUE|TRUE
5612248|Red Roof Inn PLUS+ Philadelphia Airport|Philadelphia, PA|  92|39.86820| -75.30609|TRUE|FALSE|FALSE|TRUE
5612248|Wyndham Garden Philadelphia Airport|Philadelphia, PA| 101|39.86764| -75.30377|TRUE|FALSE|FALSE|TRUE
5612248|The Ritz-Carlton, Philadelphia|Philadelphia, PA| 531|39.95128| -75.16427|FALSE|TRUE|TRUE|TRUE
5612248|Days Inn by Wyndham Runnemede Philadelphia Area|Philadelphia, PA|  80|39.85779| -75.07254|TRUE|FALSE|FALSE|TRUE
5612248|BnB Philadelphia - Boutique Hotel|Philadelphia, PA| 626|39.97993| -75.12262|FALSE|FALSE|TRUE|TRUE
5612248|Extended Stay America Suites Philadelphia Cherry Hill|Philadelphia, PA| 109|39.88385| -75.24823|TRUE|FALSE|FALSE|TRUE
5612248|Guild House Hotel|Philadelphia, PA| 424|39.94819| -75.16268|FALSE|TRUE|TRUE|TRUE
5612248|AKA University City|Philadelphia, PA| 477|39.95191| -75.18365|FALSE|TRUE|TRUE|TRUE
5612248|Travelodge by Wyndham Bellmawr|Philadelphia, PA|  86|39.86208| -75.07705|TRUE|FALSE|FALSE|TRUE
5612248|Four Seasons Hotel Philadelphia at Comcast Center|Philadelphia, PA|1030|39.95509| -75.17090|FALSE|FALSE|TRUE|TRUE
5612248|The Inn at Penn, A Hilton Hotel|Philadelphia, PA| 462|39.95378| -75.19578|FALSE|FALSE|TRUE|TRUE
5612248|The Rittenhouse Philadelphia|Philadelphia, PA| 837|39.94966| -75.16482|FALSE|TRUE|TRUE|TRUE
5622440|Baymont by Wyndham Indianapolis West|Indianapolis, IN|  75|39.82521| -86.27816|TRUE|FALSE|FALSE|TRUE
5622440|Bottleworks Hotel|Indianapolis, IN| 309|39.77909| -86.14340|FALSE|FALSE|TRUE|TRUE
5622440|Hyatt Regency Indianapolis|Indianapolis, IN| 256|39.76636| -86.16082|FALSE|TRUE|TRUE|TRUE
5622440|Extended Stay America Suites Indianapolis Airport|Indianapolis, IN|  76|39.72538| -86.26306|TRUE|FALSE|FALSE|TRUE
5622440|Embassy Suites by Hilton Indianapolis Downtown|Indianapolis, IN| 259|39.76759| -86.16042|FALSE|FALSE|TRUE|TRUE
5622440|Rodeway Inn|Indianapolis, IN|  73|39.82140| -86.04500|TRUE|FALSE|FALSE|TRUE
5622440|Days Inn by Wyndham Indianapolis East Post Road|Indianapolis, IN|  71|39.79823| -86.01011|TRUE|FALSE|FALSE|TRUE
5622440|Hyatt Place Indianapolis Downtown|Indianapolis, IN| 236|39.76461| -86.15676|FALSE|TRUE|TRUE|TRUE
5622440|Conrad Indianapolis|Indianapolis, IN| 408|39.76743| -86.15920|FALSE|FALSE|TRUE|TRUE
5622440|Marriott Indianapolis Downtown|Indianapolis, IN| 230|39.76663| -86.16481|FALSE|TRUE|TRUE|TRUE
5622440|Baymont by Wyndham Indianapolis South|Indianapolis, IN|  76|39.66665| -86.09288|TRUE|FALSE|FALSE|TRUE
5622440|Royal Inn|Indianapolis, IN|  63|39.76840| -86.15807|TRUE|FALSE|FALSE|TRUE
5622440|Quality Inn & Suites|Indianapolis, IN|  69|39.84322| -86.25248|TRUE|FALSE|FALSE|TRUE
5622440|Holiday Inn Indianapolis Downtown, an IHG Hotel|Indianapolis, IN| 177|39.76010| -86.16702|FALSE|TRUE|FALSE|TRUE
5622440|Extended Stay America Suites Indianapolis Airport W Southern|Indianapolis, IN|  63|39.72960| -86.25363|TRUE|FALSE|FALSE|TRUE
5622440|Omni Severin Hotel|Indianapolis, IN| 223|39.76381| -86.15980|FALSE|TRUE|TRUE|TRUE
5622440|Quality Inn South|Indianapolis, IN|  74|39.69870| -86.18827|TRUE|FALSE|FALSE|TRUE
5622440|Studio 6 Indianapolis, IN|Indianapolis, IN|  69|39.82268| -86.27231|TRUE|FALSE|FALSE|TRUE
5622440|Courtyard by Marriott Indianapolis Downtown|Indianapolis, IN| 177|39.76683| -86.16909|FALSE|TRUE|FALSE|TRUE
5622440|JW Marriott Indianapolis|Indianapolis, IN| 268|39.76659| -86.16769|FALSE|TRUE|TRUE|TRUE
5622440|Hampton Inn Indianapolis Downtown Across from Circle Centre|Indianapolis, IN| 195|39.76541| -86.15764|FALSE|TRUE|FALSE|TRUE
5622440|Hilton Garden Inn Indianapolis Downtown|Indianapolis, IN| 248|39.76869| -86.15659|FALSE|FALSE|TRUE|TRUE
5622440|Hyatt House Indianapolis Downtown|Indianapolis, IN| 262|39.76469| -86.15685|FALSE|TRUE|TRUE|TRUE
5622440|Tru By Hilton Indianapolis Downtown, IN|Indianapolis, IN| 138|39.75889| -86.15967|FALSE|TRUE|FALSE|TRUE
5629812|Millennium Durham|Durham, NC| 104|35.88740| -78.85642|FALSE|TRUE|TRUE|TRUE
5629812|Extended Stay America Suites Raleigh RTP Hwy 55|Durham, NC|  81|35.89917| -78.86364|TRUE|TRUE|FALSE|TRUE
5629812|Sonesta Select Durham Research Triangle Park|Durham, NC|  87|35.90473| -78.89610|TRUE|TRUE|FALSE|TRUE
5629812|SpringHill Suites by Marriott Durham City View|Durham, NC| 149|35.98832| -78.90361|FALSE|FALSE|TRUE|TRUE
5629812|Wingate by Wyndham Raleigh Durham Airport RTP|Durham, NC|  96|35.87982| -78.84463|FALSE|FALSE|TRUE|TRUE
5629812|SureStay Plus Hotel by Best Western Durham Medical Center|Durham, NC|  72|36.02502| -78.95610|TRUE|FALSE|FALSE|TRUE
5629812|Days Inn by Wyndham Durham/Near Duke University|Durham, NC|  76|36.02151| -78.94786|TRUE|FALSE|FALSE|TRUE
5629812|Candlewood Suites Durham, an IHG Hotel|Durham, NC|  96|35.90213| -78.89981|FALSE|TRUE|TRUE|TRUE
5629812|Hilton Garden Inn Durham Southpoint|Durham, NC| 149|35.90235| -78.93862|FALSE|TRUE|TRUE|TRUE
5629812|Extended Stay America Suites Raleigh RDU Airport|Durham, NC|  86|35.88008| -78.78800|TRUE|FALSE|FALSE|TRUE
5629812|Comfort Inn Research Triangle Park|Durham, NC|  97|35.90767| -78.89302|FALSE|TRUE|TRUE|TRUE
5629812|Residence Inn by Marriott Durham-Research Triangle Park|Durham, NC| 173|35.90404| -78.89740|FALSE|TRUE|TRUE|TRUE
5629812|La Quinta Inn & Suites by Wyndham Raleigh/Durham Southpoint|Durham, NC|  78|35.90759| -78.89143|TRUE|TRUE|FALSE|TRUE
5629812|Microtel Inn by Wyndham Raleigh Durham Airport|Durham, NC|  89|35.86171| -78.81794|TRUE|FALSE|FALSE|TRUE
5629812|Comfort Suites Raleigh Durham Airport/Research Triangle Park|Durham, NC|  96|35.88026| -78.84364|FALSE|FALSE|TRUE|TRUE
5629812|Extended Stay America Suites Raleigh RTP 4919 Miami Blvd|Durham, NC|  86|35.88787| -78.84862|TRUE|FALSE|FALSE|TRUE
5629812|OYO Hotel Durham West Hills|Durham, NC|  68|36.03443| -79.00769|TRUE|FALSE|FALSE|TRUE
5629812|Hyatt Place Durham Southpoint|Durham, NC| 148|35.90075| -78.96151|FALSE|TRUE|TRUE|TRUE
5629812|Rizzo Center, a Destination by Hyatt Hotel|Durham, NC| 405|35.91237| -79.00462|FALSE|FALSE|TRUE|TRUE
5629812|Sleep Inn Raleigh Durham Airport|Durham, NC|  90|35.88190| -78.84218|TRUE|FALSE|FALSE|TRUE
5629812|DoubleTree Suites by Hilton Raleigh-Durham|Durham, NC| 153|35.90972| -78.89691|FALSE|TRUE|TRUE|TRUE
5629812|Graduate Chapel Hill|Durham, NC| 150|35.91128| -79.06018|FALSE|FALSE|TRUE|TRUE
5631467|WoodSpring Suites Miramar|Miami Gardens, FL| 124|25.97539| -80.29685|FALSE|TRUE|FALSE|TRUE
5631467|Hollywood Beachside Boutique Suites|Miami Gardens, FL|  90|26.01577| -80.11704|TRUE|FALSE|FALSE|TRUE
5631467|Stadium Hotel|Miami Gardens, FL| 141|25.95790| -80.23885|FALSE|TRUE|FALSE|TRUE
5631467|Hollywood Beach Suites, a South Beach Group Hotel|Miami Gardens, FL| 102|25.77903| -80.13172|TRUE|FALSE|FALSE|TRUE
5631467|The Ritz-Carlton Bal Harbour, Miami|Miami Gardens, FL| 943|25.89900| -80.12330|FALSE|FALSE|TRUE|TRUE
5631467|Margaritaville Hollywood Beach Resort|Miami Gardens, FL| 521|26.01878| -80.11674|FALSE|FALSE|TRUE|TRUE
5631467|Acqualina Resort & Residences On The Beach|Miami Gardens, FL|1130|25.94082| -80.12092|FALSE|FALSE|TRUE|TRUE
5631467|Hollywood Beach Hotels|Miami Gardens, FL|  78|25.94204| -80.24560|TRUE|TRUE|FALSE|TRUE
5631467|Travelodge by Wyndham Miami Biscayne Bay|Miami Gardens, FL|  91|25.82499| -80.18661|TRUE|FALSE|FALSE|TRUE
5631467|Diplomat Beach Resort Hollywood, Curio Collection by Hilton|Miami Gardens, FL| 415|25.99191| -80.11828|FALSE|FALSE|TRUE|TRUE
5631467|The Clevelander|Miami Gardens, FL|  92|25.78078| -80.13098|TRUE|FALSE|FALSE|TRUE
5631467|Greniers|Miami Gardens, FL|  85|26.02505| -80.11578|TRUE|FALSE|FALSE|TRUE
5631467|Miami Gardens Inn & Suites|Miami Gardens, FL| 121|25.94204| -80.24560|FALSE|TRUE|FALSE|TRUE
5631467|Grand Beach Hotel Surfside|Miami Gardens, FL| 502|25.88445| -80.12222|FALSE|FALSE|TRUE|TRUE
5631467|Four Seasons Hotel at The Surf Club|Miami Gardens, FL|1969|25.87772| -80.12142|FALSE|FALSE|TRUE|TRUE
5631467|Miami Lakes Hotel|Miami Gardens, FL| 130|25.91206| -80.31126|FALSE|TRUE|FALSE|TRUE
5631467|Best Western Plus Hollywood/Aventura|Miami Gardens, FL| 153|25.98591| -80.16482|FALSE|TRUE|FALSE|TRUE
5631467|Seminole Hard Rock Hotel and Casino|Miami Gardens, FL| 414|26.05082| -80.21155|FALSE|FALSE|TRUE|TRUE
5631467|The Oasis Tower at Seminole Hard Rock|Miami Gardens, FL|1651|26.05187| -80.21052|FALSE|FALSE|TRUE|TRUE
5631467|Trump International Beach Resort|Miami Gardens, FL| 470|25.94320| -80.12061|FALSE|FALSE|TRUE|TRUE
5631467|SpringHill Suites by Marriott Fort Lauderdale Miramar|Miami Gardens, FL| 214|25.97424| -80.29263|FALSE|TRUE|TRUE|TRUE
5631467|Thunderbird Hotel|Miami Gardens, FL| 111|25.94204| -80.24560|FALSE|TRUE|FALSE|TRUE
5631467|Red Carpet Inn Airport/Cruiseport|Miami Gardens, FL|  73|26.08635| -80.17466|TRUE|FALSE|FALSE|TRUE
5631467|Casa Pellegrino|Miami Gardens, FL|  95|26.02446| -80.11617|TRUE|FALSE|FALSE|TRUE
5631467|Dream Inn|Miami Gardens, FL| 110|25.94204| -80.24560|FALSE|TRUE|FALSE|TRUE
5631467|May-Dee Suites|Miami Gardens, FL|  95|26.01073| -80.19495|TRUE|TRUE|FALSE|TRUE
5631467|Curtis Inn & Suites|Miami Gardens, FL| 102|25.99833| -80.14250|TRUE|FALSE|FALSE|TRUE
5637605|Microtel Inn & Suites By Wyndham Lynchburg|Lynchburg, VA| 109|37.36706| -79.18133|TRUE|TRUE|FALSE|TRUE
5637605|Comfort Inn & Suites Lynchburg Airport - University Area|Lynchburg, VA| 109|37.33285| -79.19097|TRUE|FALSE|FALSE|TRUE
5637605|Super 8 by Wyndham Lynchburg VA|Lynchburg, VA| 105|37.35926| -79.17133|TRUE|TRUE|FALSE|TRUE
5637605|Residence Inn by Marriott Lynchburg|Lynchburg, VA| 197|37.36260| -79.18089|FALSE|TRUE|TRUE|TRUE
5637605|SpringHill Suites by Marriott Lynchburg Airport/University Area|Lynchburg, VA| 144|37.33517| -79.19109|FALSE|FALSE|TRUE|TRUE
5637605|Hampton Inn & Suites Lynchburg|Lynchburg, VA| 158|37.33359| -79.19071|FALSE|FALSE|TRUE|TRUE
5637605|Affordable Corporate Suites - Lynchburg|Lynchburg, VA| 106|37.37224| -79.19801|TRUE|FALSE|FALSE|TRUE
5637605|Homewood Suites by Hilton Lynchburg|Lynchburg, VA| 174|37.34571| -79.18653|FALSE|TRUE|TRUE|TRUE
5637605|Craddock Terry Hotel, Lynchburg, a Tribute Portfolio Hotel|Lynchburg, VA| 212|37.41138| -79.13752|FALSE|FALSE|TRUE|TRUE
5637605|TRU by Hilton Lynchburg|Lynchburg, VA| 123|37.33972| -79.19835|FALSE|FALSE|TRUE|TRUE
5637605|Lynchburg Grand Hotel|Lynchburg, VA| 168|37.41677| -79.14477|FALSE|FALSE|TRUE|TRUE
5637605|The Virginian Lynchburg Curio Collection|Lynchburg, VA| 190|37.41546| -79.14407|FALSE|FALSE|TRUE|TRUE
5637605|Quality Inn Lynchburg near University|Lynchburg, VA|  99|37.36753| -79.18090|TRUE|TRUE|FALSE|TRUE
5637605|Extended Stay America Suites Lynchburg University Blvd|Lynchburg, VA| 107|37.35647| -79.17077|TRUE|TRUE|FALSE|TRUE
5637605|Hilton Garden Inn Lynchburg|Lynchburg, VA| 143|37.34490| -79.18715|FALSE|TRUE|TRUE|TRUE
5637605|Courtyard by Marriott Lynchburg|Lynchburg, VA| 151|37.36886| -79.17334|FALSE|TRUE|TRUE|TRUE
5637605|Sleep Inn Lynchburg - University Area & Hwy 460|Lynchburg, VA| 106|37.36377| -79.17078|TRUE|TRUE|FALSE|TRUE
5637605|WoodSpring Suites Lynchburg VA|Lynchburg, VA|  79|37.37068| -79.17706|TRUE|TRUE|FALSE|TRUE
5637605|Baymont by Wyndham Lynchburg|Lynchburg, VA|  87|37.36974| -79.18214|TRUE|FALSE|FALSE|TRUE
5637605|Knights Inn Madison Heights, VA|Lynchburg, VA|  83|37.48239| -79.11992|TRUE|FALSE|FALSE|TRUE
5646988|Days Inn by Wyndham San Antonio|San Antonio, TX|  60|29.52344| -98.39550|TRUE|FALSE|FALSE|TRUE
5646988|Deluxe Inn San Antonio|San Antonio, TX|  58|29.40391| -98.62514|TRUE|FALSE|FALSE|TRUE
5646988|O´Brien Historic Hotel|San Antonio, TX| 174|29.42150| -98.49057|FALSE|TRUE|TRUE|TRUE
5646988|Star Inn Hotel Seaworld San Antonio|San Antonio, TX|  60|29.46722| -98.61688|TRUE|FALSE|FALSE|TRUE
5646988|Econo Lodge|San Antonio, TX|  60|29.57262| -98.59237|TRUE|FALSE|FALSE|TRUE
5646988|Red Roof Inn PLUS+ San Antonio Downtown - Riverwalk|San Antonio, TX| 137|29.42559| -98.48083|FALSE|TRUE|TRUE|TRUE
5646988|Quality Inn near SeaWorld - Lackland|San Antonio, TX|  61|29.43952| -98.64256|TRUE|FALSE|FALSE|TRUE
5646988|Thompson San Antonio – Riverwalk|San Antonio, TX| 451|29.43169| -98.48904|FALSE|FALSE|TRUE|TRUE
5646988|Days Inn by Wyndham San Antonio Alamo/Riverwalk|San Antonio, TX|  94|29.42615| -98.48274|FALSE|TRUE|FALSE|TRUE
5646988|Marriott San Antonio Riverwalk|San Antonio, TX| 642|29.42235| -98.48450|FALSE|TRUE|TRUE|TRUE
5646988|La Quinta Inn by Wyndham San Antonio South Park|San Antonio, TX|  61|29.35521| -98.52597|TRUE|FALSE|FALSE|TRUE
5646988|Best Western Premier Historic Travelers Hotel Alamo Riverwalk|San Antonio, TX| 157|29.42809| -98.48717|FALSE|TRUE|TRUE|TRUE
5646988|Hotel Contessa|San Antonio, TX| 413|29.42310| -98.48982|FALSE|TRUE|TRUE|TRUE
5646988|Omni La Mansion del Rio|San Antonio, TX| 498|29.42549| -98.49043|FALSE|TRUE|TRUE|TRUE
5646988|Super 8 by Wyndham San Antonio Downtown NE|San Antonio, TX|  61|29.45277| -98.41889|TRUE|FALSE|FALSE|TRUE
5646988|Extended Stay SA|San Antonio, TX|  57|29.56888| -98.47979|TRUE|FALSE|FALSE|TRUE
5646988|Flex Studios|San Antonio, TX|  56|29.52851| -98.56124|TRUE|FALSE|FALSE|TRUE
5646988|Quality Inn Near Medical Center|San Antonio, TX|  58|29.48781| -98.58071|TRUE|FALSE|FALSE|TRUE
5646988|Hampton Inn San Antonio-Downtown (River Walk)|San Antonio, TX| 215|29.42567| -98.49281|FALSE|FALSE|TRUE|TRUE
5646988|Super 8 by Wyndham San Antonio Near SeaWorld Ingram Park|San Antonio, TX|  57|29.45276| -98.62805|TRUE|FALSE|FALSE|TRUE
5646988|Hyatt Regency San Antonio Riverwalk|San Antonio, TX| 374|29.42559| -98.48820|FALSE|TRUE|TRUE|TRUE
5646988|Days Inn by Wyndham San Antonio at Palo Alto|San Antonio, TX|  55|29.32889| -98.55163|TRUE|FALSE|FALSE|TRUE
5646988|Comfort Suites Alamo - Riverwalk|San Antonio, TX| 118|29.42672| -98.48103|FALSE|TRUE|FALSE|TRUE
5646988|Canopy by Hilton San Antonio Riverwalk|San Antonio, TX| 387|29.42504| -98.49144|FALSE|TRUE|TRUE|TRUE
5647020|La Quinta Inn by Wyndham Deerfield Beach I-95 at Hillsboro E|Boca Raton, FL|  96|26.31986| -80.10946|TRUE|FALSE|FALSE|TRUE
5647020|Holiday Inn Express Boca Raton-West, an IHG Hotel|Boca Raton, FL| 143|26.36714| -80.17284|TRUE|FALSE|FALSE|TRUE
5647020|Club Lux Resort By the Beach|Boca Raton, FL| 149|26.31756| -80.07880|TRUE|FALSE|FALSE|TRUE
5647020|Fort Lauderdale Marriott Pompano Beach Resort and Spa|Boca Raton, FL| 375|26.24912| -80.08600|FALSE|FALSE|TRUE|TRUE
5647020|Embassy Suites Boca Raton|Boca Raton, FL| 191|26.39750| -80.09604|FALSE|TRUE|FALSE|TRUE
5647020|Honu Cove|Boca Raton, FL| 112|26.30893| -80.07807|TRUE|FALSE|FALSE|TRUE
5647020|Wyndham Boca Raton Hotel|Boca Raton, FL| 220|26.36705| -80.12324|FALSE|TRUE|FALSE|TRUE
5647020|Boca Raton Marriott at Boca Center|Boca Raton, FL| 575|26.36180| -80.12268|FALSE|TRUE|TRUE|TRUE
5647020|Sonesta Select Boca Raton|Boca Raton, FL| 134|26.36908| -80.12257|TRUE|TRUE|FALSE|TRUE
5647020|Fairfield Inn And Suites By Marriott Boca Raton|Boca Raton, FL| 191|26.38041| -80.10983|FALSE|TRUE|FALSE|TRUE
5647020|Sands Harbor Resort and Marina|Boca Raton, FL| 119|26.23400| -80.09259|TRUE|FALSE|FALSE|TRUE
5647020|Extended Stay America Suites Boca Raton Commerce|Boca Raton, FL| 134|26.41875| -80.09115|TRUE|FALSE|FALSE|TRUE
5647020|Beach Club at The Boca Raton|Boca Raton, FL| 837|26.34195| -80.07750|FALSE|TRUE|TRUE|TRUE
5647020|Residence Inn Fort Lauderdale Pompano Beach / Oceanfront|Boca Raton, FL| 436|26.25006| -80.08611|FALSE|FALSE|TRUE|TRUE
5647020|Home2 Suites by Hilton Pompano Beach Pier|Boca Raton, FL| 462|26.23524| -80.09041|FALSE|FALSE|TRUE|TRUE
5647020|Opal Grand Oceanfront Resort & Spa|Boca Raton, FL| 429|26.46242| -80.05896|FALSE|FALSE|TRUE|TRUE
5647020|Best Western Plus University Inn|Boca Raton, FL| 186|26.37527| -80.07582|FALSE|TRUE|FALSE|TRUE
5647020|Royal Blues Hotel|Boca Raton, FL| 603|26.31481| -80.07597|FALSE|FALSE|TRUE|TRUE
5647020|Quality Inn Boca Raton University Area|Boca Raton, FL| 146|26.37730| -80.07694|TRUE|TRUE|FALSE|TRUE
5647020|Tower at The Boca Raton|Boca Raton, FL|1001|26.33989| -80.07857|FALSE|FALSE|TRUE|TRUE
5647020|Towneplace Suites by Marriott Boca Raton|Boca Raton, FL| 153|26.39512| -80.09753|FALSE|TRUE|FALSE|TRUE
5647020|Boca Suites Deerfield Beach|Boca Raton, FL| 138|26.32151| -80.11282|TRUE|FALSE|FALSE|TRUE
5647020|Aloft Delray Beach|Boca Raton, FL| 411|26.45772| -80.06826|FALSE|FALSE|TRUE|TRUE
5647020|Hyatt Place Boca Raton/Downtown|Boca Raton, FL| 268|26.35002| -80.08599|FALSE|TRUE|FALSE|TRUE
5647020|Extended Stay America Suites Fort Lauderdale Deerfield Beach|Boca Raton, FL| 145|26.30204| -80.11875|TRUE|FALSE|FALSE|TRUE
5647020|The Ray Hotel Delray Beach, Curio Collection by Hilton|Boca Raton, FL| 411|26.46593| -80.07099|FALSE|FALSE|TRUE|TRUE
5648506|HYATT house San Jose/Silicon Valley|San Jose, CA| 411|37.41657|-121.95295|FALSE|FALSE|TRUE|TRUE
5648506|Extended Studio Suites|San Jose, CA|  98|37.37558|-121.91870|TRUE|FALSE|FALSE|TRUE
5648506|Quality Inn Santa Clara Convention Center|San Jose, CA| 106|37.40705|-121.99828|TRUE|FALSE|FALSE|TRUE
5648506|Comfort Suites San Jose Airport|San Jose, CA| 110|37.36352|-121.91064|TRUE|FALSE|FALSE|TRUE
5648506|Signature Inn Santa Clara|San Jose, CA| 117|37.34493|-121.93227|TRUE|FALSE|FALSE|TRUE
5648506|Days Inn by Wyndham San Jose|San Jose, CA|  81|37.27739|-121.83400|TRUE|FALSE|FALSE|TRUE
5648506|Hyatt Place San Jose/Downtown|San Jose, CA| 190|37.33011|-121.89112|FALSE|TRUE|FALSE|TRUE
5648506|Hotel De Anza, a Destination by Hyatt Hotel|San Jose, CA| 229|37.33442|-121.89505|FALSE|TRUE|FALSE|TRUE
5648506|Arena Hotel|San Jose, CA| 104|37.33205|-121.90629|TRUE|TRUE|FALSE|TRUE
5648506|AC Hotel by Marriott San Jose Santa Clara|San Jose, CA| 450|37.38548|-121.98044|FALSE|FALSE|TRUE|TRUE
5648506|The Westin San Jose|San Jose, CA| 240|37.33102|-121.88736|FALSE|TRUE|FALSE|TRUE
5648506|SureStay Plus Hotel by Best Western San Jose Central City|San Jose, CA| 117|37.29679|-121.85323|TRUE|TRUE|FALSE|TRUE
5648506|Toll House Hotel Los Gatos|San Jose, CA| 386|37.22113|-121.98521|FALSE|FALSE|TRUE|TRUE
5648506|Cherry Orchard Inn|San Jose, CA| 124|37.35299|-122.00325|TRUE|FALSE|FALSE|TRUE
5648506|Santa Clara Marriott|San Jose, CA| 427|37.39058|-121.97423|FALSE|FALSE|TRUE|TRUE
5648506|Hilton San Jose|San Jose, CA| 351|37.32923|-121.89052|FALSE|TRUE|FALSE|TRUE
5648506|HYATT house Santa Clara|San Jose, CA| 404|37.39451|-121.94469|FALSE|FALSE|TRUE|TRUE
5648506|Pacific Motor Inn|San Jose, CA| 128|37.32968|-121.88453|FALSE|TRUE|FALSE|TRUE
5648506|Signia by Hilton San Jose|San Jose, CA| 380|37.33306|-121.88870|FALSE|TRUE|FALSE|TRUE
5648506|Hotel Valencia Santana Row|San Jose, CA| 617|37.32084|-121.94809|FALSE|FALSE|TRUE|TRUE
5648506|Wyndham Garden San Jose Airport|San Jose, CA| 118|37.36202|-121.90637|TRUE|FALSE|FALSE|TRUE
5648506|Four Points by Sheraton San Jose Downtown|San Jose, CA| 151|37.33212|-121.88811|FALSE|TRUE|FALSE|TRUE
5648506|Los Gatos Garden Inn Hotel|San Jose, CA| 124|37.22101|-121.98037|TRUE|FALSE|FALSE|TRUE
5648506|Courtyard by Marriott San Jose North/Silicon Valley|San Jose, CA| 401|37.41889|-121.95422|FALSE|FALSE|TRUE|TRUE
5648506|Clarion Inn Silicon Valley|San Jose, CA| 122|37.28592|-121.84227|TRUE|FALSE|FALSE|TRUE
5648506|Hotel Los Gatos|San Jose, CA| 484|37.22088|-121.97699|FALSE|FALSE|TRUE|TRUE
5648506|Aloft Cupertino|San Jose, CA| 384|37.32518|-122.03261|FALSE|FALSE|TRUE|TRUE
5648506|Ramada by Wyndham Sunnyvale/Silicon Valley|San Jose, CA| 124|37.39097|-121.99232|TRUE|FALSE|FALSE|TRUE
5648506|Aloft Sunnyvale|San Jose, CA| 444|37.37610|-122.02870|FALSE|FALSE|TRUE|TRUE
5648506|Best Western Lanai Garden Inn & Suites|San Jose, CA| 139|37.32018|-121.83027|FALSE|TRUE|FALSE|TRUE
5648532|Hampton Inn San Diego/Mission Valley|San Diego, CA| 152|32.75854|-117.18229|FALSE|FALSE|TRUE|TRUE
5648532|Ramada Suites by Wyndham San Diego|San Diego, CA| 100|32.76304|-117.15908|FALSE|TRUE|FALSE|TRUE
5648532|Heritage Inn San Diego|San Diego, CA|  87|32.75618|-117.21899|TRUE|FALSE|FALSE|TRUE
5648532|Super 8 by Wyndham San Diego Hotel Circle|San Diego, CA|  90|32.75996|-117.16633|FALSE|TRUE|FALSE|TRUE
5648532|Hotel Marisol Coronado|San Diego, CA| 351|32.68478|-117.18030|FALSE|FALSE|TRUE|TRUE
5648532|Days Inn by Wyndham Mission Valley Qualcomm Stadium/ SDSU|San Diego, CA|  86|32.78192|-117.08448|TRUE|TRUE|FALSE|TRUE
5648532|Found Hotel San Diego|San Diego, CA|  74|32.72576|-117.16744|TRUE|FALSE|FALSE|TRUE
5648532|Residence Inn by Marriott San Diego Downtown/Bayfront|San Diego, CA| 360|32.71696|-117.17182|FALSE|FALSE|TRUE|TRUE
5648532|Howard Johnson by Wyndham National City/San Diego South|San Diego, CA|  78|32.67770|-117.10830|TRUE|FALSE|FALSE|TRUE
5648532|Sheraton Mission Valley San Diego Hotel|San Diego, CA| 162|32.76501|-117.15053|FALSE|TRUE|TRUE|TRUE
5648532|Lodge at 32nd|San Diego, CA|  71|32.71352|-117.12548|TRUE|FALSE|FALSE|TRUE
5648532|Courtyard by Marriott San Diego Mission Valley/Hotel Circle|San Diego, CA| 134|32.75974|-117.16825|FALSE|TRUE|FALSE|TRUE
5648532|InterContinental San Diego, an IHG Hotel|San Diego, CA| 495|32.71645|-117.17183|FALSE|FALSE|TRUE|TRUE
5648532|E-Z 8 Motel Old Town|San Diego, CA|  78|32.75817|-117.20170|TRUE|FALSE|FALSE|TRUE
5648532|Hampton Inn San Diego-Downtown|San Diego, CA| 389|32.72121|-117.17056|FALSE|FALSE|TRUE|TRUE
5648532|Travelodge by Wyndham San Diego SeaWorld|San Diego, CA|  85|32.74743|-117.20733|TRUE|FALSE|FALSE|TRUE
5648532|Rodeway Inn San Diego Near SDSU|San Diego, CA|  87|32.78114|-117.08210|TRUE|TRUE|FALSE|TRUE
5648532|Beach Village at The Del, Curio Collection by Hilton|San Diego, CA|1101|32.68116|-117.17887|FALSE|FALSE|TRUE|TRUE
5648532|Hotel del Coronado, Curio Collection by Hilton|San Diego, CA| 518|32.68050|-117.17754|FALSE|FALSE|TRUE|TRUE
5648532|Days Inn by Wyndham San Diego Hotel Circle|San Diego, CA|  95|32.75979|-117.16719|FALSE|TRUE|FALSE|TRUE
5648532|Sunrise Inn San Diego|San Diego, CA|  83|32.72215|-117.23150|TRUE|FALSE|FALSE|TRUE
5648532|Extended Stay America Suites San Diego Mission Valley Stadiu|San Diego, CA| 144|32.77871|-117.16154|FALSE|TRUE|FALSE|TRUE
5648532|Extended Stay America Suites San Diego Fashion Valley|San Diego, CA| 123|32.77871|-117.16154|FALSE|TRUE|FALSE|TRUE
5648532|Carte Hotel San Diego Downtown, Curio Collection by Hilton|San Diego, CA| 384|32.71974|-117.16667|FALSE|FALSE|TRUE|TRUE
5648532|Shore House at The Del, Curio Collection by Hilton|San Diego, CA|1627|32.67988|-117.17712|FALSE|FALSE|TRUE|TRUE
5648532|Rodeway Inn National City San Diego South|San Diego, CA|  72|32.67718|-117.10835|TRUE|FALSE|FALSE|TRUE
5648532|Berkshire Motor Hotel|San Diego, CA| 121|32.75559|-117.13738|FALSE|TRUE|FALSE|TRUE
5648532|Rodeway Inn Lemon Grove San Diego East|San Diego, CA|  81|32.74300|-117.03717|TRUE|FALSE|FALSE|TRUE
5649201|Club Quarters Hotel Rittenhouse Square, Philadelphia|Philadelphia, PA| 168|39.95122| -75.16840|FALSE|TRUE|FALSE|TRUE
5649201|Extended Stay America Suites Philadelphia Cherry Hill|Philadelphia, PA| 109|39.88385| -75.24823|TRUE|FALSE|FALSE|TRUE
5649201|Clarion Hotel Philadelphia International Airport|Philadelphia, PA| 115|39.86626| -75.31162|TRUE|FALSE|FALSE|TRUE
5649201|AKA University City|Philadelphia, PA| 477|39.95191| -75.18365|FALSE|FALSE|TRUE|TRUE
5649201|Red Carpet Inn Philadelphia Airport|Philadelphia, PA|  76|39.87242| -75.28119|TRUE|FALSE|FALSE|TRUE
5649201|Days Inn by Wyndham Springfield/Phil.Intl Airport|Philadelphia, PA|  99|39.91948| -75.32802|TRUE|FALSE|FALSE|TRUE
5649201|AKA Rittenhouse Square|Philadelphia, PA| 367|39.95039| -75.17040|FALSE|TRUE|FALSE|TRUE
5649201|Parkway Inn|Philadelphia, PA|  95|39.91875| -75.32845|TRUE|FALSE|FALSE|TRUE
5649201|DoubleTree by Hilton Philadelphia Center City|Philadelphia, PA| 197|39.94792| -75.16413|FALSE|TRUE|FALSE|TRUE
5649201|Red Roof Inn PLUS+ Philadelphia Airport|Philadelphia, PA|  92|39.86820| -75.30609|TRUE|FALSE|FALSE|TRUE
5649201|Philadelphia Airport Marriott|Philadelphia, PA| 395|39.87784| -75.24443|FALSE|FALSE|TRUE|TRUE
5649201|Fairfield Inn by Marriott Philadelphia Airport|Philadelphia, PA| 146|39.94689| -75.16235|FALSE|TRUE|FALSE|TRUE
5649201|Courtyard Philadelphia South at The Navy Yard|Philadelphia, PA| 276|39.89545| -75.17173|FALSE|TRUE|FALSE|TRUE
5649201|The Rittenhouse Philadelphia|Philadelphia, PA| 837|39.94966| -75.16482|FALSE|TRUE|TRUE|TRUE
5649201|The Ritz-Carlton, Philadelphia|Philadelphia, PA| 531|39.95128| -75.16427|FALSE|FALSE|TRUE|TRUE
5649201|BnB Philadelphia - Boutique Hotel|Philadelphia, PA| 626|39.97993| -75.12262|FALSE|FALSE|TRUE|TRUE
5649201|The Logan Philadelphia, Curio Collection by Hilton|Philadelphia, PA| 641|39.95693| -75.17027|FALSE|FALSE|TRUE|TRUE
5649201|The Inn at Penn, A Hilton Hotel|Philadelphia, PA| 462|39.95378| -75.19578|FALSE|FALSE|TRUE|TRUE
5649201|Travelodge by Wyndham Bellmawr|Philadelphia, PA|  86|39.86208| -75.07705|TRUE|FALSE|FALSE|TRUE
5649201|The Westin Philadelphia|Philadelphia, PA| 434|39.95211| -75.16849|FALSE|FALSE|TRUE|TRUE
5649201|Days Inn by Wyndham Runnemede Philadelphia Area|Philadelphia, PA|  80|39.85779| -75.07254|TRUE|FALSE|FALSE|TRUE
5649201|Radisson Hotel Philadelphia, PA|Philadelphia, PA|  99|39.94917| -75.16954|TRUE|TRUE|FALSE|TRUE
5649201|Four Seasons Hotel Philadelphia at Comcast Center|Philadelphia, PA|1030|39.95509| -75.17090|FALSE|FALSE|TRUE|TRUE
5649201|Guild House Hotel|Philadelphia, PA| 424|39.94819| -75.16268|FALSE|TRUE|TRUE|TRUE
5649201|Wyndham Garden Philadelphia Airport|Philadelphia, PA| 101|39.86764| -75.30377|TRUE|FALSE|FALSE|TRUE
5649201|Warwick Hotel Rittenhouse Square|Philadelphia, PA| 203|39.94917| -75.16954|FALSE|TRUE|FALSE|TRUE
5649201|Sofitel Philadelphia at Rittenhouse Square|Philadelphia, PA| 250|39.95085| -75.16911|FALSE|TRUE|FALSE|TRUE
5649222|Renaissance Saint Elm Dallas Downtown Hotel|Dallas, TX| 387|32.78232| -96.79584|FALSE|FALSE|TRUE|TRUE
5649222|Studio 6 Suites - Dallas, TX - Downtown|Dallas, TX|  76|32.79831| -96.82576|TRUE|FALSE|FALSE|TRUE
5649222|Wingate by Wyndham Richardson/Dallas|Dallas, TX|  76|32.96898| -96.72201|TRUE|FALSE|FALSE|TRUE
5649222|Hilton Garden Inn Dallas Central Expy North Park Area, TX|Dallas, TX| 129|32.88662| -96.76885|FALSE|TRUE|TRUE|TRUE
5649222|HALL Arts Hotel Dallas, Curio Collection by Hilton|Dallas, TX| 446|32.78983| -96.79697|FALSE|TRUE|TRUE|TRUE
5649222|Marriott Dallas Uptown|Dallas, TX| 546|32.79895| -96.80716|FALSE|TRUE|TRUE|TRUE
5649222|Virgin Hotels Dallas|Dallas, TX| 436|32.79695| -96.82188|FALSE|TRUE|TRUE|TRUE
5649222|Dallas Marriott Downtown|Dallas, TX| 484|32.78721| -96.79525|FALSE|TRUE|TRUE|TRUE
5649222|Tropicana Inn and Suites|Dallas, TX|  63|32.86990| -96.91933|TRUE|FALSE|FALSE|TRUE
5649222|Hilton Anatole|Dallas, TX| 545|32.79984| -96.82915|FALSE|FALSE|TRUE|TRUE
5649222|Motel 6 Dallas, TX – Downtown |Dallas, TX|  75|32.75168| -96.81052|TRUE|FALSE|FALSE|TRUE
5649222|Studio 6 Dallas, TX|Dallas, TX|  74|32.85811| -96.88676|TRUE|FALSE|FALSE|TRUE
5649222|Arya Inn & Suites Farmers Branch|Dallas, TX|  70|32.83452| -96.99184|TRUE|FALSE|FALSE|TRUE
5649222|SpringHill Suites by Marriott Dallas Central Expressway|Dallas, TX| 119|32.88503| -96.77089|FALSE|TRUE|FALSE|TRUE
5649222|Hawthorn Suites by Wyndham Richardson|Dallas, TX|  64|32.97404| -96.72110|TRUE|FALSE|FALSE|TRUE
5649222|Quality Inn & Suites Dallas - Cityplace|Dallas, TX|  95|32.81461| -96.78887|FALSE|TRUE|FALSE|TRUE
5649222|Hilton Garden Inn Dallas/Market Center|Dallas, TX| 127|32.80189| -96.83311|FALSE|FALSE|TRUE|TRUE
5649222|Thompson Dallas|Dallas, TX| 748|32.77307| -96.49411|FALSE|FALSE|TRUE|TRUE
5649222|MainStay Suites Addison-Dallas|Dallas, TX|  68|32.95651| -96.82929|TRUE|FALSE|FALSE|TRUE
5649222|The Lumen|Dallas, TX| 393|32.84106| -96.78746|FALSE|TRUE|TRUE|TRUE
5649222|Extended Stay America Suites Dallas Greenville Avenue|Dallas, TX|  78|32.86713| -96.76684|FALSE|TRUE|FALSE|TRUE
5649222|Quality Suites Addison - Dallas|Dallas, TX|  63|32.95594| -96.83445|TRUE|FALSE|FALSE|TRUE
5649222|Super 8 by Wyndham Garland North Dallas Area|Dallas, TX|  62|32.87509| -96.68181|TRUE|FALSE|FALSE|TRUE
5649222|Tru by Hilton Dallas Downtown Market Center|Dallas, TX| 113|32.79933| -96.82148|FALSE|TRUE|FALSE|TRUE
5649230|Quality Inn & Suites Near Fairgrounds Ybor City|Tampa, FL| 100|27.96827| -82.40370|TRUE|FALSE|FALSE|TRUE
5649230|Econo Lodge Airport at RJ Stadium|Tampa, FL|  86|27.97587| -82.50333|TRUE|TRUE|FALSE|TRUE
5649230|Aloft Tampa Downtown|Tampa, FL| 456|27.94669| -82.46009|FALSE|FALSE|TRUE|TRUE
5649230|La Quinta Inn by Wyndham Tampa Bay Airport|Tampa, FL| 118|27.95908| -82.52582|FALSE|TRUE|FALSE|TRUE
5649230|JW Marriott Tampa Water Street|Tampa, FL| 495|27.94191| -82.45367|FALSE|FALSE|TRUE|TRUE
5649230|Suburban Studios Airport|Tampa, FL| 108|27.99615| -82.55702|TRUE|FALSE|FALSE|TRUE
5649230|La Quinta Inn by Wyndham Tampa Near Busch Gardens|Tampa, FL| 111|28.03364| -82.42705|TRUE|FALSE|FALSE|TRUE
5649230|Extended Stay America Suites Tampa Airport Spruce Street|Tampa, FL| 124|27.95890| -82.51729|FALSE|TRUE|FALSE|TRUE
5649230|Hotel South Tampa & Suites|Tampa, FL| 110|27.93392| -82.50577|TRUE|FALSE|FALSE|TRUE
5649230|Marriott Tampa Westshore|Tampa, FL| 419|27.95304| -82.52309|FALSE|TRUE|TRUE|TRUE
5649230|Le Méridien Tampa, The Courthouse|Tampa, FL| 420|27.95007| -82.45746|FALSE|FALSE|TRUE|TRUE
5649230|Renaissance Tampa International Plaza Hotel|Tampa, FL| 402|27.96584| -82.51992|FALSE|TRUE|TRUE|TRUE
5649230|Quality Inn and Conference Center Tampa-Brandon|Tampa, FL| 100|28.05399| -82.42903|TRUE|FALSE|FALSE|TRUE
5649230|Extended Stay America Suites Tampa North Airport|Tampa, FL| 113|27.99748| -82.54671|TRUE|FALSE|FALSE|TRUE
5649230|Ramada by Wyndham Tampa Airport Westshore|Tampa, FL| 134|27.95393| -82.52474|FALSE|TRUE|FALSE|TRUE
5649230|La Quinta Inn & Suites by Wyndham Tampa Fairgrounds - Casino|Tampa, FL| 112|27.98951| -82.35775|TRUE|FALSE|FALSE|TRUE
5649230|Epicurean Hotel, Autograph Collection|Tampa, FL| 568|27.93072| -82.48342|FALSE|FALSE|TRUE|TRUE
5649230|Rodeway Inn Near Ybor City - Casino|Tampa, FL| 114|27.96992| -82.40352|TRUE|FALSE|FALSE|TRUE
5649230|Hilton Tampa Airport Westshore|Tampa, FL| 249|27.96260| -82.51278|FALSE|TRUE|FALSE|TRUE
5649230|Tampa Marriott Water Street|Tampa, FL| 460|27.94091| -82.45387|FALSE|FALSE|TRUE|TRUE
5649230|Tampa Airport Marriott|Tampa, FL| 351|27.98187| -82.53461|FALSE|TRUE|FALSE|TRUE
5649230|The Tampa EDITION|Tampa, FL| 623|27.94369| -82.45085|FALSE|FALSE|TRUE|TRUE
5649230|DoubleTree by Hilton Hotel Tampa Airport - Westshore|Tampa, FL| 162|27.95148| -82.52111|FALSE|TRUE|FALSE|TRUE
5649230|Embassy Suites by Hilton Tampa Downtown Convention Center|Tampa, FL| 517|27.94232| -82.45476|FALSE|FALSE|TRUE|TRUE
5649230|Hotel Tampa Riverwalk|Tampa, FL| 405|27.94467| -82.45879|FALSE|FALSE|TRUE|TRUE
5649230|Econo Lodge Busch Gardens|Tampa, FL|  86|28.03202| -82.44045|TRUE|FALSE|FALSE|TRUE
5649230|Extended Stay America Suites Tampa Airport N Westshore Blvd|Tampa, FL| 129|27.95563| -82.52407|FALSE|TRUE|FALSE|TRUE
5655684|Extended Stay America Suites Cleveland Brooklyn|Cleveland, OH|  94|41.42483| -81.75763|TRUE|FALSE|FALSE|TRUE
5655684|Days Inn by Wyndham Cleveland Lakewood|Cleveland, OH|  77|41.48959| -81.77313|TRUE|FALSE|FALSE|TRUE
5655684|La Quinta Inn by Wyndham Cleveland Independence|Cleveland, OH| 100|41.39373| -81.64880|TRUE|FALSE|FALSE|TRUE
5655684|Economy Inn North Randall|Cleveland, OH|  76|41.42920| -81.52489|TRUE|FALSE|FALSE|TRUE
5655684|Drury Plaza Hotel Cleveland Downtown|Cleveland, OH| 180|41.50221| -81.69202|FALSE|FALSE|TRUE|TRUE
5655684|The Ritz-Carlton, Cleveland|Cleveland, OH| 556|41.49726| -81.69469|FALSE|TRUE|TRUE|TRUE
5655684|Hampton Inn Cleveland-Downtown|Cleveland, OH| 154|41.50249| -81.68908|FALSE|TRUE|FALSE|TRUE
5655684|Ramada by Wyndham Cleveland Independence|Cleveland, OH|  99|41.39493| -81.65457|TRUE|FALSE|FALSE|TRUE
5655684|Cleveland Marriott Downtown at Key Tower|Cleveland, OH| 179|41.50133| -81.69440|FALSE|FALSE|TRUE|TRUE
5655684|Comfort Inn|Cleveland, OH| 106|41.50092| -81.67835|TRUE|FALSE|FALSE|TRUE
5655684|Extended Stay America Premier Suites - Cleveland - Independence|Cleveland, OH|  99|41.40293| -81.65252|TRUE|FALSE|FALSE|TRUE
5655684|Crowne Plaza Cleveland at Playhouse Square, an IHG Hotel|Cleveland, OH| 161|41.50049| -81.68329|FALSE|TRUE|FALSE|TRUE
5655684|Hyatt Regency Cleveland At The Arcade|Cleveland, OH| 190|41.50076| -81.69075|FALSE|TRUE|TRUE|TRUE
5655684|Renaissance Cleveland Hotel|Cleveland, OH| 175|41.49856| -81.69471|FALSE|TRUE|TRUE|TRUE
5655684|Residence Inn By Marriott Cleveland Downtown|Cleveland, OH| 183|41.49871| -81.68902|FALSE|TRUE|TRUE|TRUE
5655684|Red Roof Inn Cleveland - Independence|Cleveland, OH|  79|41.39458| -81.64999|TRUE|FALSE|FALSE|TRUE
5655684|Hilton Cleveland Downtown|Cleveland, OH| 179|41.50279| -81.69562|FALSE|FALSE|TRUE|TRUE
5655684|Travelodge by Wyndham Cleveland Airport|Cleveland, OH|  67|41.41807| -81.79263|TRUE|FALSE|FALSE|TRUE
5655684|Kimpton Schofield Hotel, an IHG Hotel|Cleveland, OH| 206|41.49961| -81.68674|FALSE|TRUE|TRUE|TRUE
5655684|Travelodge by Wyndham Cleveland Lakewood|Cleveland, OH|  77|41.49014| -81.77088|TRUE|FALSE|FALSE|TRUE
5655684|Aloft Cleveland Downtown|Cleveland, OH| 177|41.50081| -81.70338|FALSE|FALSE|TRUE|TRUE
5655684|Hotel Indigo Cleveland Downtown, an IHG Hotel|Cleveland, OH| 164|41.49820| -81.68767|FALSE|TRUE|FALSE|TRUE
5655684|Hilton Garden Inn Cleveland Downtown|Cleveland, OH| 175|41.49617| -81.68131|FALSE|TRUE|TRUE|TRUE
5655684|Holiday Inn Express Cleveland Downtown, an IHG Hotel|Cleveland, OH| 159|41.50039| -81.68879|FALSE|TRUE|FALSE|TRUE
5655712|Condor Hotel|Brooklyn, NY| 308|40.69747| -73.95888|FALSE|TRUE|FALSE|TRUE
5655712|1 Hotel Central Park|Brooklyn, NY|1476|40.76481| -73.97646|FALSE|FALSE|TRUE|TRUE
5655712|The Dominick|Brooklyn, NY|1323|40.72547| -74.00533|FALSE|FALSE|TRUE|TRUE
5655712|Hotel Key LaGuardia Airport|Brooklyn, NY| 116|40.76537| -73.83173|TRUE|FALSE|FALSE|TRUE
5655712|Lex View Inn at JFK Airport|Brooklyn, NY| 117|40.70272| -73.81528|TRUE|FALSE|FALSE|TRUE
5655712|The Plaza Hotel|Brooklyn, NY|1947|40.76466| -73.97444|FALSE|FALSE|TRUE|TRUE
5655712|Hotel RL Brooklyn|Brooklyn, NY| 249|40.69434| -73.93100|FALSE|TRUE|FALSE|TRUE
5655712|Surface Inn Brooklyn|Brooklyn, NY| 111|40.66949| -73.90902|TRUE|FALSE|FALSE|TRUE
5655712|Rodeway Inn Meadowlands|Brooklyn, NY|  94|40.79292| -74.05712|TRUE|FALSE|FALSE|TRUE
5655712|The Times Square EDITION|Brooklyn, NY|1277|40.75915| -73.98416|FALSE|FALSE|TRUE|TRUE
5655712|Hotel Barriere Fouquets New York|Brooklyn, NY|1298|40.72362| -74.00975|FALSE|FALSE|TRUE|TRUE
5655712|Best Western Plus Arena Hotel|Brooklyn, NY| 209|40.67815| -73.94876|FALSE|TRUE|FALSE|TRUE
5655712|Neptune Hotel|Brooklyn, NY| 100|40.68786| -73.91880|TRUE|FALSE|FALSE|TRUE
5655712|Pod Brooklyn|Brooklyn, NY| 324|40.71526| -73.95884|FALSE|TRUE|FALSE|TRUE
5655712|Pendry Manhattan West|Brooklyn, NY|1442|40.75339| -73.99859|FALSE|FALSE|TRUE|TRUE
5655712|Umbrella Hotel Brooklyn|Brooklyn, NY| 116|40.63109| -74.00279|TRUE|FALSE|FALSE|TRUE
5655712|The Langham, New York, Fifth Avenue|Brooklyn, NY|1653|40.75014| -73.98353|FALSE|FALSE|TRUE|TRUE
5655712|The L Hotel, Ascend Hotel Collection|Brooklyn, NY| 163|40.65720| -74.00275|FALSE|TRUE|FALSE|TRUE
5655712|Holiday Inn Brooklyn Downtown, an IHG Hotel|Brooklyn, NY| 498|40.68750| -73.98268|FALSE|TRUE|FALSE|TRUE
5655712|Essence Collection Staten Island|Brooklyn, NY| 117|40.60842| -74.07680|TRUE|FALSE|FALSE|TRUE
5655712|Haiban Inn|Brooklyn, NY| 117|40.73537| -74.06468|TRUE|FALSE|FALSE|TRUE
5655712|Hotel Le Bleu|Brooklyn, NY| 290|40.67327| -73.98710|FALSE|TRUE|FALSE|TRUE
5655712|Casa Blanca Hotel Brooklyn|Brooklyn, NY| 137|40.69638| -73.97384|FALSE|TRUE|FALSE|TRUE
5655712|Holiday Inn Express Brooklyn, an IHG Hotel|Brooklyn, NY| 335|40.67816| -73.98431|FALSE|TRUE|FALSE|TRUE
5655712|Comfort Inn Prospect Park - Brooklyn|Brooklyn, NY| 227|40.66362| -73.99614|FALSE|TRUE|FALSE|TRUE
5655712|Mandarin Oriental, New York|Brooklyn, NY|1719|40.76899| -73.98302|FALSE|FALSE|TRUE|TRUE
5655712|Flushing Hotel|Brooklyn, NY| 104|40.76750| -73.83308|TRUE|FALSE|FALSE|TRUE
5655712|Four Seasons Hotel New York Downtown|Brooklyn, NY|1776|40.71263| -74.00919|FALSE|FALSE|TRUE|TRUE
5655712|Hillside Hotel|Brooklyn, NY| 103|40.70372| -73.81475|TRUE|FALSE|FALSE|TRUE
5655712|Hotel 369 Brooklyn|Brooklyn, NY| 106|40.71971| -73.95802|TRUE|FALSE|FALSE|TRUE
5655712|Park Hyatt New York|Brooklyn, NY|2065|40.76534| -73.97904|FALSE|FALSE|TRUE|TRUE
5657092|Baymont by Wyndham Oxford|Oxford, OH|  71|39.51859| -84.75595|TRUE|TRUE|TRUE|TRUE
5657092|Hampton Inn Oxford/Miami University Area|Oxford, OH| 169|39.50554| -84.74477|TRUE|TRUE|TRUE|TRUE
5657092|Butler Inn|Oxford, OH|  66|39.51893| -84.75865|TRUE|TRUE|TRUE|TRUE
5657092|Best Western Sycamore Inn|Oxford, OH| 110|39.51566| -84.74170|TRUE|TRUE|TRUE|TRUE
5657092|Comfort Inn|Oxford, OH|  88|39.51489| -84.75191|TRUE|TRUE|TRUE|TRUE
5657092|Budget Inn|Oxford, OH|  66|39.52234| -84.76258|TRUE|TRUE|TRUE|TRUE
5657092|The Elms Hotel|Oxford, OH| 156|39.50966| -84.74211|TRUE|TRUE|TRUE|TRUE
5657243|Quality Inn I-94 near Wings Stadium|Kalamazoo, MI|  85|42.25268| -85.53169|TRUE|FALSE|FALSE|TRUE
5657243|Staybridge Suites Kalamazoo, an IHG Hotel|Kalamazoo, MI| 188|42.27173| -85.64280|FALSE|TRUE|TRUE|TRUE
5657243|Home2 Suites by Hilton Kalamazoo Downtown|Kalamazoo, MI| 160|42.29378| -85.58507|FALSE|TRUE|TRUE|TRUE
5657243|Baymont by Wyndham Kalamazoo|Kalamazoo, MI|  66|42.26892| -85.65731|TRUE|FALSE|FALSE|TRUE
5657243|Best Western Plus Kalamazoo Suites|Kalamazoo, MI| 112|42.26591| -85.65679|TRUE|FALSE|FALSE|TRUE
5657243|Hilton Garden Inn Kalamazoo|Kalamazoo, MI| 169|42.29375| -85.58520|FALSE|TRUE|TRUE|TRUE
5657243|Delta Hotels by Marriott Kalamazoo Conference Center|Kalamazoo, MI| 152|42.26420| -85.65392|FALSE|FALSE|TRUE|TRUE
5657243|Kalamazoo House|Kalamazoo, MI| 217|42.28943| -85.58845|FALSE|TRUE|TRUE|TRUE
5657243|Homewood Suites by Hilton Kalamazoo-Portage|Kalamazoo, MI| 179|42.23856| -85.59503|FALSE|FALSE|TRUE|TRUE
5657243|Comfort Inn Downtown - University Area|Kalamazoo, MI| 101|42.29078| -85.59348|TRUE|TRUE|FALSE|TRUE
5657243|Econo Lodge|Kalamazoo, MI|  66|42.29171| -85.58723|TRUE|TRUE|FALSE|TRUE
5657243|Super 8 by Wyndham Kalamazoo|Kalamazoo, MI|  63|42.29440| -85.65922|TRUE|TRUE|FALSE|TRUE
5657243|Residence Inn by Marriott Kalamazoo East|Kalamazoo, MI| 147|42.24540| -85.56299|FALSE|FALSE|TRUE|TRUE
5657243|Courtyard Kalamazoo Portage|Kalamazoo, MI| 189|42.23886| -85.59367|FALSE|FALSE|TRUE|TRUE
5657243|Comfort Inn Wings Stadium|Kalamazoo, MI| 102|42.24582| -85.56161|TRUE|FALSE|FALSE|TRUE
5657243|Red Roof Inn Kalamazoo West - Western Michigan U|Kalamazoo, MI|  63|42.27000| -85.65667|TRUE|TRUE|FALSE|TRUE
5657243|The Henderson Castle|Kalamazoo, MI| 242|42.29291| -85.60503|FALSE|TRUE|TRUE|TRUE
5657243|Radisson Plaza Hotel at Kalamazoo Center|Kalamazoo, MI| 237|42.29217| -85.58396|FALSE|TRUE|TRUE|TRUE
5657243|Clarion Inn I-94 near Expo Center|Kalamazoo, MI|  80|42.26077| -85.53301|TRUE|FALSE|FALSE|TRUE
5657243|Red Roof Inn Kalamazoo East - Expo Center|Kalamazoo, MI|  74|42.26284| -85.53379|TRUE|FALSE|FALSE|TRUE
5659470|Super 8 by Wyndham Monroe|Monroe, LA|  77|32.49064| -92.08257|TRUE|TRUE|FALSE|TRUE
5659470|Residence Inn by Marriott Monroe|Monroe, LA| 113|32.49960| -92.05560|FALSE|TRUE|TRUE|TRUE
5659470|Home2 Suites by Hilton West Monroe|Monroe, LA| 137|32.50824| -92.18077|FALSE|FALSE|TRUE|TRUE
5659470|John Thomas Bed and Breakfast|Monroe, LA| 120|32.49892| -92.12559|FALSE|FALSE|TRUE|TRUE
5659470|La Quinta Inn & Suites by Wyndham West Monroe|Monroe, LA| 109|32.50908| -92.16564|TRUE|FALSE|FALSE|TRUE
5659470|Hampton Inn West Monroe|Monroe, LA| 133|32.50837| -92.18264|FALSE|FALSE|TRUE|TRUE
5659470|Quality Inn And Suites|Monroe, LA|  83|32.50872| -92.16455|TRUE|FALSE|FALSE|TRUE
5659470|Hamilton House Inn|Monroe, LA| 155|32.50240| -92.12438|FALSE|TRUE|TRUE|TRUE
5659470|Hilton Garden Inn West Monroe|Monroe, LA| 123|32.50734| -92.17962|FALSE|FALSE|TRUE|TRUE
5659470|Wingate by Wyndham West Monroe|Monroe, LA|  93|32.51082| -92.16442|TRUE|FALSE|FALSE|TRUE
5659470|Courtyard Monroe Airport|Monroe, LA|  96|32.49547| -92.05564|TRUE|TRUE|FALSE|TRUE
5659470|Best Western Airport Inn|Monroe, LA| 154|32.49104| -92.05337|FALSE|TRUE|TRUE|TRUE
5659470|Fairfield Inn & Suites by Marriott West Monroe|Monroe, LA| 123|32.50957| -92.18406|FALSE|FALSE|TRUE|TRUE
5659470|Comfort Inn West Monroe|Monroe, LA|  88|32.50571| -92.16080|TRUE|FALSE|FALSE|TRUE
5659470|TownePlace Suites Monroe|Monroe, LA| 179|32.49616| -92.05564|FALSE|TRUE|TRUE|TRUE
5659470|Quality Inn|Monroe, LA|  81|32.49298| -92.08204|TRUE|TRUE|FALSE|TRUE
5659470|Days Inn by Wyndham Monroe|Monroe, LA|  84|32.49317| -92.04944|TRUE|TRUE|FALSE|TRUE
5659470|WoodSpring Suites West Monroe|Monroe, LA|  62|32.51154| -92.16439|TRUE|FALSE|FALSE|TRUE
5659470|2 Story Houseboat Kayakfish Pets|Monroe, LA| 176|32.50931| -92.11930|FALSE|TRUE|TRUE|TRUE
5659470|OYO Hotel Monroe LA I-20|Monroe, LA|  49|32.50354| -92.08132|TRUE|TRUE|FALSE|TRUE
5679243|The St. Regis San Francisco|Berkeley, CA|1043|37.78613|-122.40147|FALSE|FALSE|TRUE|TRUE
5679243|Graduate Berkeley|Berkeley, CA| 166|37.86792|-122.25631|FALSE|TRUE|FALSE|TRUE
5679243|Aiden by Best Western @ Berkeley|Berkeley, CA| 162|37.87054|-122.28218|FALSE|TRUE|FALSE|TRUE
5679243|Fairmont Heritage Place, Ghirardelli Square|Berkeley, CA|1081|37.80543|-122.42349|FALSE|FALSE|TRUE|TRUE
5679243|Europa Hotel|Berkeley, CA|  78|37.79814|-122.40687|TRUE|FALSE|FALSE|TRUE
5679243|Rodeway Inn|Berkeley, CA| 100|37.87052|-122.28325|TRUE|TRUE|FALSE|TRUE
5679243|SF Plaza Hotel|Berkeley, CA| 104|37.79064|-122.40587|TRUE|FALSE|FALSE|TRUE
5679243|La Quinta Inn by Wyndham Berkeley|Berkeley, CA| 121|37.86797|-122.29574|FALSE|TRUE|FALSE|TRUE
5679243|The Ritz-Carlton, San Francisco|Berkeley, CA| 871|37.79162|-122.40728|FALSE|FALSE|TRUE|TRUE
5679243|Hotel Shattuck Plaza|Berkeley, CA| 193|37.86918|-122.26849|FALSE|TRUE|FALSE|TRUE
5679243|JW Marriott San Francisco Union Square|Berkeley, CA| 687|37.78832|-122.41049|FALSE|FALSE|TRUE|TRUE
5679243|Hyatt Regency San Francisco|Berkeley, CA| 697|37.79422|-122.39567|FALSE|FALSE|TRUE|TRUE
5679243|Jack London Inn|Berkeley, CA|  87|37.79532|-122.27602|TRUE|FALSE|FALSE|TRUE
5679243|Palace Hotel, a Luxury Collection Hotel, San Francisco|Berkeley, CA|1047|37.78812|-122.40190|FALSE|FALSE|TRUE|TRUE
5679243|Radisson Hotel Oakland Airport|Berkeley, CA| 103|37.74201|-122.19492|TRUE|FALSE|FALSE|TRUE
5679243|Hotel North Beach|Berkeley, CA|  76|37.87152|-122.27304|TRUE|TRUE|FALSE|TRUE
5679243|Berkeley City Club|Berkeley, CA| 225|37.86749|-122.26276|FALSE|TRUE|FALSE|TRUE
5679243|SureStay Plus Hotel by Best Western Point Richmond|Berkeley, CA| 101|37.92652|-122.37889|TRUE|FALSE|FALSE|TRUE
5679243|Union Square Plaza Hotel|Berkeley, CA|  87|37.78718|-122.41049|TRUE|FALSE|FALSE|TRUE
5679243|1 Hotel San Francisco|Berkeley, CA| 832|37.79359|-122.39305|FALSE|FALSE|TRUE|TRUE
5679243|Civic Center Lodge|Berkeley, CA| 103|37.79535|-122.26516|TRUE|FALSE|FALSE|TRUE
5679243|The Urban|Berkeley, CA|  83|37.79031|-122.40587|TRUE|FALSE|FALSE|TRUE
5679243|Four Seasons Hotel San Francisco|Berkeley, CA| 896|37.78630|-122.40390|FALSE|FALSE|TRUE|TRUE
5679243|Four Seasons Hotel San Francisco at Embarcadero|Berkeley, CA| 926|37.79246|-122.40079|FALSE|FALSE|TRUE|TRUE
5679243|W San Francisco|Berkeley, CA| 686|37.78542|-122.40021|FALSE|FALSE|TRUE|TRUE
5679243|Nash Hotel|Berkeley, CA| 134|37.87223|-122.26955|FALSE|TRUE|FALSE|TRUE
5679243|Residence Inn by Marriott Berkeley|Berkeley, CA| 189|37.87076|-122.26719|FALSE|TRUE|FALSE|TRUE
5679243|Quality Inn University|Berkeley, CA| 123|37.87145|-122.27639|FALSE|TRUE|FALSE|TRUE
5679336|Niwot Inn & Spa|Boulder, CO| 253|40.10222|-105.17024|FALSE|FALSE|TRUE|TRUE
5679336|Homewood Suites Boulder|Boulder, CO| 148|39.99734|-105.23268|FALSE|TRUE|FALSE|TRUE
5679336|Best Western Plus Louisville Inn & Suites|Boulder, CO|  89|39.95982|-105.16293|TRUE|FALSE|FALSE|TRUE
5679336|Embassy Suites by Hilton Boulder|Boulder, CO| 209|40.01791|-105.26022|FALSE|TRUE|TRUE|TRUE
5679336|Hotel Boulderado|Boulder, CO| 179|40.01934|-105.27943|FALSE|TRUE|TRUE|TRUE
5679336|Residence Inn By Marriott Boulder|Boulder, CO| 191|39.95744|-105.15847|FALSE|FALSE|TRUE|TRUE
5679336|Bradley Boulder Inn|Boulder, CO| 309|40.01988|-105.27480|FALSE|TRUE|TRUE|TRUE
5679336|Basecamp Boulder|Boulder, CO| 224|40.01416|-105.26839|FALSE|TRUE|TRUE|TRUE
5679336|Millennium Harvest House Boulder|Boulder, CO| 122|40.01230|-105.25972|TRUE|TRUE|FALSE|TRUE
5679336|Hampton Inn Boulder - Louisville|Boulder, CO| 109|39.95855|-105.16280|TRUE|FALSE|FALSE|TRUE
5679336|Hilton Garden Inn Broomfield Boulder|Boulder, CO| 266|39.92776|-105.12949|FALSE|FALSE|TRUE|TRUE
5679336|Holiday Inn Express and Suites Broomfield, an IHG Hotel|Boulder, CO| 103|39.94156|-105.12600|TRUE|FALSE|FALSE|TRUE
5679336|Hyatt Place Boulder/Pearl Street|Boulder, CO| 167|40.02421|-105.25181|FALSE|TRUE|FALSE|TRUE
5679336|TownePlace Suites by Marriott Boulder Broomfield/Interlocken|Boulder, CO| 103|39.92581|-105.13055|TRUE|FALSE|FALSE|TRUE
5679336|Boulder Marriott|Boulder, CO| 282|40.01653|-105.25984|FALSE|TRUE|TRUE|TRUE
5679336|Residence Inn by Marriott Boulder Broomfield|Boulder, CO| 117|39.95710|-105.15807|TRUE|FALSE|FALSE|TRUE
5679336|Courtyard by Marriott Boulder Broomfield|Boulder, CO| 110|39.95889|-105.16368|TRUE|FALSE|FALSE|TRUE
5679336|Hilton Garden Inn Boulder|Boulder, CO| 170|40.01797|-105.25880|FALSE|TRUE|FALSE|TRUE
5679336|Residence Inn by Marriott Boulder Canyon Boulevard|Boulder, CO| 222|40.01685|-105.26091|FALSE|TRUE|TRUE|TRUE
5679336|Quality Inn Louisville - Boulder|Boulder, CO|  84|39.96128|-105.16791|TRUE|FALSE|FALSE|TRUE
5679336|Renaissance Boulder FlatIron Hotel|Boulder, CO| 240|39.92683|-105.12952|FALSE|FALSE|TRUE|TRUE
5679336|Boulder Adventure Lodge|Boulder, CO| 119|40.01799|-105.32630|TRUE|FALSE|FALSE|TRUE
5679336|HYATT house Boulder/Broomfield|Boulder, CO| 118|39.94033|-105.12471|TRUE|FALSE|FALSE|TRUE
5679357|Graduate Eugene|Eugene, OR| 147|44.04408|-123.06525|FALSE|TRUE|TRUE|TRUE
5679357|Valley River Inn|Eugene, OR| 116|44.06552|-123.10285|TRUE|FALSE|FALSE|TRUE
5679357|Hyatt Place Eugene / Oakway Center|Eugene, OR| 170|44.06638|-123.07784|FALSE|FALSE|TRUE|TRUE
5679357|Inn at the 5th|Eugene, OR| 254|44.05409|-123.08927|FALSE|FALSE|TRUE|TRUE
5679357|Candlewood Suites Eugene Springfield, an IHG Hotel|Eugene, OR| 134|44.04412|-123.04679|FALSE|TRUE|FALSE|TRUE
5679357|Hayward Inn|Eugene, OR| 119|44.04628|-123.06696|TRUE|TRUE|FALSE|TRUE
5679357|Excelsior Inn|Eugene, OR| 154|44.04526|-123.08095|FALSE|TRUE|TRUE|TRUE
5679357|La Quinta Inn & Suites by Wyndham Eugene|Eugene, OR| 131|44.05837|-123.07980|FALSE|TRUE|FALSE|TRUE
5679357|Tru By Hilton Eugene, OR|Eugene, OR| 139|44.04432|-123.04618|FALSE|TRUE|FALSE|TRUE
5679357|Courtyard by Marriott Eugene Springfield|Eugene, OR| 149|44.08305|-123.03881|FALSE|FALSE|TRUE|TRUE
5679357|EVEN Hotel Eugene, an IHG Hotel|Eugene, OR| 165|44.06100|-123.07895|FALSE|TRUE|TRUE|TRUE
5679357|Royal Inn Eugene|Eugene, OR| 112|44.07952|-123.15180|TRUE|FALSE|FALSE|TRUE
5679357|The Gordon Hotel|Eugene, OR| 239|44.05372|-123.09120|FALSE|FALSE|TRUE|TRUE
5679357|HomeTowne Studios by Red Roof Eugene – Springfield|Eugene, OR|  89|44.05519|-123.09233|TRUE|FALSE|FALSE|TRUE
5679357|Best Western New Oregon|Eugene, OR| 118|44.04704|-123.06825|TRUE|TRUE|FALSE|TRUE
5679357|Super 8 by Wyndham Springfield/Eugene|Eugene, OR| 103|44.08167|-123.04093|TRUE|FALSE|FALSE|TRUE
5679357|Signature Inn Eugene|Eugene, OR| 121|44.05370|-123.10890|TRUE|FALSE|FALSE|TRUE
5679357|Valueinn Motel|Eugene, OR| 117|44.05207|-123.08675|TRUE|TRUE|FALSE|TRUE
5679357|Quality Inn and Suites Eugene - Springfield|Eugene, OR| 108|44.08540|-123.04366|TRUE|FALSE|FALSE|TRUE
5679357|Residence Inn Eugene Springfield|Eugene, OR| 199|44.05971|-123.08369|FALSE|FALSE|TRUE|TRUE
5679357|Hilton Garden Inn Eugene/Springfield|Eugene, OR| 178|44.08522|-123.04288|FALSE|FALSE|TRUE|TRUE
5679357|Maverick Hotel|Eugene, OR|  97|44.04615|-123.06550|TRUE|TRUE|FALSE|TRUE
5679357|Campbell House Inn|Eugene, OR| 156|44.05712|-123.09001|FALSE|FALSE|TRUE|TRUE
5679364|Days Inn by Wyndham Redwood City|Stanford, CA| 131|37.47102|-122.21615|TRUE|FALSE|FALSE|TRUE
5679364|The Westin Palo Alto|Stanford, CA| 519|37.44063|-122.16310|FALSE|TRUE|TRUE|TRUE
5679364|Super 8 by Wyndham Mountain View|Stanford, CA| 125|37.38965|-122.09332|TRUE|FALSE|FALSE|TRUE
5679364|Ramada by Wyndham Sunnyvale/Silicon Valley|Stanford, CA| 124|37.39097|-121.99232|TRUE|FALSE|FALSE|TRUE
5679364|Comfort Inn Palo Alto|Stanford, CA| 169|37.41675|-122.12836|FALSE|TRUE|FALSE|TRUE
5679364|Ramada by Wyndham Mountain View|Stanford, CA| 121|37.40635|-122.06375|TRUE|FALSE|FALSE|TRUE
5679364|Park James|Stanford, CA| 504|37.45616|-122.18776|FALSE|TRUE|TRUE|TRUE
5679364|The Nest Hotel Palo Alto|Stanford, CA| 506|37.41735|-122.12899|FALSE|TRUE|TRUE|TRUE
5679364|Americas Best Value Inn Mountain View|Stanford, CA| 112|37.38709|-122.08600|TRUE|FALSE|FALSE|TRUE
5679364|Shashi Hotel Mountain View, an Urban Resort|Stanford, CA| 527|37.41695|-122.07772|FALSE|FALSE|TRUE|TRUE
5679364|Extended Stay America Suites San Jose Sunnyvale|Stanford, CA| 139|37.36482|-121.91163|TRUE|FALSE|FALSE|TRUE
5679364|Creekside Inn|Stanford, CA| 277|37.41897|-122.13564|FALSE|TRUE|FALSE|TRUE
5679364|Good Nite Inn - Redwood City|Stanford, CA| 104|37.49631|-122.23581|TRUE|FALSE|FALSE|TRUE
5679364|Good Living Inn|Stanford, CA| 136|37.49595|-122.24755|TRUE|FALSE|FALSE|TRUE
5679364|Aloft Sunnyvale|Stanford, CA| 517|37.37610|-122.02870|FALSE|FALSE|TRUE|TRUE
5679364|The Clement Hotel – All Inclusive|Stanford, CA|1123|37.44024|-122.16268|FALSE|TRUE|TRUE|TRUE
5679364|Stanford Motor Inn Palo Alto|Stanford, CA| 158|37.42042|-122.13665|FALSE|TRUE|FALSE|TRUE
5679364|Rosewood Sand Hill|Stanford, CA|1174|37.41924|-122.21292|FALSE|FALSE|TRUE|TRUE
5679364|The Stanford Park Hotel|Stanford, CA| 594|37.44776|-122.17224|FALSE|TRUE|TRUE|TRUE
5679364|Extended Stay America Suites San Jose Mountain View|Stanford, CA| 141|37.38026|-122.06871|TRUE|FALSE|FALSE|TRUE
5679364|Quality Inn Santa Clara Convention Center|Stanford, CA| 106|37.40705|-121.99828|TRUE|FALSE|FALSE|TRUE
5679364|Sheraton Palo Alto Hotel|Stanford, CA| 507|37.44141|-122.16388|FALSE|TRUE|TRUE|TRUE
5679364|Four Seasons Hotel Silicon Valley at East Palo Alto|Stanford, CA| 988|37.46030|-122.14243|FALSE|TRUE|TRUE|TRUE
5679366|Comfort Inn Murray - Salt Lake City South|Salt Lake City, UT|  86|40.65501|-111.90444|TRUE|FALSE|FALSE|TRUE
5679366|The Metropolitan Inn|Salt Lake City, UT|  82|40.75780|-111.89459|TRUE|TRUE|FALSE|TRUE
5679366|Econo Lodge Downtown|Salt Lake City, UT|  84|40.77127|-111.91175|TRUE|FALSE|FALSE|TRUE
5679366|Kimpton Hotel Monaco Salt Lake City, an IHG Hotel|Salt Lake City, UT| 254|40.76472|-111.89222|FALSE|TRUE|TRUE|TRUE
5679366|The Grand America Hotel|Salt Lake City, UT| 409|40.75740|-111.88888|FALSE|TRUE|TRUE|TRUE
5679366|HomeTowne Studios by Red Roof Salt Lake City - Mid Valley|Salt Lake City, UT|  85|40.64658|-111.93621|TRUE|FALSE|FALSE|TRUE
5679366|Comfort Inn Downtown|Salt Lake City, UT| 109|40.75820|-111.89545|FALSE|TRUE|FALSE|TRUE
5679366|MainStay Suites Salt Lake City Fort Union|Salt Lake City, UT|  71|40.62426|-111.85270|TRUE|FALSE|FALSE|TRUE
5679366|Hyatt House Salt Lake City Downtown|Salt Lake City, UT| 172|40.76648|-111.90012|FALSE|FALSE|TRUE|TRUE
5679366|Quality Inn & Suites Airport West|Salt Lake City, UT|  81|40.77548|-112.02300|TRUE|FALSE|FALSE|TRUE
5679366|City Creek Inn & Suites|Salt Lake City, UT|  81|40.74690|-111.89023|TRUE|TRUE|FALSE|TRUE
5679366|Marriott University Park|Salt Lake City, UT| 261|40.75925|-111.83021|FALSE|TRUE|TRUE|TRUE
5679366|My Place Hotel - Salt Lake City I-215/West Valley City, UT|Salt Lake City, UT|  77|40.70496|-111.95043|TRUE|FALSE|FALSE|TRUE
5679366|Quality Inn Downtown|Salt Lake City, UT|  80|40.75574|-111.89726|TRUE|TRUE|FALSE|TRUE
5679366|Ramada by Wyndham Salt Lake City Airport Hotel|Salt Lake City, UT|  86|40.77535|-112.02386|TRUE|FALSE|FALSE|TRUE
5679366|Radisson Hotel Salt Lake City Downtown|Salt Lake City, UT| 195|40.76899|-111.89782|FALSE|FALSE|TRUE|TRUE
5679366|Little America Hotel|Salt Lake City, UT| 181|40.75799|-111.89193|FALSE|TRUE|TRUE|TRUE
5679366|Marriott City Center|Salt Lake City, UT| 374|40.76433|-111.88859|FALSE|TRUE|TRUE|TRUE
5679366|Salt Lake Plaza Hotel SureStay Collection by Best Western|Salt Lake City, UT| 135|40.76964|-111.89479|FALSE|TRUE|TRUE|TRUE
5679366|Ramada by Wyndham Salt Lake City|Salt Lake City, UT|  84|40.71740|-111.88712|TRUE|FALSE|FALSE|TRUE
5679366|Crystal Inn Hotel & Suites Salt Lake City|Salt Lake City, UT| 125|40.75888|-111.89776|FALSE|FALSE|TRUE|TRUE
5679366|Crystal Inn Hotel & Suites West Valley City|Salt Lake City, UT| 129|40.75888|-111.89776|FALSE|FALSE|TRUE|TRUE
5679368|The Tuxon Hotel, Tucson, a Member of Design Hotels|Tucson, AZ| 137|32.20999|-110.98072|FALSE|FALSE|TRUE|TRUE
5679368|Days Inn Tucson City Center|Tucson, AZ|  84|32.23119|-110.98414|TRUE|FALSE|FALSE|TRUE
5679368|Travel Inn|Tucson, AZ|  80|32.11720|-110.86047|TRUE|FALSE|FALSE|TRUE
5679368|Hotel Tucson City Center, Ascend Hotel Collection|Tucson, AZ| 120|32.22622|-110.97912|FALSE|TRUE|TRUE|TRUE
5679368|Econo Lodge near the University of Arizona|Tucson, AZ|  74|32.23188|-110.95011|TRUE|TRUE|FALSE|TRUE
5679368|AC Hotel by Marriott Tucson Downtown|Tucson, AZ| 447|32.22152|-110.96749|FALSE|TRUE|TRUE|TRUE
5679368|DoubleTree by Hilton Tucson Downtown Convention Center|Tucson, AZ| 503|32.21732|-110.97321|FALSE|TRUE|TRUE|TRUE
5679368|Quality Inn Tucson Airport - East Valencia|Tucson, AZ|  78|32.13453|-110.92957|TRUE|FALSE|FALSE|TRUE
5679368|GLH Hotel|Tucson, AZ|  77|32.24987|-110.99386|TRUE|FALSE|FALSE|TRUE
5679368|Red Roof Inn Tucson Downtown – University|Tucson, AZ|  80|32.23879|-110.97157|TRUE|TRUE|FALSE|TRUE
5679368|Quality Inn near Downtown Tucson|Tucson, AZ|  71|32.22187|-110.97127|TRUE|TRUE|FALSE|TRUE
5679368|Graduate Tucson|Tucson, AZ| 168|32.23282|-110.95767|FALSE|TRUE|TRUE|TRUE
5679368|DoubleTree by Hilton Tucson - Reid Park|Tucson, AZ| 169|32.21500|-110.90842|FALSE|FALSE|TRUE|TRUE
5679368|Stone Inn U of A|Tucson, AZ| 105|32.23820|-110.97141|FALSE|TRUE|TRUE|TRUE
5679368|3 Palms Tucson North Foothills|Tucson, AZ|  86|32.34139|-110.97772|TRUE|FALSE|FALSE|TRUE
5679368|Days Inn by Wyndham Tucson Airport|Tucson, AZ|  77|32.16423|-110.91671|TRUE|FALSE|FALSE|TRUE
5679368|Aloft Tucson University|Tucson, AZ| 181|32.23575|-110.94326|FALSE|TRUE|TRUE|TRUE
5679368|Best Western Royal Sun Inn & Suites|Tucson, AZ| 101|32.23488|-110.97199|FALSE|TRUE|FALSE|TRUE
5679368|Hotel McCoy - Art, Coffee, Beer, Wine|Tucson, AZ| 112|32.19975|-110.98054|FALSE|FALSE|TRUE|TRUE
5679368|DoubleTree Suites by Hilton Tucson - Williams Center|Tucson, AZ| 128|32.22206|-110.87831|FALSE|FALSE|TRUE|TRUE
5679368|Ramada by Wyndham Viscount Suites Tucson East|Tucson, AZ|  85|32.22223|-110.88847|TRUE|FALSE|FALSE|TRUE
5679478|Hermosa Inn|Tempe, AZ| 721|33.51834|-112.00490|FALSE|FALSE|TRUE|TRUE
5679478|Days Hotel by Wyndham Mesa Near Phoenix|Tempe, AZ|  91|33.38193|-111.83878|TRUE|FALSE|FALSE|TRUE
5679478|Hilton Garden Inn Scottsdale Old Town|Tempe, AZ| 502|33.49556|-111.92354|FALSE|FALSE|TRUE|TRUE
5679478|E-Z 8 Motel Phoenix Airporter|Tempe, AZ|  96|33.43002|-112.06670|TRUE|FALSE|FALSE|TRUE
5679478|MOXY Phoenix Tempe/ASU Area|Tempe, AZ| 183|33.41336|-111.92559|FALSE|TRUE|FALSE|TRUE
5679478|Graduate Tempe|Tempe, AZ| 167|33.41420|-111.93626|FALSE|TRUE|FALSE|TRUE
5679478|Rodeway Inn Old Town Scottsdale|Tempe, AZ|  89|33.48159|-111.92703|TRUE|FALSE|FALSE|TRUE
5679478|3 Palms|Tempe, AZ|  97|33.41925|-111.91953|TRUE|TRUE|FALSE|TRUE
5679478|Super 8 by Wyndham Chandler Phoenix|Tempe, AZ|  89|33.30487|-111.96657|TRUE|FALSE|FALSE|TRUE
5679478|Hotel Tempest, Trademark Collection by Wyndham|Tempe, AZ| 157|33.42155|-111.91597|FALSE|TRUE|FALSE|TRUE
5679478|Red Roof Inn PLUS+ Tempe - Phoenix Airport|Tempe, AZ|  89|33.41152|-111.97151|TRUE|TRUE|FALSE|TRUE
5679478|W Scottsdale|Tempe, AZ|1115|33.50195|-111.92410|FALSE|FALSE|TRUE|TRUE
5679478|Motel 6 Phoenix East|Tempe, AZ|  79|33.45034|-111.96701|TRUE|FALSE|FALSE|TRUE
5679478|Senna House Scottsdale, A Curio Collection By Hilton|Tempe, AZ| 586|33.50192|-111.91999|FALSE|FALSE|TRUE|TRUE
5679478|Residence Inn Scottsdale Salt River|Tempe, AZ| 523|33.51456|-111.89096|FALSE|FALSE|TRUE|TRUE
5679478|La Quinta Inn by Wyndham Phoenix Sky Harbor Airport|Tempe, AZ| 103|33.42032|-111.97661|FALSE|TRUE|FALSE|TRUE
5679478|Wyndham Phoenix Airport/Tempe|Tempe, AZ| 125|33.41099|-111.97059|FALSE|TRUE|FALSE|TRUE
5679478|Extend -a -Suites Mesa|Tempe, AZ|  74|33.42551|-111.94001|TRUE|TRUE|FALSE|TRUE
5679478|JW Marriott Camelback Inn Scottsdale Resort & Spa|Tempe, AZ| 827|33.53293|-111.96421|FALSE|FALSE|TRUE|TRUE
5679478|Sonesta Suites Scottsdale Gainey Ranch|Tempe, AZ| 518|33.56441|-111.92353|FALSE|FALSE|TRUE|TRUE
5679478|The Phoenician, a Luxury Collection Resort, Scottsdale|Tempe, AZ| 939|33.50578|-111.94957|FALSE|FALSE|TRUE|TRUE
5679478|Sanctuary Camelback Mountain, A Gurney's Resort and Spa|Tempe, AZ| 842|33.52248|-111.95951|FALSE|FALSE|TRUE|TRUE
5679478|Vīb Hotel by Best Western Phoenix - Tempe|Tempe, AZ| 203|33.42526|-111.94398|FALSE|TRUE|FALSE|TRUE
5679478|Quality Inn Chandler I-10|Tempe, AZ|  71|33.30637|-111.94502|TRUE|FALSE|FALSE|TRUE
5679478|Chandler Hospitality Inn|Tempe, AZ|  83|33.30862|-111.97351|TRUE|FALSE|FALSE|TRUE
5679478|Canopy by Hilton Tempe Downtown|Tempe, AZ|1574|33.42230|-111.93776|FALSE|TRUE|TRUE|TRUE
5679480|Kimpton Hotel Palomar Los Angeles Beverly Hills, an IHG Hotel|Los Angeles, CA| 375|34.06023|-118.43744|FALSE|TRUE|FALSE|TRUE
5679480|Hollywood Guest Inn|Los Angeles, CA|  83|34.09772|-118.33695|TRUE|FALSE|FALSE|TRUE
5679480|Casa Del Mar|Los Angeles, CA| 797|34.00627|-118.49147|FALSE|FALSE|TRUE|TRUE
5679480|Royal Palace Westwood|Los Angeles, CA| 240|34.06060|-118.44287|FALSE|TRUE|FALSE|TRUE
5679480|Hotel Angeleno|Los Angeles, CA| 225|34.07374|-118.46820|FALSE|TRUE|FALSE|TRUE
5679480|Santa Monica Proper Hotel|Los Angeles, CA| 877|34.02087|-118.49452|FALSE|FALSE|TRUE|TRUE
5679480|The Peninsula Beverly Hills|Los Angeles, CA|1157|34.06575|-118.41055|FALSE|TRUE|TRUE|TRUE
5679480|Four Seasons Los Angeles at Beverly Hills|Los Angeles, CA| 988|34.07295|-118.38921|FALSE|FALSE|TRUE|TRUE
5679480|L'Ermitage Beverly Hills|Los Angeles, CA| 978|34.07264|-118.39542|FALSE|FALSE|TRUE|TRUE
5679480|Luxe Sunset Boulevard Hotel|Los Angeles, CA| 358|34.07261|-118.46901|FALSE|TRUE|FALSE|TRUE
5679480|Beverly Wilshire - Beverly Hills, A Four Seasons Hotel|Los Angeles, CA|1145|34.06674|-118.40077|FALSE|FALSE|TRUE|TRUE
5679480|Fairmont Century Plaza|Los Angeles, CA| 723|34.05745|-118.41578|FALSE|TRUE|FALSE|TRUE
5679480|Hollywood Inn Express North|Los Angeles, CA| 109|34.10207|-118.30169|TRUE|FALSE|FALSE|TRUE
5679480|Palihotel Westwood Village|Los Angeles, CA| 308|34.06086|-118.44295|FALSE|TRUE|FALSE|TRUE
5679480|Cloud 9 Inn LAX|Los Angeles, CA| 104|33.96197|-118.36567|TRUE|FALSE|FALSE|TRUE
5679480|Hollywood Roxy Hotel|Los Angeles, CA|  95|34.10069|-118.30964|TRUE|FALSE|FALSE|TRUE
5679480|Budget Motel|Los Angeles, CA|  97|33.97495|-118.31656|TRUE|FALSE|FALSE|TRUE
5679480|Oceana Santa Monica, LXR Hotels & Resorts|Los Angeles, CA|1131|34.02130|-118.50608|FALSE|FALSE|TRUE|TRUE
5679480|L.A. Sky Boutique Hotel|Los Angeles, CA| 201|34.04140|-118.42913|FALSE|TRUE|FALSE|TRUE
5679480|The Maybourne Beverly Hills|Los Angeles, CA|1213|34.06777|-118.39892|FALSE|FALSE|TRUE|TRUE
5679480|Rosa Bell Motel - Los Angeles|Los Angeles, CA|  98|33.99136|-118.30872|TRUE|FALSE|FALSE|TRUE
5679480|Century Park Hotel|Los Angeles, CA| 194|34.05188|-118.41763|FALSE|TRUE|FALSE|TRUE
5679480|Shutters on the Beach|Los Angeles, CA|1110|34.00706|-118.49172|FALSE|FALSE|TRUE|TRUE
5679480|Wingate by Wyndham Los Angeles International Airport LAX|Los Angeles, CA|  89|33.94273|-118.36961|TRUE|FALSE|FALSE|TRUE
5679480|The Beverly Hills Hotel|Los Angeles, CA|1425|34.08171|-118.41380|FALSE|TRUE|TRUE|TRUE
5679480|Skyways Hotel|Los Angeles, CA| 102|33.95252|-118.38508|TRUE|FALSE|FALSE|TRUE
5679480|Mid City inn|Los Angeles, CA| 108|34.04031|-118.34886|TRUE|FALSE|FALSE|TRUE
5679480|Crenshaw Inn Motel|Los Angeles, CA| 107|33.98272|-118.33132|TRUE|FALSE|FALSE|TRUE
5679600|The Peninsula Beverly Hills|Los Angeles, CA|1157|34.06575|-118.41055|FALSE|FALSE|TRUE|TRUE
5679600|Central Inn Motel|Los Angeles, CA|  87|34.00935|-118.25629|TRUE|TRUE|FALSE|TRUE
5679600|LAX Stadium Inn - El Segundo/Inglewood|Los Angeles, CA|  86|33.93112|-118.35535|TRUE|FALSE|FALSE|TRUE
5679600|Level Los Angeles Downtown - South Olive|Los Angeles, CA| 425|34.04375|-118.25798|FALSE|TRUE|FALSE|TRUE
5679600|Ramada by Wyndham Los Angeles/Downtown West|Los Angeles, CA| 143|34.05120|-118.27772|FALSE|TRUE|FALSE|TRUE
5679600|Gardena Terrace Inn|Los Angeles, CA|  91|33.88616|-118.30890|TRUE|FALSE|FALSE|TRUE
5679600|The Maybourne Beverly Hills|Los Angeles, CA|1213|34.06777|-118.39892|FALSE|FALSE|TRUE|TRUE
5679600|L'Ermitage Beverly Hills|Los Angeles, CA| 978|34.07264|-118.39542|FALSE|FALSE|TRUE|TRUE
5679600|Hollywood Guest Inn|Los Angeles, CA|  83|34.09772|-118.33695|TRUE|FALSE|FALSE|TRUE
5679600|Comet Motel|Los Angeles, CA|  91|33.93788|-118.26499|TRUE|FALSE|FALSE|TRUE
5679600|Freehand Los Angeles|Los Angeles, CA| 178|34.04487|-118.25676|FALSE|TRUE|FALSE|TRUE
5679600|Hotel Indigo Los Angeles Downtown, an IHG Hotel|Los Angeles, CA| 244|34.04740|-118.26468|FALSE|TRUE|FALSE|TRUE
5679600|Welcome Inn on Colorado Blvd|Los Angeles, CA|  91|34.13893|-118.20781|TRUE|FALSE|FALSE|TRUE
5679600|Four Seasons Los Angeles at Beverly Hills|Los Angeles, CA| 988|34.07295|-118.38921|FALSE|FALSE|TRUE|TRUE
5679600|Park Motel|Los Angeles, CA|  81|34.00815|-118.28303|TRUE|TRUE|FALSE|TRUE
5679600|USC Hotel|Los Angeles, CA| 166|34.01926|-118.28129|FALSE|TRUE|FALSE|TRUE
5679600|Stuart Hotel - Near Good Samaritan Hospital|Los Angeles, CA|  90|34.05449|-118.26494|TRUE|FALSE|FALSE|TRUE
5679600|Antonio Hotel|Los Angeles, CA|  86|34.04595|-118.20875|TRUE|FALSE|FALSE|TRUE
5679600|The Ritz-Carlton, Los Angeles|Los Angeles, CA| 703|34.04530|-118.26696|FALSE|TRUE|TRUE|TRUE
5679600|Hollywood Inn Suites Hotel|Los Angeles, CA|  83|33.91615|-118.29309|TRUE|FALSE|FALSE|TRUE
5679600|Wingate by Wyndham Los Angeles International Airport LAX|Los Angeles, CA|  89|33.94273|-118.36961|TRUE|FALSE|FALSE|TRUE
5679600|Waldorf Astoria Beverly Hills|Los Angeles, CA|1154|34.06658|-118.41164|FALSE|FALSE|TRUE|TRUE
5679600|Beverly Wilshire - Beverly Hills, A Four Seasons Hotel|Los Angeles, CA|1145|34.06674|-118.40077|FALSE|FALSE|TRUE|TRUE
5679600|Fairmont Century Plaza|Los Angeles, CA| 723|34.05745|-118.41578|FALSE|FALSE|TRUE|TRUE
5679600|Central Inn Motel on 41 Street|Los Angeles, CA|  83|34.00935|-118.25629|TRUE|TRUE|FALSE|TRUE
5679600|The Beverly Hills Hotel|Los Angeles, CA|1425|34.08171|-118.41380|FALSE|FALSE|TRUE|TRUE
5679600|The West Hollywood EDITION|Los Angeles, CA| 751|34.09002|-118.38915|FALSE|FALSE|TRUE|TRUE
5679600|Satellite Motel|Los Angeles, CA|  91|33.92324|-118.28229|TRUE|FALSE|FALSE|TRUE
5679600|E-Central Downtown Los Angeles Hotel|Los Angeles, CA| 222|34.04432|-118.26413|FALSE|TRUE|FALSE|TRUE
5679602|Fairmont Olympic Hotel|Seattle, WA| 499|47.60806|-122.33393|FALSE|FALSE|TRUE|TRUE
5679602|W Bellevue|Seattle, WA| 445|47.61628|-122.32679|FALSE|TRUE|TRUE|TRUE
5679602|Extended Stay America Suites Seattle Bellevue Factoria|Seattle, WA| 120|47.63458|-122.13137|TRUE|FALSE|FALSE|TRUE
5679602|Staypineapple, University Inn, University District Seattle|Seattle, WA| 187|47.65817|-122.31750|FALSE|TRUE|FALSE|TRUE
5679602|Comfort Inn Kirkland|Seattle, WA| 104|47.70958|-122.17794|TRUE|FALSE|FALSE|TRUE
5679602|Quality Inn Bellevue|Seattle, WA| 122|47.58134|-122.13688|TRUE|FALSE|FALSE|TRUE
5679602|Hotel Hotel Hostel|Seattle, WA|  84|47.65120|-122.35013|TRUE|TRUE|FALSE|TRUE
5679602|College Inn Hotel|Seattle, WA| 106|47.65545|-122.31301|TRUE|TRUE|FALSE|TRUE
5679602|Executive Hotel Pacific|Seattle, WA| 130|47.60702|-122.33344|TRUE|FALSE|FALSE|TRUE
5679602|Hampton Inn & Suites Seattle-Downtown|Seattle, WA| 151|47.62587|-122.34654|FALSE|TRUE|FALSE|TRUE
5679602|Willows Lodge|Seattle, WA| 564|47.73361|-122.14681|FALSE|FALSE|TRUE|TRUE
5679602|The Heathman Hotel|Seattle, WA| 494|47.67570|-122.20367|FALSE|FALSE|TRUE|TRUE
5679602|Hotel Ballard|Seattle, WA| 419|47.66623|-122.38256|FALSE|FALSE|TRUE|TRUE
5679602|citizenM Seattle South Lake Union|Seattle, WA| 153|47.61997|-122.33888|FALSE|TRUE|FALSE|TRUE
5679602|The Edgewater Hotel|Seattle, WA| 721|47.61254|-122.35284|FALSE|FALSE|TRUE|TRUE
5679602|Staybridge Suites Seattle - Fremont, an IHG Hotel|Seattle, WA| 166|47.65490|-122.34690|FALSE|TRUE|FALSE|TRUE
5679602|Days Inn by Wyndham Seattle Aurora|Seattle, WA|  85|47.77134|-122.34658|TRUE|FALSE|FALSE|TRUE
5679602|Four Points by Sheraton Downtown Seattle Center|Seattle, WA| 152|47.62496|-122.34470|FALSE|TRUE|FALSE|TRUE
5679602|Holiday Inn Seattle Downtown, an IHG Hotel|Seattle, WA| 130|47.62033|-122.34282|TRUE|FALSE|FALSE|TRUE
5679602|Sonesta Select Seattle Bellevue Redmond|Seattle, WA| 130|47.63511|-122.14599|TRUE|FALSE|FALSE|TRUE
5679602|Seattle Marriott Bellevue|Seattle, WA| 468|47.61282|-122.19306|FALSE|FALSE|TRUE|TRUE
5679602|Travelodge by Wyndham Seattle By The Space Needle|Seattle, WA| 106|47.62041|-122.34467|TRUE|FALSE|FALSE|TRUE
5679602|Extended Stay America Suites Seattle Redmond|Seattle, WA| 125|47.63458|-122.13137|TRUE|FALSE|FALSE|TRUE
5679602|Lotte Hotel Seattle|Seattle, WA| 521|47.60525|-122.33084|FALSE|FALSE|TRUE|TRUE
5679602|Staypineapple, Watertown, University District Seattle|Seattle, WA| 183|47.65940|-122.31762|FALSE|TRUE|FALSE|TRUE
5679602|Graduate Seattle|Seattle, WA| 161|47.66166|-122.31463|FALSE|TRUE|FALSE|TRUE
5679602|Hotel 1000, LXR Hotels & Resorts|Seattle, WA| 525|47.60505|-122.33612|FALSE|FALSE|TRUE|TRUE
5679602|Four Seasons Hotel Seattle|Seattle, WA| 906|47.60738|-122.33916|FALSE|FALSE|TRUE|TRUE
5679604|Residence Inn Pullman|Pullman, WA| 149|46.73899|-117.15119|FALSE|TRUE|TRUE|TRUE
5679604|Courtyard by Marriott Pullman|Pullman, WA| 122|46.73995|-117.15026|TRUE|TRUE|TRUE|TRUE
5679604|Cougar Land Motel|Pullman, WA|  66|46.73009|-117.18242|TRUE|TRUE|FALSE|TRUE
5679604|Holiday Inn Express And Suites Pullman, an IHG Hotel|Pullman, WA| 135|46.71599|-117.16699|FALSE|TRUE|TRUE|TRUE
5679604|Quality Inn Paradise Creek|Pullman, WA|  80|46.72054|-117.16316|TRUE|TRUE|FALSE|TRUE
5679604|Empire Apartments By Barsala|Pullman, WA| 207|46.72978|-117.18174|FALSE|TRUE|TRUE|TRUE
5679604|FairBridge Inn - Moscow|Pullman, WA|  73|46.73389|-117.02137|TRUE|FALSE|FALSE|TRUE
5679604|Hotel McCoy - Art, Coffee, Beer, Wine|Pullman, WA| 120|46.72914|-117.17718|TRUE|TRUE|TRUE|TRUE
5679604|Best Western Plus University Inn|Pullman, WA| 129|46.73341|-117.02370|TRUE|FALSE|TRUE|TRUE
5679604|Super 8 by Wyndham Moscow / Pullman|Pullman, WA|  82|46.73389|-117.01691|TRUE|FALSE|TRUE|TRUE
5679604|Empire Studios By Barsala|Pullman, WA| 219|46.72978|-117.18174|FALSE|TRUE|TRUE|TRUE
5679604|American Travel Inn|Pullman, WA|  70|46.72611|-117.18555|TRUE|TRUE|FALSE|TRUE
5679604|Monarch Motel|Pullman, WA| 123|46.73040|-117.00231|TRUE|FALSE|TRUE|TRUE
5679604|Coast Hilltop Inn|Pullman, WA| 110|46.73252|-117.19249|TRUE|TRUE|TRUE|TRUE
5681362|Super 8 by Wyndham Portland Airport|Portland, OR|  89|45.56958|-122.54875|TRUE|FALSE|FALSE|TRUE
5681362|Barsala at KoZ|Portland, OR| 187|45.53093|-122.68780|FALSE|FALSE|TRUE|TRUE
5681362|Studio 6 Portland, OR|Portland, OR|  87|45.55865|-122.57908|TRUE|FALSE|FALSE|TRUE
5681362|Hyatt Regency Portland at the Oregon Convention Center|Portland, OR| 187|45.53056|-122.66323|FALSE|TRUE|TRUE|TRUE
5681362|University Place Hotel & Conference Center|Portland, OR| 106|45.50747|-122.68082|TRUE|FALSE|FALSE|TRUE
5681362|The Royal Sonesta Portland Downtown|Portland, OR| 157|45.51981|-122.67742|FALSE|TRUE|TRUE|TRUE
5681362|Howard Johnson by Wyndham Portland Airport|Portland, OR|  86|45.55357|-122.57777|TRUE|FALSE|FALSE|TRUE
5681362|SureStay Hotel by Best Western Portland City Center|Portland, OR| 107|45.50574|-122.68242|TRUE|FALSE|FALSE|TRUE
5681362|Best Western Inn Of Vancouver|Portland, OR| 101|45.62317|-122.55405|TRUE|FALSE|FALSE|TRUE
5681362|Moxy Portland Downtown|Portland, OR| 157|45.52094|-122.68198|FALSE|FALSE|TRUE|TRUE
5681362|Courtyard Portland Downtown/Convention Center|Portland, OR| 184|45.53260|-122.66092|FALSE|TRUE|TRUE|TRUE
5681362|Kings Row Inn|Portland, OR|  95|45.43352|-122.63493|TRUE|FALSE|FALSE|TRUE
5681362|Hotel Eastlund, BW Premier Collection|Portland, OR| 156|45.53041|-122.66086|FALSE|TRUE|FALSE|TRUE
5681362|The Benson Portland, Curio Collection by Hilton|Portland, OR| 167|45.52165|-122.67868|FALSE|TRUE|TRUE|TRUE
5681362|Residence Inn by Marriott Portland Hillsboro|Portland, OR| 861|45.54010|-122.87041|FALSE|FALSE|TRUE|TRUE
5681362|Hyatt Centric Downtown Portland|Portland, OR| 166|45.52083|-122.68322|FALSE|FALSE|TRUE|TRUE
5681362|Oyo Hotel Portland Or Near Airport|Portland, OR|  87|45.55222|-122.50986|TRUE|FALSE|FALSE|TRUE
5681362|Mark Spencer Hotel|Portland, OR| 151|45.52218|-122.68259|FALSE|TRUE|FALSE|TRUE
5681362|DoubleTree by Hilton Hotel Portland|Portland, OR| 147|45.53087|-122.65560|FALSE|TRUE|FALSE|TRUE
5681362|Embassy Suites by Hilton Portland Downtown|Portland, OR| 181|45.52206|-122.67408|FALSE|TRUE|TRUE|TRUE
5681362|Homewood Suites by Hilton Hillsboro/Beaverton|Portland, OR| 349|45.52855|-122.83616|FALSE|FALSE|TRUE|TRUE
5681362|Lolo Pass|Portland, OR| 101|45.52275|-122.64929|TRUE|FALSE|FALSE|TRUE
5681362|Quality Inn Downtown Convention Center|Portland, OR| 109|45.53206|-122.66138|FALSE|TRUE|FALSE|TRUE
5681362|Courtyard by Marriott Portland City Center|Portland, OR| 137|45.52147|-122.67692|FALSE|TRUE|FALSE|TRUE
5681362|Quality Inn Tigard - Portland Southwest|Portland, OR| 103|45.44140|-122.74605|TRUE|FALSE|FALSE|TRUE
5681367|Best Western Inn Of Vancouver|Portland, OR| 101|45.62317|-122.55405|TRUE|FALSE|FALSE|TRUE
5681367|Courtyard by Marriott Portland City Center|Portland, OR| 137|45.52147|-122.67692|FALSE|TRUE|FALSE|TRUE
5681367|Moxy Portland Downtown|Portland, OR| 157|45.52094|-122.68198|FALSE|FALSE|TRUE|TRUE
5681367|Super 8 by Wyndham Portland Airport|Portland, OR|  89|45.56958|-122.54875|TRUE|FALSE|FALSE|TRUE
5681367|Hyatt Centric Downtown Portland|Portland, OR| 166|45.52083|-122.68322|FALSE|FALSE|TRUE|TRUE
5681367|Residence Inn by Marriott Portland Hillsboro|Portland, OR| 861|45.54010|-122.87041|FALSE|FALSE|TRUE|TRUE
5681367|Courtyard Portland Downtown/Convention Center|Portland, OR| 184|45.53260|-122.66092|FALSE|TRUE|TRUE|TRUE
5681367|Hotel Eastlund, BW Premier Collection|Portland, OR| 156|45.53041|-122.66086|FALSE|TRUE|FALSE|TRUE
5681367|Howard Johnson by Wyndham Portland Airport|Portland, OR|  86|45.55357|-122.57777|TRUE|FALSE|FALSE|TRUE
5681367|The Benson Portland, Curio Collection by Hilton|Portland, OR| 167|45.52165|-122.67868|FALSE|TRUE|TRUE|TRUE
5681367|Embassy Suites by Hilton Portland Downtown|Portland, OR| 181|45.52206|-122.67408|FALSE|TRUE|TRUE|TRUE
5681367|University Place Hotel & Conference Center|Portland, OR| 106|45.50747|-122.68082|TRUE|FALSE|FALSE|TRUE
5681367|Kings Row Inn|Portland, OR|  95|45.43352|-122.63493|TRUE|FALSE|FALSE|TRUE
5681367|Barsala at KoZ|Portland, OR| 187|45.53093|-122.68780|FALSE|FALSE|TRUE|TRUE
5681367|SureStay Hotel by Best Western Portland City Center|Portland, OR| 107|45.50574|-122.68242|TRUE|FALSE|FALSE|TRUE
5681367|The Royal Sonesta Portland Downtown|Portland, OR| 157|45.51981|-122.67742|FALSE|TRUE|TRUE|TRUE
5681367|Studio 6 Portland, OR|Portland, OR|  87|45.55865|-122.57908|TRUE|FALSE|FALSE|TRUE
5681367|Quality Inn Downtown Convention Center|Portland, OR| 109|45.53206|-122.66138|FALSE|TRUE|FALSE|TRUE
5681367|Oyo Hotel Portland Or Near Airport|Portland, OR|  87|45.55222|-122.50986|TRUE|FALSE|FALSE|TRUE
5681367|Quality Inn Tigard - Portland Southwest|Portland, OR| 103|45.44140|-122.74605|TRUE|FALSE|FALSE|TRUE
5681367|Homewood Suites by Hilton Hillsboro/Beaverton|Portland, OR| 349|45.52855|-122.83616|FALSE|FALSE|TRUE|TRUE
5681367|Lolo Pass|Portland, OR| 101|45.52275|-122.64929|TRUE|FALSE|FALSE|TRUE
5681367|DoubleTree by Hilton Hotel Portland|Portland, OR| 147|45.53087|-122.65560|FALSE|TRUE|FALSE|TRUE
5681367|Mark Spencer Hotel|Portland, OR| 151|45.52218|-122.68259|FALSE|TRUE|FALSE|TRUE
5681367|Hyatt Regency Portland at the Oregon Convention Center|Portland, OR| 187|45.53056|-122.66323|FALSE|TRUE|TRUE|TRUE
5685265|The Ritz-Carlton, New Orleans|New Orleans, LA| 346|29.95496| -90.07097|FALSE|TRUE|TRUE|TRUE
5685265|One11 Hotel|New Orleans, LA| 356|29.95196| -90.06481|FALSE|FALSE|TRUE|TRUE
5685265|The Roosevelt New Orleans, A Waldorf Astoria Hotel|New Orleans, LA| 372|29.95434| -90.07230|FALSE|TRUE|TRUE|TRUE
5685265|Hotel Vinache|New Orleans, LA| 107|29.95629| -90.07443|TRUE|TRUE|FALSE|TRUE
5685265|The Natchez|New Orleans, LA| 492|29.94974| -90.06870|FALSE|FALSE|TRUE|TRUE
5685265|Best Western New Orleans East|New Orleans, LA|  96|30.03823| -89.97211|TRUE|FALSE|FALSE|TRUE
5685265|Virgin Hotels New Orleans|New Orleans, LA| 290|29.94894| -90.07313|FALSE|TRUE|FALSE|TRUE
5685265|Days Inn by Wyndham New Orleans Pontchartrain|New Orleans, LA|  83|30.00213| -90.03978|TRUE|FALSE|FALSE|TRUE
5685265|Quality Inn New Orleans I-10 East|New Orleans, LA|  64|30.03715| -89.97409|TRUE|FALSE|FALSE|TRUE
5685265|Comfort Inn Marrero - New Orleans West|New Orleans, LA|  91|29.89219| -90.12282|TRUE|FALSE|FALSE|TRUE
5685265|The Frenchmen|New Orleans, LA|1569|30.00757| -90.06095|FALSE|FALSE|TRUE|TRUE
5685265|Blake Hotel New Orleans, BW Premier Collection|New Orleans, LA| 116|29.94925| -90.07060|FALSE|TRUE|FALSE|TRUE
5685265|Maison Saint Charles by Hotel RL|New Orleans, LA|  99|29.94029| -90.07522|TRUE|FALSE|FALSE|TRUE
5685265|La Quinta Inn by Wyndham New Orleans Veterans / Metairie|New Orleans, LA|  81|30.00483| -90.20567|TRUE|FALSE|FALSE|TRUE
5685265|Best Western Bayou Inn|New Orleans, LA| 105|29.90780| -90.16035|TRUE|FALSE|FALSE|TRUE
5685265|Suburban Studios|New Orleans, LA|  95|29.90910| -90.20646|TRUE|FALSE|FALSE|TRUE
5685265|La Quinta Inn & Suites by Wyndham New Orleans Downtown|New Orleans, LA| 107|29.95089| -90.06941|TRUE|TRUE|FALSE|TRUE
5685265|Canopy by Hilton New Orleans Downtown|New Orleans, LA| 174|29.95404| -90.07420|FALSE|TRUE|FALSE|TRUE
5685265|Hotel Monteleone, New Orleans|New Orleans, LA| 745|29.95422| -90.06776|FALSE|FALSE|TRUE|TRUE
5685265|Windsor Court Hotel|New Orleans, LA| 428|29.94948| -90.06635|FALSE|FALSE|TRUE|TRUE
5685265|MOXY by Marriott New Orleans Downtown French Quarter|New Orleans, LA| 115|29.95233| -90.06955|FALSE|TRUE|FALSE|TRUE
5685265|Four Seasons Hotel New Orleans|New Orleans, LA| 461|29.94888| -90.06389|FALSE|FALSE|TRUE|TRUE
5685265|Audubon Cottages|New Orleans, LA| 382|29.95817| -90.06778|FALSE|FALSE|TRUE|TRUE
5685265|Maison de la Luz|New Orleans, LA| 523|29.94879| -90.07202|FALSE|TRUE|TRUE|TRUE
5685265|Homewood Suites by Hilton New Orleans French Quarter|New Orleans, LA| 152|29.95075| -90.07313|FALSE|TRUE|FALSE|TRUE
5685308|Super 8 by Wyndham Phoenix West|Glendale, AZ|  70|33.49607|-112.11553|TRUE|FALSE|FALSE|TRUE
5685308|Comfort Suites Phoenix North|Glendale, AZ| 110|33.57910|-112.11583|FALSE|FALSE|TRUE|TRUE
5685308|HomeTowne Studios Phoenix - Dunlap Ave|Glendale, AZ|  79|33.56842|-112.10440|TRUE|FALSE|FALSE|TRUE
5685308|Sonesta Simply Suites Phoenix Glendale|Glendale, AZ| 110|33.58967|-112.11564|FALSE|FALSE|TRUE|TRUE
5685308|Courtyard by Marriott Phoenix West/Avondale|Glendale, AZ| 156|33.46610|-112.26699|FALSE|TRUE|TRUE|TRUE
5685308|Red Roof Inn PLUS+ Phoenix West|Glendale, AZ|  88|33.46438|-112.17166|TRUE|FALSE|FALSE|TRUE
5685308|Red Roof Inn Phoenix - Midtown|Glendale, AZ|  86|33.49583|-112.11374|TRUE|FALSE|FALSE|TRUE
5685308|Motel 6 Phoenix, AZ - West|Glendale, AZ|  90|33.46439|-112.17297|TRUE|FALSE|FALSE|TRUE
5685308|Baymont by Wyndham Phoenix I-10 near 51st Ave|Glendale, AZ|  95|33.46209|-112.17325|TRUE|FALSE|FALSE|TRUE
5685308|Super 8 by Wyndham Phoenix Metro North|Glendale, AZ|  75|33.55603|-112.11363|TRUE|FALSE|FALSE|TRUE
5685308|Travel Inn - In Phoenix (Alhambra)|Glendale, AZ|  80|33.49380|-112.11609|TRUE|FALSE|FALSE|TRUE
5685308|Home2 Suites by Hilton Glendale - Westgate|Glendale, AZ| 174|33.53138|-112.26659|FALSE|TRUE|TRUE|TRUE
5685308|Springhill Suites Phoenix Glendale Sports & Entertainment District|Glendale, AZ| 154|33.54272|-112.25994|FALSE|TRUE|TRUE|TRUE
5685308|Tru By Hilton Phoenix Glendale Westgate, AZ|Glendale, AZ| 146|33.53125|-112.26562|FALSE|TRUE|TRUE|TRUE
5685308|Staybridge Suites Phoenix - Glendale Sports Dist, an IHG Hotel|Glendale, AZ| 196|33.54119|-112.26119|FALSE|TRUE|TRUE|TRUE
5685308|Travelers Inn|Glendale, AZ| 101|33.53865|-112.18599|FALSE|TRUE|FALSE|TRUE
5685308|Residence Inn by Marriott Phoenix Goodyear|Glendale, AZ| 342|33.46881|-112.35912|FALSE|FALSE|TRUE|TRUE
5685308|Aloft Glendale at Westgate|Glendale, AZ| 223|33.53637|-112.25928|FALSE|TRUE|TRUE|TRUE
5685308|Comfort Suites Glendale - State Farm Stadium Area|Glendale, AZ| 153|33.50993|-112.27045|FALSE|TRUE|TRUE|TRUE
5685308|Best Western Tolleson Hotel|Glendale, AZ| 155|33.46469|-112.24145|FALSE|TRUE|TRUE|TRUE
5685308|Days Hotel by Wyndham Peoria Glendale Area|Glendale, AZ|  95|33.59079|-112.25157|TRUE|TRUE|FALSE|TRUE
5685308|La Quinta Inn by Wyndham Phoenix Thomas Road|Glendale, AZ|  94|33.47952|-112.11191|TRUE|FALSE|FALSE|TRUE
5685308|HomeTowne Studios by Red Roof Phoenix - West|Glendale, AZ|  90|33.46438|-112.17166|TRUE|FALSE|FALSE|TRUE
5685333|Residence Inn by Marriott Phoenix Goodyear|Glendale, AZ| 342|33.46881|-112.35912|FALSE|FALSE|TRUE|TRUE
5685333|Courtyard by Marriott Phoenix West/Avondale|Glendale, AZ| 156|33.46610|-112.26699|FALSE|TRUE|TRUE|TRUE
5685333|Home2 Suites by Hilton Glendale - Westgate|Glendale, AZ| 174|33.53138|-112.26659|FALSE|TRUE|TRUE|TRUE
5685333|Travel Inn - In Phoenix (Alhambra)|Glendale, AZ|  80|33.49380|-112.11609|TRUE|FALSE|FALSE|TRUE
5685333|Aloft Glendale at Westgate|Glendale, AZ| 223|33.53637|-112.25928|FALSE|TRUE|TRUE|TRUE
5685333|Super 8 by Wyndham Phoenix Metro North|Glendale, AZ|  75|33.55603|-112.11363|TRUE|FALSE|FALSE|TRUE
5685333|Red Roof Inn PLUS+ Phoenix West|Glendale, AZ|  88|33.46438|-112.17166|TRUE|FALSE|FALSE|TRUE
5685333|Motel 6 Phoenix, AZ - West|Glendale, AZ|  90|33.46439|-112.17297|TRUE|FALSE|FALSE|TRUE
5685333|Super 8 by Wyndham Phoenix West|Glendale, AZ|  79|33.49607|-112.11553|TRUE|FALSE|FALSE|TRUE
5685333|La Quinta Inn by Wyndham Phoenix Thomas Road|Glendale, AZ|  94|33.47952|-112.11191|TRUE|FALSE|FALSE|TRUE
5685333|Comfort Suites Glendale - State Farm Stadium Area|Glendale, AZ| 153|33.50993|-112.27045|FALSE|TRUE|TRUE|TRUE
5685333|Springhill Suites Phoenix Glendale Sports & Entertainment District|Glendale, AZ| 154|33.54272|-112.25994|FALSE|TRUE|TRUE|TRUE
5685333|Days Hotel by Wyndham Peoria Glendale Area|Glendale, AZ|  95|33.59079|-112.25157|TRUE|TRUE|FALSE|TRUE
5685333|Comfort Suites Phoenix North|Glendale, AZ| 110|33.57910|-112.11583|FALSE|FALSE|TRUE|TRUE
5685333|Staybridge Suites Phoenix - Glendale Sports Dist, an IHG Hotel|Glendale, AZ| 196|33.54119|-112.26119|FALSE|TRUE|TRUE|TRUE
5685333|HomeTowne Studios Phoenix - Dunlap Ave|Glendale, AZ|  79|33.56842|-112.10440|TRUE|FALSE|FALSE|TRUE
5685333|Tru By Hilton Phoenix Glendale Westgate, AZ|Glendale, AZ| 146|33.53125|-112.26562|FALSE|TRUE|TRUE|TRUE
5685333|Travelers Inn|Glendale, AZ| 101|33.53865|-112.18599|FALSE|TRUE|FALSE|TRUE
5685333|Baymont by Wyndham Phoenix I-10 near 51st Ave|Glendale, AZ|  95|33.46209|-112.17325|TRUE|FALSE|FALSE|TRUE
5685333|Red Roof Inn Phoenix - Midtown|Glendale, AZ|  86|33.49583|-112.11374|TRUE|FALSE|FALSE|TRUE
5685333|HomeTowne Studios by Red Roof Phoenix - West|Glendale, AZ|  90|33.46438|-112.17166|TRUE|FALSE|FALSE|TRUE
5685333|Best Western Tolleson Hotel|Glendale, AZ| 155|33.46469|-112.24145|FALSE|TRUE|TRUE|TRUE
5685333|Sonesta Simply Suites Phoenix Glendale|Glendale, AZ| 110|33.58967|-112.11564|FALSE|FALSE|TRUE|TRUE
5685337|Travel Inn - In Phoenix (Alhambra)|Glendale, AZ|  80|33.49380|-112.11609|TRUE|FALSE|FALSE|TRUE
5685337|HomeTowne Studios Phoenix - Dunlap Ave|Glendale, AZ|  79|33.56842|-112.10440|TRUE|FALSE|FALSE|TRUE
5685337|Comfort Suites Glendale - State Farm Stadium Area|Glendale, AZ| 153|33.50993|-112.27045|FALSE|TRUE|TRUE|TRUE
5685337|Days Hotel by Wyndham Peoria Glendale Area|Glendale, AZ|  95|33.59079|-112.25157|TRUE|TRUE|FALSE|TRUE
5685337|Sonesta Simply Suites Phoenix Glendale|Glendale, AZ| 110|33.58967|-112.11564|FALSE|FALSE|TRUE|TRUE
5685337|Baymont by Wyndham Phoenix I-10 near 51st Ave|Glendale, AZ|  95|33.46209|-112.17325|TRUE|FALSE|FALSE|TRUE
5685337|Home2 Suites by Hilton Glendale - Westgate|Glendale, AZ| 174|33.53138|-112.26659|FALSE|TRUE|TRUE|TRUE
