id|name|city|price|lat|long|p|t|l|fresh
5737490|Comfort Inn Bloomington near University|Bloomington, IN|  94|39.18527| -86.53625|TRUE|TRUE|FALSE|TRUE
5737490|The Beaumont House|Bloomington, IN| 212|39.16923| -86.66535|FALSE|FALSE|TRUE|TRUE
5737490|Courtyard by Marriott Bloomington|Bloomington, IN| 123|39.16376| -86.53538|FALSE|FALSE|TRUE|TRUE
5737490|Century Suites Hotel|Bloomington, IN| 129|39.16342| -86.47212|FALSE|FALSE|TRUE|TRUE
5737490|Grant Street Inn|Bloomington, IN| 133|39.16881| -86.52952|FALSE|TRUE|TRUE|TRUE
5737490|SpringHill Suites by Marriott Bloomington|Bloomington, IN| 189|39.17063| -86.53550|FALSE|TRUE|TRUE|TRUE
5737490|Wampler House|Bloomington, IN| 167|39.11223| -86.53932|FALSE|FALSE|TRUE|TRUE
5737490|La Quinta Inn & Suites by Wyndham Bloomington|Bloomington, IN| 108|39.16659| -86.57700|TRUE|FALSE|FALSE|TRUE
5737490|Candlewood Suites Bloomington, an IHG Hotel|Bloomington, IN| 106|39.15018| -86.57002|TRUE|FALSE|FALSE|TRUE
5737490|Biddle Hotel and Conference Center|Bloomington, IN| 133|39.16768| -86.52241|FALSE|TRUE|TRUE|TRUE
5737490|Homewood Suites by Hilton Bloomington|Bloomington, IN| 123|39.15559| -86.57443|FALSE|FALSE|TRUE|TRUE
5737490|Showers Inn|Bloomington, IN| 156|39.17032| -86.53208|FALSE|TRUE|TRUE|TRUE
5737490|Best Value Inn|Bloomington, IN|  78|39.18588| -86.53332|TRUE|TRUE|FALSE|TRUE
5737490|Hilton Garden Inn Bloomington|Bloomington, IN| 113|39.16808| -86.53515|TRUE|TRUE|FALSE|TRUE
5737490|Home2 Suites by Hilton Bloomington|Bloomington, IN| 138|39.17988| -86.53321|FALSE|TRUE|TRUE|TRUE
5737490|Hyatt Place Bloomington|Bloomington, IN| 123|39.16609| -86.53581|FALSE|FALSE|TRUE|TRUE
5737490|Travelodge by Wyndham Bloomington|Bloomington, IN|  69|39.16472| -86.49981|TRUE|FALSE|FALSE|TRUE
5737490|Hampton Inn Bloomington|Bloomington, IN| 110|39.18527| -86.53352|TRUE|TRUE|FALSE|TRUE
5737490|Quality Inn Bloomington near University|Bloomington, IN|  65|39.18771| -86.54603|TRUE|FALSE|FALSE|TRUE
5737490|Holiday Inn Bloomington, an IHG Hotel|Bloomington, IN| 107|39.18570| -86.53607|TRUE|TRUE|FALSE|TRUE
5737490|Super 8 by Wyndham Bloomington|Bloomington, IN|  78|39.18759| -86.54508|TRUE|FALSE|FALSE|TRUE
5747490|Suburban Studios Lafayette|West Lafayette, IN|  56|40.41873| -86.82368|TRUE|FALSE|FALSE|TRUE
5747490|Red Roof Inn Lafayette - Purdue University|West Lafayette, IN|  63|40.41673| -86.82780|TRUE|FALSE|FALSE|TRUE
5747490|Homewood Suites by Hilton Lafayette Rossville Exit|West Lafayette, IN| 121|40.41672| -86.83114|FALSE|TRUE|TRUE|TRUE
5747490|Hilton Garden Inn West Lafayette Wabash Landing|West Lafayette, IN| 143|40.42048| -86.90002|FALSE|TRUE|TRUE|TRUE
5747490|The Union Club Hotel at Purdue University, Autograph Collection|West Lafayette, IN| 211|40.42494| -86.91068|FALSE|TRUE|TRUE|TRUE
5747490|Comfort Suites Lafayette University Area|West Lafayette, IN| 101|40.41863| -86.81683|TRUE|FALSE|FALSE|TRUE
5747490|Residence Inn by Marriott Lafayette|West Lafayette, IN| 133|40.41920| -86.83513|FALSE|TRUE|TRUE|TRUE
5747490|Holiday Inn Lafayette-City Centre, an IHG Hotel|West Lafayette, IN| 118|40.41680| -86.89125|FALSE|TRUE|TRUE|TRUE
5747490|Comfort Inn Lafayette I-65|West Lafayette, IN|  87|40.41674| -86.81831|TRUE|FALSE|FALSE|TRUE
5747490|Hampton Inn Lafayette|West Lafayette, IN| 113|40.41969| -86.90115|TRUE|TRUE|TRUE|TRUE
5747490|Staybridge Suites Lafayette, an IHG Hotel|West Lafayette, IN| 127|40.41192| -86.81429|FALSE|FALSE|TRUE|TRUE
5747490|Best Western Plus Lafayette Hotel University Area|West Lafayette, IN| 100|40.41311| -86.81532|TRUE|FALSE|FALSE|TRUE
5747490|Super 8 by Wyndham Lafayette / Purdue Area|West Lafayette, IN|  63|40.41691| -86.82543|TRUE|FALSE|FALSE|TRUE
5747490|Home2 Suites by Hilton Lafayette, IN|West Lafayette, IN| 113|40.41889| -86.83405|TRUE|TRUE|TRUE|TRUE
5747490|Four Points by Sheraton West Lafayette|West Lafayette, IN| 110|40.45991| -86.93610|TRUE|TRUE|FALSE|TRUE
5747490|Prestige Inn West Lafayette|West Lafayette, IN|  76|40.45293| -86.92583|TRUE|TRUE|FALSE|TRUE
5747490|Courtyard Marriott Lafayette|West Lafayette, IN| 130|40.41588| -86.83259|FALSE|TRUE|TRUE|TRUE
5747490|Doubletree by Hilton Lafayette East, IN|West Lafayette, IN| 123|40.41676| -86.82307|FALSE|FALSE|TRUE|TRUE
5747493|Bozeman Lewis & Clark Motel|Bozeman, MT| 206|45.68147|-111.03199|FALSE|TRUE|TRUE|TRUE
5747493|Hilton Garden Inn Bozeman|Bozeman, MT| 214|45.69950|-111.06247|FALSE|FALSE|TRUE|TRUE
5747493|Kimpton Armory Hotel Bozeman, an IHG Hotel|Bozeman, MT| 286|45.68004|-111.03802|FALSE|TRUE|TRUE|TRUE
5747493|Residence Inn by Marriott Bozeman|Bozeman, MT| 205|45.71326|-111.06683|FALSE|FALSE|TRUE|TRUE
5747493|The Outpost|Bozeman, MT| 105|45.68147|-111.03199|TRUE|TRUE|FALSE|TRUE
5747493|The LARK Bozeman|Bozeman, MT| 176|45.67890|-111.03932|FALSE|TRUE|FALSE|TRUE
5747493|Comfort Inn Bozeman|Bozeman, MT| 121|45.69368|-111.04494|TRUE|FALSE|FALSE|TRUE
5747493|Homewood Suites by Hilton Bozeman|Bozeman, MT| 187|45.69689|-111.05098|FALSE|FALSE|TRUE|TRUE
5747493|Element Bozeman|Bozeman, MT| 229|45.68069|-111.03625|FALSE|TRUE|TRUE|TRUE
5747493|Comfort Suites Airport - University|Bozeman, MT| 138|45.71512|-111.07070|TRUE|FALSE|FALSE|TRUE
5747493|Residence Inn by Marriott Bozeman Downtown|Bozeman, MT| 200|45.67955|-111.02468|FALSE|TRUE|TRUE|TRUE
5747493|Super 8 by Wyndham Belgrade/Bozeman Airport|Bozeman, MT|  94|45.76422|-111.18440|TRUE|FALSE|FALSE|TRUE
5747493|Gallatin River Lodge|Bozeman, MT| 211|45.68462|-111.06839|FALSE|TRUE|TRUE|TRUE
5747493|RSVP Hotel|Bozeman, MT| 140|45.68498|-111.04596|TRUE|TRUE|FALSE|TRUE
5747493|SpringHill Suites by Marriott Bozeman|Bozeman, MT| 206|45.70082|-111.05841|FALSE|FALSE|TRUE|TRUE
5747493|My Place Hotel - Bozeman, MT|Bozeman, MT| 112|45.71762|-111.06889|TRUE|FALSE|FALSE|TRUE
5747493|Microtel Inn & Suites by Wyndham Bozeman|Bozeman, MT|  89|45.69783|-111.04405|TRUE|FALSE|FALSE|TRUE
5747493|Baymont by Wyndham Bozeman|Bozeman, MT|  97|45.69953|-111.05003|TRUE|FALSE|FALSE|TRUE
5747493|AC Hotel Bozeman Downtown|Bozeman, MT| 213|45.68046|-111.03716|FALSE|TRUE|TRUE|TRUE
5747493|C'mon Inn Bozeman|Bozeman, MT| 132|45.71439|-111.06760|TRUE|FALSE|FALSE|TRUE
5747493|Quality Inn|Bozeman, MT| 109|45.68147|-111.03199|TRUE|TRUE|FALSE|TRUE
5747494|Comfort Suites Airport - University|Bozeman, MT| 138|45.71512|-111.07070|TRUE|FALSE|FALSE|TRUE
5747494|The LARK Bozeman|Bozeman, MT| 176|45.67890|-111.03932|FALSE|TRUE|FALSE|TRUE
5747494|Kimpton Armory Hotel Bozeman, an IHG Hotel|Bozeman, MT| 286|45.68004|-111.03802|FALSE|TRUE|TRUE|TRUE
5747494|Quality Inn|Bozeman, MT| 109|45.68147|-111.03199|TRUE|TRUE|FALSE|TRUE
5747494|RSVP Hotel|Bozeman, MT| 140|45.68498|-111.04596|TRUE|TRUE|FALSE|TRUE
5747494|C'mon Inn Bozeman|Bozeman, MT| 132|45.71439|-111.06760|TRUE|FALSE|FALSE|TRUE
5747494|Hilton Garden Inn Bozeman|Bozeman, MT| 214|45.69950|-111.06247|FALSE|FALSE|TRUE|TRUE
5747494|Residence Inn by Marriott Bozeman Downtown|Bozeman, MT| 200|45.67955|-111.02468|FALSE|TRUE|TRUE|TRUE
5747494|The Outpost|Bozeman, MT| 105|45.68147|-111.03199|TRUE|TRUE|FALSE|TRUE
5747494|Element Bozeman|Bozeman, MT| 229|45.68069|-111.03625|FALSE|TRUE|TRUE|TRUE
5747494|Homewood Suites by Hilton Bozeman|Bozeman, MT| 187|45.69689|-111.05098|FALSE|FALSE|TRUE|TRUE
5747494|Comfort Inn Bozeman|Bozeman, MT| 121|45.69368|-111.04494|TRUE|FALSE|FALSE|TRUE
5747494|Microtel Inn & Suites by Wyndham Bozeman|Bozeman, MT|  89|45.69783|-111.04405|TRUE|FALSE|FALSE|TRUE
5747494|Residence Inn by Marriott Bozeman|Bozeman, MT| 205|45.71326|-111.06683|FALSE|FALSE|TRUE|TRUE
5747494|My Place Hotel - Bozeman, MT|Bozeman, MT| 112|45.71762|-111.06889|TRUE|FALSE|FALSE|TRUE
5747494|Baymont by Wyndham Bozeman|Bozeman, MT|  97|45.69953|-111.05003|TRUE|FALSE|FALSE|TRUE
5747494|SpringHill Suites by Marriott Bozeman|Bozeman, MT| 206|45.70082|-111.05841|FALSE|FALSE|TRUE|TRUE
5747494|Gallatin River Lodge|Bozeman, MT| 211|45.68462|-111.06839|FALSE|TRUE|TRUE|TRUE
5747494|Bozeman Lewis & Clark Motel|Bozeman, MT| 206|45.68147|-111.03199|FALSE|TRUE|TRUE|TRUE
5747494|Super 8 by Wyndham Belgrade/Bozeman Airport|Bozeman, MT|  94|45.76422|-111.18440|TRUE|FALSE|FALSE|TRUE
5747494|AC Hotel Bozeman Downtown|Bozeman, MT| 213|45.68046|-111.03716|FALSE|TRUE|TRUE|TRUE
5747496|Super 8 by Wyndham Belgrade/Bozeman Airport|Bozeman, MT|  94|45.76422|-111.18440|TRUE|FALSE|FALSE|TRUE
5747496|The Outpost|Bozeman, MT| 105|45.68147|-111.03199|TRUE|TRUE|FALSE|TRUE
5747496|Quality Inn|Bozeman, MT| 109|45.68147|-111.03199|TRUE|TRUE|FALSE|TRUE
5747496|Comfort Suites Airport - University|Bozeman, MT| 138|45.71512|-111.07070|TRUE|FALSE|FALSE|TRUE
5747496|Homewood Suites by Hilton Bozeman|Bozeman, MT| 187|45.69689|-111.05098|FALSE|FALSE|TRUE|TRUE
5747496|Microtel Inn & Suites by Wyndham Bozeman|Bozeman, MT|  89|45.69783|-111.04405|TRUE|FALSE|FALSE|TRUE
5747496|Hilton Garden Inn Bozeman|Bozeman, MT| 214|45.69950|-111.06247|FALSE|FALSE|TRUE|TRUE
5747496|My Place Hotel - Bozeman, MT|Bozeman, MT| 112|45.71762|-111.06889|TRUE|FALSE|FALSE|TRUE
5747496|Baymont by Wyndham Bozeman|Bozeman, MT|  97|45.69953|-111.05003|TRUE|FALSE|FALSE|TRUE
5747496|Residence Inn by Marriott Bozeman|Bozeman, MT| 205|45.71326|-111.06683|FALSE|FALSE|TRUE|TRUE
5747496|Residence Inn by Marriott Bozeman Downtown|Bozeman, MT| 200|45.67955|-111.02468|FALSE|TRUE|TRUE|TRUE
5747496|AC Hotel Bozeman Downtown|Bozeman, MT| 213|45.68046|-111.03716|FALSE|TRUE|TRUE|TRUE
5747496|C'mon Inn Bozeman|Bozeman, MT| 132|45.71439|-111.06760|TRUE|FALSE|FALSE|TRUE
5747496|Kimpton Armory Hotel Bozeman, an IHG Hotel|Bozeman, MT| 286|45.68004|-111.03802|FALSE|TRUE|TRUE|TRUE
5747496|Element Bozeman|Bozeman, MT| 229|45.68069|-111.03625|FALSE|TRUE|TRUE|TRUE
5747496|Bozeman Lewis & Clark Motel|Bozeman, MT| 206|45.68147|-111.03199|FALSE|TRUE|TRUE|TRUE
5747496|Comfort Inn Bozeman|Bozeman, MT| 121|45.69368|-111.04494|TRUE|FALSE|FALSE|TRUE
5747496|The LARK Bozeman|Bozeman, MT| 176|45.67890|-111.03932|FALSE|TRUE|FALSE|TRUE
5747496|SpringHill Suites by Marriott Bozeman|Bozeman, MT| 206|45.70082|-111.05841|FALSE|FALSE|TRUE|TRUE
5747496|RSVP Hotel|Bozeman, MT| 140|45.68498|-111.04596|TRUE|TRUE|FALSE|TRUE
5747496|Gallatin River Lodge|Bozeman, MT| 211|45.68462|-111.06839|FALSE|TRUE|TRUE|TRUE
5748779|Hotel M Morgantown - WVU Area|Morgantown, WV|  69|39.65435| -79.98575|TRUE|TRUE|FALSE|TRUE
5748779|Lakeview Golf Resort|Morgantown, WV| 280|39.68710| -79.87440|FALSE|FALSE|TRUE|TRUE
5748779|Courtyard Morgantown|Morgantown, WV| 133|39.64540| -79.99448|FALSE|TRUE|TRUE|TRUE
5748779|Scholar Morgantown, Tapestry Collection by Hilton|Morgantown, WV|  99|39.63104| -79.95635|TRUE|TRUE|FALSE|TRUE
5748779|Super 8 by Wyndham Morgantown|Morgantown, WV|  63|39.64894| -79.89710|TRUE|FALSE|FALSE|TRUE
5748779|Springhill Suites by Marriott Morgantown|Morgantown, WV|  95|39.61881| -79.92391|TRUE|FALSE|FALSE|TRUE
5748779|Residence Inn by Marriott Morgantown Medical Center Area|Morgantown, WV| 134|39.65378| -79.95244|FALSE|TRUE|TRUE|TRUE
5748779|Fairfield Inn & Suites by Marriott Morgantown|Morgantown, WV| 128|39.65333| -80.00727|FALSE|TRUE|TRUE|TRUE
5748779|SureStay Plus Hotel by Best Western Morgantown|Morgantown, WV|  85|39.62673| -79.99184|TRUE|TRUE|FALSE|TRUE
5748779|Econo Lodge|Morgantown, WV|  53|39.65574| -79.98542|TRUE|TRUE|FALSE|TRUE
5748779|Euro Suites Hotel|Morgantown, WV|  98|39.65841| -79.96225|TRUE|TRUE|FALSE|TRUE
5748779|Holiday Inn Express Morgantown, an IHG Hotel|Morgantown, WV| 105|39.64914| -79.89809|FALSE|FALSE|TRUE|TRUE
5748779|Morgantown Marriott at Waterfront Place|Morgantown, WV| 157|39.62397| -79.96379|FALSE|FALSE|TRUE|TRUE
5748779|Holiday Inn Morgantown - University Area, an IHG Hotel|Morgantown, WV| 115|39.65920| -79.95375|FALSE|TRUE|TRUE|TRUE
5748779|Hampton Inn Morgantown|Morgantown, WV| 115|39.65351| -79.96428|FALSE|TRUE|TRUE|TRUE
5748779|The Cranberry, Ascend Hotel Collection|Morgantown, WV| 113|39.67114| -79.85656|FALSE|FALSE|TRUE|TRUE
5748779|Candlewood Suites Morgantown-Univ West Virginia, an IHG Hotel|Morgantown, WV|  93|39.65852| -80.01466|TRUE|FALSE|FALSE|TRUE
5748779|Hotel Morgan a Wyndham Hotel|Morgantown, WV| 134|39.62843| -79.95759|FALSE|FALSE|TRUE|TRUE
5748779|Quality Inn|Morgantown, WV|  84|39.58631| -79.95282|TRUE|FALSE|FALSE|TRUE
5748779|Lakeview Golf Resort, Trademark Collection by Wyndham|Morgantown, WV| 100|39.66646| -79.85385|TRUE|FALSE|FALSE|TRUE
5749987|Days Inn by Wyndham Ames|Ames, IA|  78|42.02056| -93.61080|TRUE|TRUE|FALSE|TRUE
5749987|Courtyard by Marriott Ames|Ames, IA| 104|42.00698| -93.61383|FALSE|TRUE|TRUE|TRUE
5749987|Fairfield Inn & Suites by Marriott Ames|Ames, IA|  94|42.00889| -93.58345|TRUE|FALSE|FALSE|TRUE
5749987|Super 8 by Wyndham Ames|Ames, IA|  63|42.00933| -93.58036|TRUE|FALSE|FALSE|TRUE
5749987|Iowa House|Ames, IA| 128|42.01877| -93.65212|FALSE|TRUE|TRUE|TRUE
5749987|Baymont by Wyndham Ames|Ames, IA|  62|42.00803| -93.58206|TRUE|FALSE|FALSE|TRUE
5749987|The Modern Flats of Ames|Ames, IA| 154|42.03078| -93.63191|FALSE|TRUE|TRUE|TRUE
5749987|Comfort Inn and Suites Ames near ISU Campus|Ames, IA| 100|42.00899| -93.61828|FALSE|TRUE|TRUE|TRUE
5749987|Gateway Hotel and Conference Center at Iowa State University|Ames, IA| 100|42.00102| -93.64280|FALSE|TRUE|TRUE|TRUE
5749987|Red Roof Inn Ames|Ames, IA|  66|42.01007| -93.58000|TRUE|FALSE|FALSE|TRUE
5749987|AmericInn by Wyndham Ames|Ames, IA|  77|42.00878| -93.57925|TRUE|FALSE|FALSE|TRUE
5749987|Hampton Inn & Suites Ames|Ames, IA|  95|42.00781| -93.58439|TRUE|FALSE|TRUE|TRUE
5749987|Radisson Ames Conference Center at ISU|Ames, IA| 104|41.99880| -93.64143|FALSE|TRUE|TRUE|TRUE
5749987|Best Western Plus University Park Inn & Suites|Ames, IA|  80|42.00051| -93.63807|TRUE|TRUE|FALSE|TRUE
5749987|FRONTDESK Core Apts Campustown Ames|Ames, IA| 105|42.02335| -93.67803|FALSE|TRUE|TRUE|TRUE
5749987|Loya's Little House Bed & Breakfast|Ames, IA|  95|42.11855| -93.56566|TRUE|FALSE|TRUE|TRUE
5749987|Econo Lodge Ames|Ames, IA|  71|42.00785| -93.57783|TRUE|FALSE|FALSE|TRUE
5749987|Hilton Garden Inn Ames|Ames, IA| 114|42.01070| -93.68315|FALSE|TRUE|TRUE|TRUE
5750003|Radisson Hotel Cincinnati Riverfront|Cincinnati, OH| 132|39.08574| -84.52184|FALSE|FALSE|TRUE|TRUE
5750003|Holiday Inn Express and Suites-Cincinnati NE - Red Bank Road, an IHG Hotel|Cincinnati, OH| 130|39.15774| -84.40322|FALSE|TRUE|TRUE|TRUE
5750003|Graduate Cincinnati|Cincinnati, OH| 150|39.13667| -84.50733|FALSE|TRUE|TRUE|TRUE
5750003|Days Inn by Wyndham Fort Wright Cincinnati Area|Cincinnati, OH|  70|39.05662| -84.54476|TRUE|FALSE|FALSE|TRUE
5750003|HomeTowne Studios by Red Roof Cincinnati – Sharonville|Cincinnati, OH|  72|39.26906| -84.43681|TRUE|FALSE|FALSE|TRUE
5750003|Springhill Suites by Marriott Midtown Cincinnati|Cincinnati, OH| 154|39.11798| -84.49864|FALSE|TRUE|TRUE|TRUE
5750003|Hampton Inn & Suites Cincinnati-Downtown|Cincinnati, OH| 160|39.10294| -84.51363|FALSE|TRUE|TRUE|TRUE
5750003|Extended Stay America Suites Cincinnati Blue Ash Reagan Hwy|Cincinnati, OH|  81|39.22494| -84.38510|TRUE|FALSE|FALSE|TRUE
5750003|Hampton Inn & Suites Cincinnati/Uptown-University Area|Cincinnati, OH| 161|39.13445| -84.50878|FALSE|TRUE|TRUE|TRUE
5750003|Comfort Inn Blue Ash North|Cincinnati, OH|  70|39.26045| -84.37945|TRUE|FALSE|FALSE|TRUE
5750003|MainStay Suites Cincinnati University - Uptown|Cincinnati, OH| 117|39.12471| -84.50222|FALSE|TRUE|TRUE|TRUE
5750003|Hilton Garden Inn Cincinnati Midtown|Cincinnati, OH| 130|39.14442| -84.45966|FALSE|TRUE|TRUE|TRUE
5750003|MainStay Suites Cincinnati Blue Ash|Cincinnati, OH|  74|39.25646| -84.37661|TRUE|FALSE|FALSE|TRUE
5750003|Quality Inn & Suites|Cincinnati, OH|  77|39.10357| -84.52874|TRUE|FALSE|FALSE|TRUE
5750003|Extended Stay America Suites Cincinnati Springdale I275|Cincinnati, OH|  84|39.05419| -84.62516|TRUE|FALSE|FALSE|TRUE
5750003|Comfort Suites Cincinnati University - Downtown|Cincinnati, OH| 110|39.12451| -84.50200|FALSE|TRUE|FALSE|TRUE
5750003|Best Western Plus Hannaford Inn & Suites|Cincinnati, OH|  84|39.20660| -84.37233|TRUE|FALSE|FALSE|TRUE
5750003|Red Roof Inn Cincinnati - Sharonville|Cincinnati, OH|  70|39.26904| -84.43682|TRUE|FALSE|FALSE|TRUE
5750003|Extended Stay America Suites Cincinnati Blue Ash Kenwood Rd|Cincinnati, OH|  81|39.24637| -84.37556|TRUE|FALSE|FALSE|TRUE
5750003|Hilton Cincinnati Netherland Plaza|Cincinnati, OH| 167|39.10074| -84.51397|FALSE|TRUE|TRUE|TRUE
5750003|The Westin Cincinnati|Cincinnati, OH| 176|39.10075| -84.51230|FALSE|TRUE|TRUE|TRUE
5750003|Super 8 by Wyndham Fort Mitchell Cincinnati Area|Cincinnati, OH|  69|39.04846| -84.57065|TRUE|FALSE|FALSE|TRUE
5750667|Fitler Club|Philadelphia, PA| 488|39.95349| -75.17914|FALSE|FALSE|TRUE|TRUE
5750667|The Ritz-Carlton, Philadelphia|Philadelphia, PA| 419|39.95128| -75.16427|FALSE|FALSE|TRUE|TRUE
5750667|Days Inn by Wyndham Runnemede Philadelphia Area|Philadelphia, PA|  79|39.85779| -75.07254|TRUE|FALSE|FALSE|TRUE
5750667|Best Western Plus Philadelphia Convention Center Hotel|Philadelphia, PA| 111|39.95801| -75.15947|TRUE|TRUE|FALSE|TRUE
5750667|Red Carpet Inn Philadelphia Airport|Philadelphia, PA|  76|39.87242| -75.28119|TRUE|FALSE|FALSE|TRUE
5750667|Four Seasons Hotel Philadelphia at Comcast Center|Philadelphia, PA| 937|39.95509| -75.17090|FALSE|TRUE|TRUE|TRUE
5750667|Parkway Inn|Philadelphia, PA|  95|39.91875| -75.32845|TRUE|FALSE|FALSE|TRUE
5750667|Travelodge by Wyndham Bellmawr|Philadelphia, PA|  86|39.86208| -75.07705|TRUE|FALSE|FALSE|TRUE
5750667|Philadelphia Marriott Downtown|Philadelphia, PA| 197|39.95260| -75.16062|FALSE|TRUE|FALSE|TRUE
5750667|Days Inn by Wyndham Springfield/Phil.Intl Airport|Philadelphia, PA|  95|39.91948| -75.32802|TRUE|FALSE|FALSE|TRUE
5750667|The Logan Philadelphia, Curio Collection by Hilton|Philadelphia, PA| 177|39.95693| -75.17027|FALSE|TRUE|FALSE|TRUE
5750667|Hilton Garden Inn Philadelphia Center City|Philadelphia, PA| 154|39.95357| -75.15809|FALSE|TRUE|FALSE|TRUE
5750667|Guild House Hotel|Philadelphia, PA| 424|39.94819| -75.16268|FALSE|FALSE|TRUE|TRUE
5750667|Hampton Inn Philadelphia Center City-Convention Center|Philadelphia, PA| 127|39.95628| -75.16087|FALSE|TRUE|FALSE|TRUE
5750667|Sleep Inn Center City|Philadelphia, PA| 121|39.95438| -75.15711|FALSE|TRUE|FALSE|TRUE
5750667|Lokal Hotel - Old City|Philadelphia, PA| 372|39.95328| -75.14486|FALSE|FALSE|TRUE|TRUE
5750667|The Study at University City|Philadelphia, PA| 488|39.95453| -75.19000|FALSE|FALSE|TRUE|TRUE
5750667|OYO Hotel Cinnaminson, NJ US-130|Philadelphia, PA| 112|40.00613| -74.97462|TRUE|FALSE|FALSE|TRUE
5750667|Sleep Inn Cinnaminson Philadelphia East|Philadelphia, PA| 106|39.99007| -75.00475|TRUE|FALSE|FALSE|TRUE
5750667|Days Inn by Wyndham Philadelphia Convention Center|Philadelphia, PA| 115|39.95612| -75.16021|TRUE|TRUE|FALSE|TRUE
5750667|W Philadelphia|Philadelphia, PA| 219|39.95124| -75.16490|FALSE|FALSE|TRUE|TRUE
5750667|Days Inn by Wyndham Philadelphia - Roosevelt Boulevard|Philadelphia, PA| 109|40.02974| -75.10607|TRUE|FALSE|FALSE|TRUE
5750667|The Windsor Suites|Philadelphia, PA| 177|39.95565| -75.16822|FALSE|TRUE|FALSE|TRUE
5750667|Wm. Mulherin's Sons Hotel|Philadelphia, PA| 375|39.97171| -75.13506|FALSE|TRUE|TRUE|TRUE
5750667|BnB Philadelphia - Boutique Hotel|Philadelphia, PA| 621|39.97993| -75.12262|FALSE|FALSE|TRUE|TRUE
5750667|The Rittenhouse Philadelphia|Philadelphia, PA| 558|39.94966| -75.16482|FALSE|FALSE|TRUE|TRUE
5750669|Home2 Suites by Hilton Oxford|Oxford, MS| 110|34.34858| -89.52200|TRUE|TRUE|TRUE|TRUE
5750669|TownePlace Suites Oxford|Oxford, MS| 119|34.37106| -89.49802|TRUE|TRUE|TRUE|TRUE
5750669|Tru by Hilton Oxford|Oxford, MS|  96|34.37418| -89.49845|TRUE|TRUE|TRUE|TRUE
5750669|Hampton Inn Oxford-West|Oxford, MS|  96|34.36487| -89.55727|TRUE|TRUE|TRUE|TRUE
5750669|Hampton Inn Oxford/Conference Center|Oxford, MS| 101|34.37181| -89.49833|TRUE|TRUE|TRUE|TRUE
5750669|La Quinta Inn & Suites by Wyndham Oxford|Oxford, MS|  97|34.35272| -89.52213|TRUE|TRUE|TRUE|TRUE
5750669|Super 8 by Wyndham Oxford|Oxford, MS|  67|34.36301| -89.56183|TRUE|TRUE|TRUE|TRUE
5750669|Courtyard by Marriott Oxford|Oxford, MS| 110|34.36831| -89.52682|TRUE|TRUE|TRUE|TRUE
5750669|Graduate Oxford|Oxford, MS| 122|34.36899| -89.51792|TRUE|TRUE|TRUE|TRUE
5750669|Chancellor's House|Oxford, MS| 152|34.36414| -89.51889|TRUE|TRUE|TRUE|TRUE
5750675|DoubleTree by Hilton Omaha Southwest|Omaha, NE| 114|41.22579| -96.02518|FALSE|TRUE|FALSE|TRUE
5750675|Residence Inn by Marriott Omaha Aksarben Village|Omaha, NE| 134|41.24218| -96.01434|FALSE|TRUE|FALSE|TRUE
5750675|Hilton Garden Inn Omaha Aksarben Village|Omaha, NE| 138|41.24009| -96.01666|FALSE|TRUE|FALSE|TRUE
5750675|La Quinta Inn by Wyndham Omaha Southwest|Omaha, NE|  65|41.21171| -96.07935|TRUE|FALSE|FALSE|TRUE
5750675|Omaha Marriott Downtown at the Capitol District|Omaha, NE| 213|41.26119| -95.92948|FALSE|FALSE|TRUE|TRUE
5750675|Magnolia Hotel Omaha|Omaha, NE| 140|41.25518| -95.93765|FALSE|FALSE|TRUE|TRUE
5750675|Comfort Inn & Suites Omaha Central|Omaha, NE|  99|41.22603| -96.02200|FALSE|TRUE|FALSE|TRUE
5750675|WoodSpring Suites Council Bluffs, an Extended Stay Hotel|Omaha, NE|  71|41.24814| -95.90422|TRUE|FALSE|FALSE|TRUE
5750675|MainStay Suites Omaha Old Mill|Omaha, NE|  69|41.25667| -96.08245|TRUE|FALSE|FALSE|TRUE
5750675|The Peregrine Omaha Downtown, Curio Collection by Hilton|Omaha, NE| 139|41.25829| -95.93951|FALSE|FALSE|TRUE|TRUE
5750675|Kimpton Cottonwood, an IHG Hotel|Omaha, NE| 183|41.25747| -95.96669|FALSE|TRUE|TRUE|TRUE
5750675|La Quinta Inn by Wyndham Omaha West|Omaha, NE|  61|41.28971| -96.07622|TRUE|FALSE|FALSE|TRUE
5750675|AmericInn by Wyndham Council Bluffs|Omaha, NE|  75|41.23939| -95.82673|TRUE|FALSE|FALSE|TRUE
5750675|Extended Stay America Suites Omaha West|Omaha, NE|  71|41.24860| -96.13862|TRUE|FALSE|FALSE|TRUE
5750675|The Farnam, Autograph Collection|Omaha, NE| 210|41.25734| -95.93278|FALSE|FALSE|TRUE|TRUE
5750675|Western Inn|Omaha, NE|  73|41.26597| -96.08638|TRUE|FALSE|FALSE|TRUE
5750675|Courtyard Marriott Aksarben Village|Omaha, NE| 118|41.24324| -96.01415|FALSE|TRUE|FALSE|TRUE
5750675|Staybridge Suites Omaha 80th And Dodge, an IHG Hotel|Omaha, NE| 113|41.26080| -96.03749|FALSE|TRUE|FALSE|TRUE
5750675|Hampton Inn Omaha Midtown-Aksarben Area|Omaha, NE| 142|41.24564| -96.02297|FALSE|TRUE|TRUE|TRUE
5750675|Comfort Suites Omaha|Omaha, NE|  74|41.28832| -96.07723|TRUE|FALSE|FALSE|TRUE
5750675|Hotel Deco|Omaha, NE| 163|41.25687| -95.93624|FALSE|FALSE|TRUE|TRUE
5750675|Super 8 by Wyndham Council Bluffs IA Omaha NE Area|Omaha, NE|  63|41.23438| -95.88029|TRUE|FALSE|FALSE|TRUE
5750675|Embassy Suites Omaha-La Vista/Hotel & Conference Center|Omaha, NE| 159|41.18134| -96.10780|FALSE|FALSE|TRUE|TRUE
5750675|Embassy Suites by Hilton Omaha Downtown Old Market|Omaha, NE| 159|41.25494| -95.92902|FALSE|FALSE|TRUE|TRUE
5750675|Aloft Omaha Aksarben Village|Omaha, NE| 110|41.23746| -96.00886|FALSE|TRUE|FALSE|TRUE
5750675|Tru By Hilton Omaha I-80 at 72nd Street, NE|Omaha, NE| 109|41.22842| -96.02232|FALSE|TRUE|FALSE|TRUE
5750675|WoodSpring Suites Omaha Bellevue, an Extended Stay Hotel|Omaha, NE|  74|41.13851| -95.95360|TRUE|FALSE|FALSE|TRUE
5750675|Hilton Omaha|Omaha, NE| 190|41.26304| -95.92998|FALSE|FALSE|TRUE|TRUE
5750685|Days Inn by Wyndham Ankeny - Des Moines|Des Moines, IA|  61|41.73230| -93.57973|TRUE|FALSE|FALSE|TRUE
5750685|Days Inn by Wyndham West Des Moines / Clive|Des Moines, IA|  50|41.60487| -93.77554|TRUE|FALSE|FALSE|TRUE
5750685|Des Moines Marriott Downtown|Des Moines, IA| 161|41.58711| -93.62677|FALSE|TRUE|TRUE|TRUE
5750685|FRONTDESK District at 6th Des Moines|Des Moines, IA| 143|41.58488| -93.60757|FALSE|FALSE|TRUE|TRUE
5750685|Super 8 by Wyndham Des Moines|Des Moines, IA|  62|41.64572| -93.59914|TRUE|FALSE|FALSE|TRUE
5750685|Hotel Fort Des Moines, Curio Collection by Hilton|Des Moines, IA| 123|41.58472| -93.62960|FALSE|TRUE|FALSE|TRUE
5750685|Hilton Des Moines Downtown|Des Moines, IA| 142|41.59110| -93.62393|FALSE|TRUE|TRUE|TRUE
5750685|La Quinta by Wyndham Altoona Des Moines|Des Moines, IA|  69|41.66091| -93.48490|TRUE|FALSE|FALSE|TRUE
5750685|Hotel Renovo|Des Moines, IA| 178|41.61592| -93.77351|FALSE|FALSE|TRUE|TRUE
5750685|Quality Inn & Suites|Des Moines, IA|  59|41.65083| -93.69684|TRUE|FALSE|FALSE|TRUE
5750685|Home2 Suites by Hilton Des Moines at Drake University|Des Moines, IA| 123|41.59897| -93.65001|FALSE|TRUE|FALSE|TRUE
5750685|Embassy Suites Hotel Des Moines Downtown|Des Moines, IA| 142|41.58684| -93.62496|FALSE|TRUE|TRUE|TRUE
5750685|Fairfield Inn & Suites by Marriott Des Moines Downtown|Des Moines, IA| 125|41.59382| -93.62092|FALSE|TRUE|FALSE|TRUE
5750685|Surety Hotel|Des Moines, IA| 189|41.58521| -93.62490|FALSE|TRUE|TRUE|TRUE
5750685|AmericInn by Wyndham Johnston Des Moines|Des Moines, IA|  73|41.65407| -93.69949|TRUE|FALSE|FALSE|TRUE
5750685|Econo Lodge Ankeny - Des Moines|Des Moines, IA|  67|41.70392| -93.57236|TRUE|FALSE|FALSE|TRUE
5750685|Comfort Inn & Suites Event Center|Des Moines, IA| 118|41.59460| -93.62054|FALSE|TRUE|FALSE|TRUE
5750685|The Rewind West Des Moines, Tapestry Collection by Hilton|Des Moines, IA| 151|41.56009| -93.79158|FALSE|FALSE|TRUE|TRUE
5750685|DoubleTree by Hilton Hotel Des Moines Airport|Des Moines, IA| 148|41.52241| -93.64650|FALSE|FALSE|TRUE|TRUE
5750685|Baymont by Wyndham Des Moines North|Des Moines, IA|  78|41.64572| -93.59970|TRUE|FALSE|FALSE|TRUE
5750685|Renaissance Des Moines Savery Hotel|Des Moines, IA| 137|41.58750| -93.62311|FALSE|TRUE|FALSE|TRUE
5750685|West Des Moines Marriott|Des Moines, IA| 184|41.58888| -93.81026|FALSE|FALSE|TRUE|TRUE
5750685|AmericInn by Wyndham Ankeny/Des Moines|Des Moines, IA|  78|41.70349| -93.56973|TRUE|FALSE|FALSE|TRUE
5750685|Des Lux Hotel|Des Moines, IA| 169|41.58606| -93.62771|FALSE|TRUE|TRUE|TRUE
5750685|Super 8 by Wyndham Clive/W Des Moines|Des Moines, IA|  78|41.60204| -93.77483|TRUE|FALSE|FALSE|TRUE
5750685|Days Inn by Wyndham West Des Moines|Des Moines, IA|  56|41.58980| -93.71452|TRUE|FALSE|FALSE|TRUE
5750687|The Outpost|Bozeman, MT| 105|45.68147|-111.03199|TRUE|TRUE|FALSE|TRUE
5750687|Hilton Garden Inn Bozeman|Bozeman, MT| 214|45.69950|-111.06247|FALSE|FALSE|TRUE|TRUE
5750687|C'mon Inn Bozeman|Bozeman, MT| 132|45.71439|-111.06760|TRUE|FALSE|FALSE|TRUE
5750687|Baymont by Wyndham Bozeman|Bozeman, MT|  97|45.69953|-111.05003|TRUE|FALSE|FALSE|TRUE
5750687|Bozeman Lewis & Clark Motel|Bozeman, MT| 206|45.68147|-111.03199|FALSE|TRUE|TRUE|TRUE
5750687|SpringHill Suites by Marriott Bozeman|Bozeman, MT| 206|45.70082|-111.05841|FALSE|FALSE|TRUE|TRUE
5750687|Super 8 by Wyndham Belgrade/Bozeman Airport|Bozeman, MT|  94|45.76422|-111.18440|TRUE|FALSE|FALSE|TRUE
5750687|AC Hotel Bozeman Downtown|Bozeman, MT| 213|45.68046|-111.03716|FALSE|TRUE|TRUE|TRUE
5750687|Comfort Suites Airport - University|Bozeman, MT| 138|45.71512|-111.07070|TRUE|FALSE|FALSE|TRUE
5750687|Comfort Inn Bozeman|Bozeman, MT| 121|45.69368|-111.04494|TRUE|FALSE|FALSE|TRUE
5750687|My Place Hotel - Bozeman, MT|Bozeman, MT| 112|45.71762|-111.06889|TRUE|FALSE|FALSE|TRUE
5750687|Homewood Suites by Hilton Bozeman|Bozeman, MT| 187|45.69689|-111.05098|FALSE|FALSE|TRUE|TRUE
5750687|Element Bozeman|Bozeman, MT| 229|45.68069|-111.03625|FALSE|TRUE|TRUE|TRUE
5750687|The LARK Bozeman|Bozeman, MT| 176|45.67890|-111.03932|FALSE|TRUE|FALSE|TRUE
5750687|Microtel Inn & Suites by Wyndham Bozeman|Bozeman, MT|  89|45.69783|-111.04405|TRUE|FALSE|FALSE|TRUE
5750687|RSVP Hotel|Bozeman, MT| 140|45.68498|-111.04596|TRUE|TRUE|FALSE|TRUE
5750687|Gallatin River Lodge|Bozeman, MT| 211|45.68462|-111.06839|FALSE|TRUE|TRUE|TRUE
5750687|Residence Inn by Marriott Bozeman|Bozeman, MT| 205|45.71326|-111.06683|FALSE|FALSE|TRUE|TRUE
5750687|Kimpton Armory Hotel Bozeman, an IHG Hotel|Bozeman, MT| 286|45.68004|-111.03802|FALSE|TRUE|TRUE|TRUE
5750687|Quality Inn|Bozeman, MT| 109|45.68147|-111.03199|TRUE|TRUE|FALSE|TRUE
5750687|Residence Inn by Marriott Bozeman Downtown|Bozeman, MT| 200|45.67955|-111.02468|FALSE|TRUE|TRUE|TRUE
5750902|Hotel Indigo Winston-Salem Downtown, an IHG Hotel|Winston-Salem, NC| 160|36.09821| -80.24507|FALSE|TRUE|TRUE|TRUE
5750902|Quality Inn University|Winston-Salem, NC|  68|36.17717| -80.27406|TRUE|FALSE|FALSE|TRUE
5750902|Ramada by Wyndham Winston-Salem|Winston-Salem, NC|  74|36.13947| -80.23782|TRUE|TRUE|FALSE|TRUE
5750902|Residence Inn by Marriott Winston-Salem Hanes Mall|Winston-Salem, NC| 141|36.06895| -80.32709|FALSE|FALSE|TRUE|TRUE
5750902|Super 8 by Wyndham Clemmons/Winston-Salem Area I-40|Winston-Salem, NC|  85|36.03420| -80.38319|TRUE|FALSE|FALSE|TRUE
5750902|Hawthorne Inn and Conference Center|Winston-Salem, NC|  95|36.09201| -80.24747|TRUE|TRUE|FALSE|TRUE
5750902|The Zevely Inn|Winston-Salem, NC| 214|36.08551| -80.24158|FALSE|FALSE|TRUE|TRUE
5750902|Baymont by Wyndham Winston Salem|Winston-Salem, NC|  69|36.18006| -80.27788|TRUE|FALSE|FALSE|TRUE
5750902|Best Western Plus University Inn|Winston-Salem, NC|  95|36.12973| -80.26299|TRUE|TRUE|FALSE|TRUE
5750902|Courtyard by Marriott Winston-Salem University|Winston-Salem, NC| 121|36.13035| -80.26168|FALSE|TRUE|FALSE|TRUE
5750902|Home2 Suites by Hilton Winston-Salem Hanes Mall|Winston-Salem, NC| 136|36.06639| -80.32097|FALSE|FALSE|TRUE|TRUE
5750902|Microtel Inn by Wyndham Winston Salem|Winston-Salem, NC|  72|36.06276| -80.30056|TRUE|FALSE|FALSE|TRUE
5750902|Embassy Suites Hotel Winston-Salem|Winston-Salem, NC| 148|36.09933| -80.24772|FALSE|TRUE|TRUE|TRUE
5750902|Kimpton Cardinal Hotel, an IHG Hotel|Winston-Salem, NC| 213|36.09880| -80.24371|FALSE|TRUE|TRUE|TRUE
5750902|Hilton Garden Inn Winston-Salem/Hanes Mall|Winston-Salem, NC| 148|36.06571| -80.32860|FALSE|FALSE|TRUE|TRUE
5750902|HomeTowne Studios by Red Roof Winston-Salem - University Pkwy|Winston-Salem, NC|  68|36.15100| -80.27406|TRUE|TRUE|FALSE|TRUE
5750902|Winston-Salem Marriott|Winston-Salem, NC| 153|36.06895| -80.32709|FALSE|FALSE|TRUE|TRUE
5750902|Sleep Inn Hanes Mall|Winston-Salem, NC|  91|36.06487| -80.30635|TRUE|FALSE|FALSE|TRUE
5750902|Days Inn by Wyndham Winston Salem North|Winston-Salem, NC|  69|36.17017| -80.26098|TRUE|FALSE|FALSE|TRUE
5750902|Courtyard by Marriott Winston - Salem Downtown|Winston-Salem, NC| 134|36.09750| -80.25106|FALSE|TRUE|TRUE|TRUE
5750902|Hampton Inn & Suites Winston-Salem Downtown|Winston-Salem, NC| 124|36.09706| -80.24667|FALSE|TRUE|TRUE|TRUE
5750922|Magnolia North by Hosteeva|Conway, SC| 333|33.83600| -79.04781|FALSE|TRUE|TRUE|TRUE
5750922|Magnolia North 102|Conway, SC| 348|33.83600| -79.04781|FALSE|TRUE|TRUE|TRUE
5750922|Magnolia Pointe|Conway, SC| 385|33.83600| -79.04781|FALSE|TRUE|TRUE|TRUE
5750922|Stylish Golf Beach Getaway|Conway, SC| 279|33.83600| -79.04781|FALSE|TRUE|TRUE|TRUE
5750922|Fairfield Inn by Marriott Myrtle Beach Broadway at the Beach|Conway, SC| 101|33.72095| -78.87717|TRUE|FALSE|FALSE|TRUE
5750922|Legends 4537 Girvan Drive Escape|Conway, SC| 637|33.74930| -79.00369|FALSE|TRUE|TRUE|TRUE
5750922|Comfort Suites|Conway, SC|  91|33.78630| -78.99457|TRUE|TRUE|FALSE|TRUE
5750922|Myrtle Beach Myrtlewood Golf and Beach Escape!|Conway, SC| 457|33.83600| -79.04781|FALSE|TRUE|TRUE|TRUE
5750922|Riverwalk 303|Conway, SC| 456|33.83268| -79.04431|FALSE|TRUE|TRUE|TRUE
5750922|Days Inn by Wyndham Myrtle Beach|Conway, SC|  62|33.67377| -78.89952|TRUE|FALSE|FALSE|TRUE
5750922|Quality Inn|Conway, SC|  96|33.67957| -78.89987|TRUE|FALSE|FALSE|TRUE
5750922|Econo Lodge at the University|Conway, SC|  59|33.78874| -78.99663|TRUE|TRUE|FALSE|TRUE
5750922|Magnolia Pointe at Myrtlewood|Conway, SC| 423|33.83600| -79.04781|FALSE|TRUE|TRUE|TRUE
5750922|Econo Lodge Conway|Conway, SC|  69|33.84016| -79.06080|TRUE|FALSE|FALSE|TRUE
5750922|SureStay Hotel by Best Western Conway|Conway, SC|  70|33.81612| -79.04280|TRUE|TRUE|FALSE|TRUE
5750922|Four Points by Sheraton Myrtle Beach|Conway, SC|  81|33.71379| -78.92405|TRUE|FALSE|FALSE|TRUE
5750922|Studio 6 Myrtle Beach, SC|Conway, SC|  67|33.70920| -78.90968|TRUE|FALSE|FALSE|TRUE
5750922|Suburban Studios at the University|Conway, SC|  75|33.78870| -78.99664|TRUE|TRUE|FALSE|TRUE
5750922|World Tour Golf Resort|Conway, SC| 182|33.73533| -78.90960|FALSE|FALSE|TRUE|TRUE
5750922|The Cypress Inn Bed & Breakfast|Conway, SC| 218|33.83120| -79.04548|FALSE|TRUE|TRUE|TRUE
5750924|Magnolia North by Hosteeva|Conway, SC| 333|33.83600| -79.04781|FALSE|TRUE|TRUE|TRUE
5750924|Stylish Golf Beach Getaway|Conway, SC| 279|33.83600| -79.04781|FALSE|TRUE|TRUE|TRUE
5750924|Four Points by Sheraton Myrtle Beach|Conway, SC|  81|33.71379| -78.92405|TRUE|FALSE|FALSE|TRUE
5750924|Fairfield Inn by Marriott Myrtle Beach Broadway at the Beach|Conway, SC| 101|33.72095| -78.87717|TRUE|FALSE|FALSE|TRUE
5750924|Magnolia North 102|Conway, SC| 348|33.83600| -79.04781|FALSE|TRUE|TRUE|TRUE
5750924|Riverwalk 303|Conway, SC| 456|33.83268| -79.04431|FALSE|TRUE|TRUE|TRUE
5750924|Legends 4537 Girvan Drive Escape|Conway, SC| 637|33.74930| -79.00369|FALSE|TRUE|TRUE|TRUE
5750924|Quality Inn|Conway, SC|  96|33.67957| -78.89987|TRUE|FALSE|FALSE|TRUE
5750924|Econo Lodge Conway|Conway, SC|  69|33.84016| -79.06080|TRUE|FALSE|FALSE|TRUE
5750924|Myrtle Beach Myrtlewood Golf and Beach Escape!|Conway, SC| 457|33.83600| -79.04781|FALSE|TRUE|TRUE|TRUE
5750924|Magnolia Pointe at Myrtlewood|Conway, SC| 423|33.83600| -79.04781|FALSE|TRUE|TRUE|TRUE
5750924|Econo Lodge at the University|Conway, SC|  59|33.78874| -78.99663|TRUE|TRUE|FALSE|TRUE
5750924|SureStay Hotel by Best Western Conway|Conway, SC|  70|33.81612| -79.04280|TRUE|TRUE|FALSE|TRUE
5750924|Magnolia Pointe|Conway, SC| 385|33.83600| -79.04781|FALSE|TRUE|TRUE|TRUE
5750924|Comfort Suites|Conway, SC|  91|33.78630| -78.99457|TRUE|TRUE|FALSE|TRUE
5750924|Days Inn by Wyndham Myrtle Beach|Conway, SC|  62|33.67377| -78.89952|TRUE|FALSE|FALSE|TRUE
5750924|World Tour Golf Resort|Conway, SC| 182|33.73533| -78.90960|FALSE|FALSE|TRUE|TRUE
5750924|The Cypress Inn Bed & Breakfast|Conway, SC| 218|33.83120| -79.04548|FALSE|TRUE|TRUE|TRUE
5750924|Studio 6 Myrtle Beach, SC|Conway, SC|  67|33.70920| -78.90968|TRUE|FALSE|FALSE|TRUE
5750924|Suburban Studios at the University|Conway, SC|  75|33.78870| -78.99664|TRUE|TRUE|FALSE|TRUE
5750941|Holiday Inn Express Statesboro, an IHG Hotel|Statesboro, GA| 145|32.43683| -81.78514|TRUE|TRUE|TRUE|TRUE
5750941|Hampton Inn Statesboro|Statesboro, GA| 130|32.41231| -81.76966|TRUE|TRUE|TRUE|TRUE
5750941|Red Fern Plantation Lodge|Statesboro, GA| 179|32.49524| -81.75257|FALSE|FALSE|TRUE|TRUE
5750941|Eagles Nest Inn|Statesboro, GA|  90|32.40812| -81.78250|TRUE|TRUE|TRUE|TRUE
5750941|Springhill Suites Statesboro University Area|Statesboro, GA| 122|32.40590| -81.76345|TRUE|TRUE|TRUE|TRUE
5750941|Quality Inn And Suites|Statesboro, GA|  63|32.44300| -81.78309|TRUE|TRUE|TRUE|TRUE
5750941|Holiday Inn Statesboro-University Area, an IHG Hotel|Statesboro, GA| 135|32.42831| -81.75616|TRUE|TRUE|TRUE|TRUE
5750941|Home2 Suites by Hilton Statesboro|Statesboro, GA| 144|32.40643| -81.77129|TRUE|TRUE|TRUE|TRUE
5750941|Days Inn by Wyndham Statesboro|Statesboro, GA|  63|32.43209| -81.77888|TRUE|TRUE|TRUE|TRUE
5750941|Stay Plus Extended Stay Suites|Statesboro, GA| 144|32.39832| -81.75605|TRUE|TRUE|TRUE|TRUE
5750941|Super 8 by Wyndham Statesboro|Statesboro, GA|  65|32.42715| -81.78889|TRUE|TRUE|TRUE|TRUE
5750942|Quality Inn And Suites|Statesboro, GA|  63|32.44300| -81.78309|TRUE|TRUE|TRUE|TRUE
5750942|Hampton Inn Statesboro|Statesboro, GA| 130|32.41231| -81.76966|TRUE|TRUE|TRUE|TRUE
5750942|Holiday Inn Express Statesboro, an IHG Hotel|Statesboro, GA| 145|32.43683| -81.78514|TRUE|TRUE|TRUE|TRUE
5750942|Super 8 by Wyndham Statesboro|Statesboro, GA|  65|32.42715| -81.78889|TRUE|TRUE|TRUE|TRUE
5750942|Holiday Inn Statesboro-University Area, an IHG Hotel|Statesboro, GA| 135|32.42831| -81.75616|TRUE|TRUE|TRUE|TRUE
5750942|Home2 Suites by Hilton Statesboro|Statesboro, GA| 144|32.40643| -81.77129|TRUE|TRUE|TRUE|TRUE
5750942|Springhill Suites Statesboro University Area|Statesboro, GA| 122|32.40590| -81.76345|TRUE|TRUE|TRUE|TRUE
5750942|Stay Plus Extended Stay Suites|Statesboro, GA| 144|32.39832| -81.75605|TRUE|TRUE|TRUE|TRUE
5750942|Red Fern Plantation Lodge|Statesboro, GA| 179|32.49524| -81.75257|FALSE|FALSE|TRUE|TRUE
5750942|Eagles Nest Inn|Statesboro, GA|  90|32.40812| -81.78250|TRUE|TRUE|TRUE|TRUE
5750942|Days Inn by Wyndham Statesboro|Statesboro, GA|  63|32.43209| -81.77888|TRUE|TRUE|TRUE|TRUE
5750944|Stay Plus Extended Stay Suites|Statesboro, GA| 144|32.39832| -81.75605|TRUE|TRUE|TRUE|TRUE
5750944|Red Fern Plantation Lodge|Statesboro, GA| 179|32.49524| -81.75257|FALSE|FALSE|TRUE|TRUE
5750944|Days Inn by Wyndham Statesboro|Statesboro, GA|  63|32.43209| -81.77888|TRUE|TRUE|TRUE|TRUE
5750944|Holiday Inn Express Statesboro, an IHG Hotel|Statesboro, GA| 145|32.43683| -81.78514|TRUE|TRUE|TRUE|TRUE
5750944|Holiday Inn Statesboro-University Area, an IHG Hotel|Statesboro, GA| 135|32.42831| -81.75616|TRUE|TRUE|TRUE|TRUE
5750944|Eagles Nest Inn|Statesboro, GA|  90|32.40812| -81.78250|TRUE|TRUE|TRUE|TRUE
5750944|Quality Inn And Suites|Statesboro, GA|  63|32.44300| -81.78309|TRUE|TRUE|TRUE|TRUE
5750944|Hampton Inn Statesboro|Statesboro, GA| 130|32.41231| -81.76966|TRUE|TRUE|TRUE|TRUE
5750944|Springhill Suites Statesboro University Area|Statesboro, GA| 122|32.40590| -81.76345|TRUE|TRUE|TRUE|TRUE
5750944|Super 8 by Wyndham Statesboro|Statesboro, GA|  65|32.42715| -81.78889|TRUE|TRUE|TRUE|TRUE
5750944|Home2 Suites by Hilton Statesboro|Statesboro, GA| 144|32.40643| -81.77129|TRUE|TRUE|TRUE|TRUE
5750977|Hotel Madison & Shenandoah Conference Ctr|Harrisonburg, VA| 122|38.44197| -78.87288|FALSE|FALSE|TRUE|TRUE
5750977|Residence Inn by Marriott Harrisonburg|Harrisonburg, VA| 190|38.42770| -78.85216|FALSE|TRUE|TRUE|TRUE
5750977|Quality Inn Harrisonburg I-81|Harrisonburg, VA|  87|38.43096| -78.85044|TRUE|TRUE|FALSE|TRUE
5750977|Hyatt Place Harrisonburg|Harrisonburg, VA| 112|38.43187| -78.84858|FALSE|TRUE|TRUE|TRUE
5750977|Tru By Hilton Harrisonburg, VA|Harrisonburg, VA|  92|38.40539| -78.90646|TRUE|FALSE|FALSE|TRUE
5750977|Candlewood Suites Harrisonburg, an IHG Hotel|Harrisonburg, VA|  80|38.43780| -78.84386|TRUE|FALSE|FALSE|TRUE
5750977|Clarion Pointe Harrisonburg|Harrisonburg, VA|  91|38.43576| -78.84712|TRUE|TRUE|FALSE|TRUE
5750977|Hampton Inn Harrisonburg - University|Harrisonburg, VA|  94|38.43160| -78.84705|TRUE|TRUE|FALSE|TRUE
5750977|Courtyard by Marriott Harrisonburg|Harrisonburg, VA| 116|38.43115| -78.84800|FALSE|TRUE|TRUE|TRUE
5750977|Ramada by Wyndham Harrisonburg|Harrisonburg, VA|  66|38.40533| -78.90748|TRUE|FALSE|FALSE|TRUE
5750977|Cave Hill Farm Bed & Breakfast|Harrisonburg, VA| 142|38.35951| -78.72174|FALSE|FALSE|TRUE|TRUE
5750977|Hampton Inn Harrisonburg - South|Harrisonburg, VA|  94|38.40619| -78.91113|TRUE|FALSE|FALSE|TRUE
5750977|Comfort Inn & Suites Harrisonburg|Harrisonburg, VA| 100|38.42615| -78.84897|FALSE|TRUE|TRUE|TRUE
5750977|Best Western Plus Harrisonburg|Harrisonburg, VA| 106|38.40489| -78.91008|FALSE|FALSE|TRUE|TRUE
5750977|Sleep Inn & Suites Harrisonburg near University|Harrisonburg, VA|  95|38.43097| -78.84946|TRUE|TRUE|FALSE|TRUE
5750977|Fairfield Inn & Suites by Marriott Harrisonburg|Harrisonburg, VA| 100|38.42716| -78.85314|FALSE|TRUE|TRUE|TRUE
5750977|Microtel Inn & Suites by Wyndham Harrisonburg|Harrisonburg, VA|  88|38.40561| -78.90715|TRUE|FALSE|FALSE|TRUE
5750977|Friendly City Inn Bed & Breakfast|Harrisonburg, VA| 143|38.44824| -78.85961|FALSE|FALSE|TRUE|TRUE
5750977|Red Roof Inn Harrisonburg - University Area|Harrisonburg, VA|  63|38.42923| -78.87387|TRUE|TRUE|FALSE|TRUE
5750977|Doubletree by Hilton Harrisonburg|Harrisonburg, VA| 118|38.43698| -78.84791|FALSE|FALSE|TRUE|TRUE
5750979|Quality Inn Harrisonburg I-81|Harrisonburg, VA|  87|38.43096| -78.85044|TRUE|TRUE|FALSE|TRUE
5750979|Residence Inn by Marriott Harrisonburg|Harrisonburg, VA| 190|38.42770| -78.85216|FALSE|TRUE|TRUE|TRUE
5750979|Hotel Madison & Shenandoah Conference Ctr|Harrisonburg, VA| 122|38.44197| -78.87288|FALSE|FALSE|TRUE|TRUE
5750979|Ramada by Wyndham Harrisonburg|Harrisonburg, VA|  66|38.40533| -78.90748|TRUE|FALSE|FALSE|TRUE
5750979|Doubletree by Hilton Harrisonburg|Harrisonburg, VA| 118|38.43698| -78.84791|FALSE|FALSE|TRUE|TRUE
5750979|Courtyard by Marriott Harrisonburg|Harrisonburg, VA| 116|38.43115| -78.84800|FALSE|TRUE|TRUE|TRUE
5750979|Best Western Plus Harrisonburg|Harrisonburg, VA| 106|38.40489| -78.91008|FALSE|FALSE|TRUE|TRUE
5750979|Tru By Hilton Harrisonburg, VA|Harrisonburg, VA|  92|38.40539| -78.90646|TRUE|FALSE|FALSE|TRUE
5750979|Fairfield Inn & Suites by Marriott Harrisonburg|Harrisonburg, VA| 100|38.42716| -78.85314|FALSE|TRUE|TRUE|TRUE
5750979|Hyatt Place Harrisonburg|Harrisonburg, VA| 112|38.43187| -78.84858|FALSE|TRUE|TRUE|TRUE
5750979|Hampton Inn Harrisonburg - South|Harrisonburg, VA|  94|38.40619| -78.91113|TRUE|FALSE|FALSE|TRUE
5750979|Hampton Inn Harrisonburg - University|Harrisonburg, VA|  94|38.43160| -78.84705|TRUE|TRUE|FALSE|TRUE
5750979|Sleep Inn & Suites Harrisonburg near University|Harrisonburg, VA|  95|38.43097| -78.84946|TRUE|TRUE|FALSE|TRUE
5750979|Clarion Pointe Harrisonburg|Harrisonburg, VA|  91|38.43576| -78.84712|TRUE|TRUE|FALSE|TRUE
5750979|Friendly City Inn Bed & Breakfast|Harrisonburg, VA| 143|38.44824| -78.85961|FALSE|FALSE|TRUE|TRUE
5750979|Red Roof Inn Harrisonburg - University Area|Harrisonburg, VA|  63|38.42923| -78.87387|TRUE|TRUE|FALSE|TRUE
5750979|Microtel Inn & Suites by Wyndham Harrisonburg|Harrisonburg, VA|  88|38.40561| -78.90715|TRUE|FALSE|FALSE|TRUE
5750979|Candlewood Suites Harrisonburg, an IHG Hotel|Harrisonburg, VA|  80|38.43780| -78.84386|TRUE|FALSE|FALSE|TRUE
5750979|Cave Hill Farm Bed & Breakfast|Harrisonburg, VA| 142|38.35951| -78.72174|FALSE|FALSE|TRUE|TRUE
5750979|Comfort Inn & Suites Harrisonburg|Harrisonburg, VA| 100|38.42615| -78.84897|FALSE|TRUE|TRUE|TRUE
5750995|Courtyard by Marriott Lafayette South|Lafayette, LA| 152|30.15182| -92.03936|FALSE|FALSE|TRUE|TRUE
5750995|Courtyard by Marriott Lafayette Airport|Lafayette, LA| 111|30.19215| -92.01015|FALSE|FALSE|TRUE|TRUE
5750995|Carriage House Hotel|Lafayette, LA| 201|30.17289| -92.04115|FALSE|FALSE|TRUE|TRUE
5750995|The Juliet Hotel|Lafayette, LA| 146|30.22144| -92.01901|FALSE|TRUE|TRUE|TRUE
5750995|Mouton Plantation|Lafayette, LA| 179|30.23220| -92.00986|FALSE|TRUE|TRUE|TRUE
5750995|Studio 6 Lafayette, LA - Broussard|Lafayette, LA|  73|30.21639| -92.00194|FALSE|TRUE|FALSE|TRUE
5750995|Super 7|Lafayette, LA|  56|30.25261| -92.01523|TRUE|FALSE|FALSE|TRUE
5750995|Drury Inn & Suites Lafayette, LA|Lafayette, LA| 119|30.24912| -92.03823|FALSE|TRUE|TRUE|TRUE
5750995|T'Frere's House|Lafayette, LA| 166|30.16009| -92.02213|FALSE|FALSE|TRUE|TRUE
5750995|Days Inn by Wyndham Lafayette Near Lafayette Airport|Lafayette, LA|  64|30.19122| -91.99323|TRUE|FALSE|FALSE|TRUE
5750995|Hilton Garden Inn Lafayette/Cajundome|Lafayette, LA| 100|30.22001| -92.04130|FALSE|TRUE|FALSE|TRUE
5750995|Super 8 by Wyndham Breaux Bridge|Lafayette, LA|  71|30.29375| -91.91330|TRUE|FALSE|FALSE|TRUE
5750995|Staybridge Suites Lafayette, an IHG Hotel|Lafayette, LA| 111|30.19227| -92.01344|FALSE|FALSE|TRUE|TRUE
5750995|Super 8 by Wyndham Lafayette LA|Lafayette, LA|  63|30.25438| -92.01347|TRUE|FALSE|FALSE|TRUE
5750995|La Quinta Inn by Wyndham Lafayette North|Lafayette, LA|  55|30.25189| -92.01211|TRUE|FALSE|FALSE|TRUE
5750995|Studio 6 Lafayette, LA – I-10 & I-49 N|Lafayette, LA|  55|30.25278| -92.03265|TRUE|FALSE|FALSE|TRUE
5750995|Howard Johnson by Wyndham Lafayette|Lafayette, LA|  62|30.25359| -92.01565|TRUE|FALSE|FALSE|TRUE
5750995|Howard Johnson by Wyndham Scott Lafayette|Lafayette, LA|  72|30.24467| -92.10518|TRUE|FALSE|FALSE|TRUE
5750995|Comfort Suites Oil Center|Lafayette, LA|  89|30.19273| -92.01740|FALSE|TRUE|FALSE|TRUE
5750995|DoubleTree by Hilton Hotel Lafayette|Lafayette, LA| 110|30.19601| -92.01546|FALSE|TRUE|FALSE|TRUE
5750995|Fairfield Inn & Suites by Marriott Lafayette South|Lafayette, LA| 110|30.19435| -92.01745|FALSE|TRUE|FALSE|TRUE
5750995|Clarion Pointe Lafayette|Lafayette, LA|  67|30.20359| -92.01310|TRUE|TRUE|FALSE|TRUE
5750995|Louisiana Cajun Mansion|Lafayette, LA| 195|30.09322| -92.02472|FALSE|FALSE|TRUE|TRUE
5750995|Microtel Inn & Suites by Wyndham Scott/Lafayette|Lafayette, LA|  68|30.24141| -92.06552|TRUE|TRUE|FALSE|TRUE
5750995|SpringHill Suites by Marriott Lafayette South at River Ranch|Lafayette, LA| 122|30.16784| -92.04043|FALSE|FALSE|TRUE|TRUE
5750997|T'Frere's House|Lafayette, LA| 166|30.16009| -92.02213|FALSE|FALSE|TRUE|TRUE
5750997|Courtyard by Marriott Lafayette South|Lafayette, LA| 152|30.15182| -92.03936|FALSE|FALSE|TRUE|TRUE
5750997|Super 8 by Wyndham Breaux Bridge|Lafayette, LA|  71|30.29375| -91.91330|TRUE|FALSE|FALSE|TRUE
5750997|Comfort Suites Oil Center|Lafayette, LA|  89|30.19273| -92.01740|FALSE|TRUE|FALSE|TRUE
5750997|Courtyard by Marriott Lafayette Airport|Lafayette, LA| 111|30.19215| -92.01015|FALSE|FALSE|TRUE|TRUE
5750997|DoubleTree by Hilton Hotel Lafayette|Lafayette, LA| 110|30.19601| -92.01546|FALSE|TRUE|FALSE|TRUE
5750997|Mouton Plantation|Lafayette, LA| 179|30.23220| -92.00986|FALSE|TRUE|TRUE|TRUE
5750997|Hilton Garden Inn Lafayette/Cajundome|Lafayette, LA| 100|30.22001| -92.04130|FALSE|TRUE|FALSE|TRUE
5750997|Staybridge Suites Lafayette, an IHG Hotel|Lafayette, LA| 111|30.19227| -92.01344|FALSE|FALSE|TRUE|TRUE
5750997|Howard Johnson by Wyndham Lafayette|Lafayette, LA|  62|30.25359| -92.01565|TRUE|FALSE|FALSE|TRUE
5750997|Super 8 by Wyndham Lafayette LA|Lafayette, LA|  63|30.25438| -92.01347|TRUE|FALSE|FALSE|TRUE
5750997|Studio 6 Lafayette, LA - Broussard|Lafayette, LA|  73|30.21639| -92.00194|FALSE|TRUE|FALSE|TRUE
5750997|Days Inn by Wyndham Lafayette Near Lafayette Airport|Lafayette, LA|  64|30.19122| -91.99323|TRUE|FALSE|FALSE|TRUE
5750997|La Quinta Inn by Wyndham Lafayette North|Lafayette, LA|  55|30.25189| -92.01211|TRUE|FALSE|FALSE|TRUE
5750997|Fairfield Inn & Suites by Marriott Lafayette South|Lafayette, LA| 110|30.19435| -92.01745|FALSE|TRUE|FALSE|TRUE
5750997|Carriage House Hotel|Lafayette, LA| 201|30.17289| -92.04115|FALSE|FALSE|TRUE|TRUE
5750997|Studio 6 Lafayette, LA – I-10 & I-49 N|Lafayette, LA|  55|30.25278| -92.03265|TRUE|FALSE|FALSE|TRUE
5750997|Drury Inn & Suites Lafayette, LA|Lafayette, LA| 119|30.24912| -92.03823|FALSE|TRUE|TRUE|TRUE
5750997|SpringHill Suites by Marriott Lafayette South at River Ranch|Lafayette, LA| 122|30.16784| -92.04043|FALSE|FALSE|TRUE|TRUE
5750997|Super 7|Lafayette, LA|  56|30.25261| -92.01523|TRUE|FALSE|FALSE|TRUE
5750997|Louisiana Cajun Mansion|Lafayette, LA| 195|30.09322| -92.02472|FALSE|FALSE|TRUE|TRUE
5750997|Microtel Inn & Suites by Wyndham Scott/Lafayette|Lafayette, LA|  68|30.24141| -92.06552|TRUE|TRUE|FALSE|TRUE
5750997|Clarion Pointe Lafayette|Lafayette, LA|  67|30.20359| -92.01310|TRUE|TRUE|FALSE|TRUE
5750997|Howard Johnson by Wyndham Scott Lafayette|Lafayette, LA|  72|30.24467| -92.10518|TRUE|FALSE|FALSE|TRUE
5750997|The Juliet Hotel|Lafayette, LA| 146|30.22144| -92.01901|FALSE|TRUE|TRUE|TRUE
5751031|Rodeway Inn|Huntington, WV|  61|38.41925| -82.44515|TRUE|TRUE|FALSE|TRUE
5751031|BEST WESTERN Huntington Mall Inn|Huntington, WV|  76|38.41678| -82.25845|TRUE|FALSE|FALSE|TRUE
5751031|TownePlace Suites by Marriott Huntington|Huntington, WV| 131|38.39446| -82.41597|FALSE|TRUE|TRUE|TRUE
5751031|Hampton Inn Huntington University Area|Huntington, WV| 114|38.39466| -82.41703|TRUE|TRUE|TRUE|TRUE
5751031|Days Inn by Wyndham Huntington|Huntington, WV|  95|38.41360| -82.34256|TRUE|FALSE|TRUE|TRUE
5751031|Delta Hotels by Marriott Huntington Downtown|Huntington, WV| 149|38.42209| -82.44540|FALSE|TRUE|TRUE|TRUE
5751031|Motel 6 Huntington, WV|Huntington, WV|  55|38.41470| -82.47543|TRUE|TRUE|FALSE|TRUE
5751031|Delta Hotels by Marriott Huntington Mall|Huntington, WV| 141|38.41512| -82.26149|FALSE|FALSE|TRUE|TRUE
5751031|Red Roof Inn Huntington|Huntington, WV|  78|38.41461| -82.34332|TRUE|FALSE|FALSE|TRUE
5751031|Comfort Inn Barboursville near Huntington Mall area|Huntington, WV|  95|38.42484| -82.26338|TRUE|FALSE|TRUE|TRUE
5751031|Super 8 by Wyndham Huntington WV|Huntington, WV|  84|38.39694| -82.41369|TRUE|TRUE|FALSE|TRUE
5751031|Econo Lodge|Huntington, WV|  85|38.41925| -82.44515|TRUE|TRUE|FALSE|TRUE
5751031|Ramada Limited Huntington|Huntington, WV| 127|38.39647| -82.41181|FALSE|TRUE|TRUE|TRUE
5751031|Comfort Suites South Point - Huntington|Huntington, WV| 118|38.41866| -82.50404|FALSE|TRUE|TRUE|TRUE
5751031|Hampton Inn Huntington/Barboursville|Huntington, WV| 124|38.41494| -82.25752|FALSE|FALSE|TRUE|TRUE
5751031|DoubleTree by Hilton Huntington|Huntington, WV| 104|38.42193| -82.44179|TRUE|TRUE|TRUE|TRUE
5751033|TownePlace Suites by Marriott Huntington|Huntington, WV| 131|38.39446| -82.41597|FALSE|TRUE|TRUE|TRUE
5751033|Rodeway Inn|Huntington, WV|  61|38.41925| -82.44515|TRUE|TRUE|FALSE|TRUE
5751033|DoubleTree by Hilton Huntington|Huntington, WV| 104|38.42193| -82.44179|TRUE|TRUE|TRUE|TRUE
5751033|Comfort Suites South Point - Huntington|Huntington, WV| 118|38.41866| -82.50404|FALSE|TRUE|TRUE|TRUE
5751033|Super 8 by Wyndham Huntington WV|Huntington, WV|  84|38.39694| -82.41369|TRUE|TRUE|FALSE|TRUE
5751033|Ramada Limited Huntington|Huntington, WV| 127|38.39647| -82.41181|FALSE|TRUE|TRUE|TRUE
5751033|Comfort Inn Barboursville near Huntington Mall area|Huntington, WV|  95|38.42484| -82.26338|TRUE|FALSE|TRUE|TRUE
5751033|Hampton Inn Huntington University Area|Huntington, WV| 114|38.39466| -82.41703|TRUE|TRUE|TRUE|TRUE
5751033|Hampton Inn Huntington/Barboursville|Huntington, WV| 124|38.41494| -82.25752|FALSE|FALSE|TRUE|TRUE
5751033|Motel 6 Huntington, WV|Huntington, WV|  55|38.41470| -82.47543|TRUE|TRUE|FALSE|TRUE
5751033|Days Inn by Wyndham Huntington|Huntington, WV|  95|38.41360| -82.34256|TRUE|FALSE|TRUE|TRUE
5751033|Red Roof Inn Huntington|Huntington, WV|  78|38.41461| -82.34332|TRUE|FALSE|FALSE|TRUE
5751033|BEST WESTERN Huntington Mall Inn|Huntington, WV|  76|38.41678| -82.25845|TRUE|FALSE|FALSE|TRUE
5751033|Delta Hotels by Marriott Huntington Downtown|Huntington, WV| 149|38.42209| -82.44540|FALSE|TRUE|TRUE|TRUE
5751033|Econo Lodge|Huntington, WV|  85|38.41925| -82.44515|TRUE|TRUE|FALSE|TRUE
5751033|Delta Hotels by Marriott Huntington Mall|Huntington, WV| 141|38.41512| -82.26149|FALSE|FALSE|TRUE|TRUE
5751035|Delta Hotels by Marriott Huntington Mall|Huntington, WV| 141|38.41512| -82.26149|FALSE|FALSE|TRUE|TRUE
5751035|Super 8 by Wyndham Huntington WV|Huntington, WV|  84|38.39694| -82.41369|TRUE|TRUE|FALSE|TRUE
5751035|Delta Hotels by Marriott Huntington Downtown|Huntington, WV| 149|38.42209| -82.44540|FALSE|TRUE|TRUE|TRUE
5751035|Rodeway Inn|Huntington, WV|  61|38.41925| -82.44515|TRUE|TRUE|FALSE|TRUE
5751035|Hampton Inn Huntington/Barboursville|Huntington, WV| 124|38.41494| -82.25752|FALSE|FALSE|TRUE|TRUE
5751035|Days Inn by Wyndham Huntington|Huntington, WV|  95|38.41360| -82.34256|TRUE|FALSE|TRUE|TRUE
5751035|TownePlace Suites by Marriott Huntington|Huntington, WV| 131|38.39446| -82.41597|FALSE|TRUE|TRUE|TRUE
5751035|BEST WESTERN Huntington Mall Inn|Huntington, WV|  76|38.41678| -82.25845|TRUE|FALSE|FALSE|TRUE
5751035|DoubleTree by Hilton Huntington|Huntington, WV| 104|38.42193| -82.44179|TRUE|TRUE|TRUE|TRUE
5751035|Econo Lodge|Huntington, WV|  85|38.41925| -82.44515|TRUE|TRUE|FALSE|TRUE
5751035|Motel 6 Huntington, WV|Huntington, WV|  55|38.41470| -82.47543|TRUE|TRUE|FALSE|TRUE
5751035|Red Roof Inn Huntington|Huntington, WV|  78|38.41461| -82.34332|TRUE|FALSE|FALSE|TRUE
5751035|Hampton Inn Huntington University Area|Huntington, WV| 114|38.39466| -82.41703|TRUE|TRUE|TRUE|TRUE
5751035|Ramada Limited Huntington|Huntington, WV| 127|38.39647| -82.41181|FALSE|TRUE|TRUE|TRUE
5751035|Comfort Inn Barboursville near Huntington Mall area|Huntington, WV|  95|38.42484| -82.26338|TRUE|FALSE|TRUE|TRUE
5751035|Comfort Suites South Point - Huntington|Huntington, WV| 118|38.41866| -82.50404|FALSE|TRUE|TRUE|TRUE
5751037|Econo Lodge|Huntington, WV|  85|38.41925| -82.44515|TRUE|TRUE|FALSE|TRUE
5751037|TownePlace Suites by Marriott Huntington|Huntington, WV| 131|38.39446| -82.41597|FALSE|TRUE|TRUE|TRUE
5751037|Rodeway Inn|Huntington, WV|  61|38.41925| -82.44515|TRUE|TRUE|FALSE|TRUE
5751037|Comfort Inn Barboursville near Huntington Mall area|Huntington, WV|  95|38.42484| -82.26338|TRUE|FALSE|TRUE|TRUE
5751037|Hampton Inn Huntington University Area|Huntington, WV| 114|38.39466| -82.41703|TRUE|TRUE|TRUE|TRUE
5751037|BEST WESTERN Huntington Mall Inn|Huntington, WV|  76|38.41678| -82.25845|TRUE|FALSE|FALSE|TRUE
5751037|Motel 6 Huntington, WV|Huntington, WV|  55|38.41470| -82.47543|TRUE|TRUE|FALSE|TRUE
5751037|DoubleTree by Hilton Huntington|Huntington, WV| 104|38.42193| -82.44179|TRUE|TRUE|TRUE|TRUE
5751037|Hampton Inn Huntington/Barboursville|Huntington, WV| 124|38.41494| -82.25752|FALSE|FALSE|TRUE|TRUE
5751037|Ramada Limited Huntington|Huntington, WV| 127|38.39647| -82.41181|FALSE|TRUE|TRUE|TRUE
5751037|Super 8 by Wyndham Huntington WV|Huntington, WV|  84|38.39694| -82.41369|TRUE|TRUE|FALSE|TRUE
5751037|Days Inn by Wyndham Huntington|Huntington, WV|  95|38.41360| -82.34256|TRUE|FALSE|TRUE|TRUE
5751037|Red Roof Inn Huntington|Huntington, WV|  78|38.41461| -82.34332|TRUE|FALSE|FALSE|TRUE
5751037|Delta Hotels by Marriott Huntington Downtown|Huntington, WV| 149|38.42209| -82.44540|FALSE|TRUE|TRUE|TRUE
5751037|Comfort Suites South Point - Huntington|Huntington, WV| 118|38.41866| -82.50404|FALSE|TRUE|TRUE|TRUE
5751037|Delta Hotels by Marriott Huntington Mall|Huntington, WV| 141|38.41512| -82.26149|FALSE|FALSE|TRUE|TRUE
5751049|Manor And Mutts #2 3 Bedroom Cottage by Redawning|Norfolk, VA| 424|36.85077| -76.28587|FALSE|TRUE|TRUE|TRUE
5751049|Red Roof Inn Virginia Beach - Norfolk Airport|Norfolk, VA|  70|36.88345| -76.18175|TRUE|FALSE|FALSE|TRUE
5751049|Wyndham Garden Norfolk Downtown|Norfolk, VA| 119|36.85519| -76.28613|FALSE|TRUE|FALSE|TRUE
5751049|SpringHill Suites Marriott Norfolk Old Dominion University|Norfolk, VA| 149|36.88501| -76.30206|FALSE|TRUE|TRUE|TRUE
5751049|Quality Inn Little Creek|Norfolk, VA|  74|36.90548| -76.15020|TRUE|FALSE|FALSE|TRUE
5751049|Rodeway Inn|Norfolk, VA|  70|36.91635| -76.22414|TRUE|FALSE|FALSE|TRUE
5751049|Econo Lodge Airport|Norfolk, VA|  52|36.88633| -76.21821|TRUE|FALSE|FALSE|TRUE
5751049|Howard Johnson by Wyndham Virginia Beach|Norfolk, VA|  63|36.90555| -76.14895|TRUE|FALSE|FALSE|TRUE
5751049|Courtyard by Marriott Norfolk Downtown|Norfolk, VA| 112|36.84683| -76.28720|FALSE|TRUE|FALSE|TRUE
5751049|Glass Light Hotel & Gallery, Autograph Collection|Norfolk, VA| 188|36.84806| -76.29168|FALSE|TRUE|TRUE|TRUE
5751049|Captains Quarters By The Bay 3 Bedroom Cottage by Redawning|Norfolk, VA| 424|36.85077| -76.28587|FALSE|TRUE|TRUE|TRUE
5751049|Sheraton Norfolk Waterside Hotel|Norfolk, VA| 157|36.84373| -76.28969|FALSE|FALSE|TRUE|TRUE
5751049|Quality Inn|Norfolk, VA|  48|36.92591| -76.31841|TRUE|FALSE|FALSE|TRUE
5751049|SureStay Hotel by Best Western Norfolk Little Creek|Norfolk, VA|  75|36.91948| -76.19235|TRUE|FALSE|FALSE|TRUE
5751049|Super 8 by Wyndham Norfolk/Chesapeake Bay|Norfolk, VA|  73|36.96761| -76.27866|TRUE|FALSE|FALSE|TRUE
5751049|Bowers Hill Inn|Norfolk, VA|  70|36.78303| -76.42259|TRUE|FALSE|FALSE|TRUE
5751049|Red Roof Inn Norfolk - Portsmouth|Norfolk, VA|  74|36.83638| -76.30977|TRUE|FALSE|FALSE|TRUE
5751049|Red Roof Inn Virginia Beach|Norfolk, VA|  75|36.85077| -76.28587|TRUE|TRUE|FALSE|TRUE
5751049|Renaissance Portsmouth-Norfolk Waterfront Hotel|Norfolk, VA| 173|36.83754| -76.29632|FALSE|FALSE|TRUE|TRUE
5751049|The Inn at Four Eleven York|Norfolk, VA| 350|36.85320| -76.29658|FALSE|TRUE|TRUE|TRUE
5751049|The Westin Virginia Beach Town Center|Norfolk, VA| 157|36.84166| -76.13579|FALSE|FALSE|TRUE|TRUE
5751049|Hilton Norfolk The Main|Norfolk, VA| 180|36.84667| -76.29158|FALSE|TRUE|TRUE|TRUE
5751049|Residence Inn Norfolk Downtown|Norfolk, VA| 158|36.85386| -76.29138|FALSE|TRUE|TRUE|TRUE
5751051|Wyndham Garden Norfolk Downtown|Norfolk, VA| 119|36.85519| -76.28613|FALSE|TRUE|FALSE|TRUE
5751051|Red Roof Inn Virginia Beach - Norfolk Airport|Norfolk, VA|  70|36.88345| -76.18175|TRUE|FALSE|FALSE|TRUE
5751051|Bowers Hill Inn|Norfolk, VA|  70|36.78303| -76.42259|TRUE|FALSE|FALSE|TRUE
5751051|The Inn at Four Eleven York|Norfolk, VA| 350|36.85320| -76.29658|FALSE|TRUE|TRUE|TRUE
5751051|Manor And Mutts #2 3 Bedroom Cottage by Redawning|Norfolk, VA| 424|36.85077| -76.28587|FALSE|TRUE|TRUE|TRUE
5751051|SureStay Hotel by Best Western Norfolk Little Creek|Norfolk, VA|  75|36.91948| -76.19235|TRUE|FALSE|FALSE|TRUE
5751051|The Westin Virginia Beach Town Center|Norfolk, VA| 157|36.84166| -76.13579|FALSE|FALSE|TRUE|TRUE
5751051|SpringHill Suites Marriott Norfolk Old Dominion University|Norfolk, VA| 149|36.88501| -76.30206|FALSE|TRUE|TRUE|TRUE
5751051|Red Roof Inn Norfolk - Portsmouth|Norfolk, VA|  74|36.83638| -76.30977|TRUE|FALSE|FALSE|TRUE
5751051|Red Roof Inn Virginia Beach|Norfolk, VA|  75|36.85077| -76.28587|TRUE|TRUE|FALSE|TRUE
5751051|Rodeway Inn|Norfolk, VA|  70|36.91635| -76.22414|TRUE|FALSE|FALSE|TRUE
5751051|Sheraton Norfolk Waterside Hotel|Norfolk, VA| 157|36.84373| -76.28969|FALSE|FALSE|TRUE|TRUE
5751051|Howard Johnson by Wyndham Virginia Beach|Norfolk, VA|  63|36.90555| -76.14895|TRUE|FALSE|FALSE|TRUE
5751051|Glass Light Hotel & Gallery, Autograph Collection|Norfolk, VA| 188|36.84806| -76.29168|FALSE|TRUE|TRUE|TRUE
5751051|Hilton Norfolk The Main|Norfolk, VA| 180|36.84667| -76.29158|FALSE|TRUE|TRUE|TRUE
5751051|Super 8 by Wyndham Norfolk/Chesapeake Bay|Norfolk, VA|  73|36.96761| -76.27866|TRUE|FALSE|FALSE|TRUE
5751051|Renaissance Portsmouth-Norfolk Waterfront Hotel|Norfolk, VA| 173|36.83754| -76.29632|FALSE|FALSE|TRUE|TRUE
5751051|Econo Lodge Airport|Norfolk, VA|  52|36.88633| -76.21821|TRUE|FALSE|FALSE|TRUE
5751051|Quality Inn Little Creek|Norfolk, VA|  74|36.90548| -76.15020|TRUE|FALSE|FALSE|TRUE
5751051|Quality Inn|Norfolk, VA|  48|36.92591| -76.31841|TRUE|FALSE|FALSE|TRUE
5751051|Captains Quarters By The Bay 3 Bedroom Cottage by Redawning|Norfolk, VA| 424|36.85077| -76.28587|FALSE|TRUE|TRUE|TRUE
5751051|Courtyard by Marriott Norfolk Downtown|Norfolk, VA| 112|36.84683| -76.28720|FALSE|TRUE|FALSE|TRUE
5751051|Residence Inn Norfolk Downtown|Norfolk, VA| 158|36.85386| -76.29138|FALSE|TRUE|TRUE|TRUE
5751053|SpringHill Suites Marriott Norfolk Old Dominion University|Norfolk, VA| 149|36.88501| -76.30206|FALSE|TRUE|TRUE|TRUE
5751053|Howard Johnson by Wyndham Virginia Beach|Norfolk, VA|  63|36.90555| -76.14895|TRUE|FALSE|FALSE|TRUE
5751053|Super 8 by Wyndham Norfolk/Chesapeake Bay|Norfolk, VA|  73|36.96761| -76.27866|TRUE|FALSE|FALSE|TRUE
5751053|Quality Inn Little Creek|Norfolk, VA|  74|36.90548| -76.15020|TRUE|FALSE|FALSE|TRUE
5751053|The Inn at Four Eleven York|Norfolk, VA| 350|36.85320| -76.29658|FALSE|TRUE|TRUE|TRUE
5751053|Rodeway Inn|Norfolk, VA|  70|36.91635| -76.22414|TRUE|FALSE|FALSE|TRUE
5751053|Quality Inn|Norfolk, VA|  48|36.92591| -76.31841|TRUE|FALSE|FALSE|TRUE
5751053|Wyndham Garden Norfolk Downtown|Norfolk, VA| 119|36.85519| -76.28613|FALSE|TRUE|FALSE|TRUE
5751053|Glass Light Hotel & Gallery, Autograph Collection|Norfolk, VA| 188|36.84806| -76.29168|FALSE|TRUE|TRUE|TRUE
5751053|Captains Quarters By The Bay 3 Bedroom Cottage by Redawning|Norfolk, VA| 424|36.85077| -76.28587|FALSE|TRUE|TRUE|TRUE
5751053|Manor And Mutts #2 3 Bedroom Cottage by Redawning|Norfolk, VA| 424|36.85077| -76.28587|FALSE|TRUE|TRUE|TRUE
5751053|Bowers Hill Inn|Norfolk, VA|  70|36.78303| -76.42259|TRUE|FALSE|FALSE|TRUE
5751053|Red Roof Inn Virginia Beach|Norfolk, VA|  75|36.85077| -76.28587|TRUE|TRUE|FALSE|TRUE
5751053|SureStay Hotel by Best Western Norfolk Little Creek|Norfolk, VA|  75|36.91948| -76.19235|TRUE|FALSE|FALSE|TRUE
5751053|Residence Inn Norfolk Downtown|Norfolk, VA| 158|36.85386| -76.29138|FALSE|TRUE|TRUE|TRUE
5751053|Econo Lodge Airport|Norfolk, VA|  52|36.88633| -76.21821|TRUE|FALSE|FALSE|TRUE
5751053|Hilton Norfolk The Main|Norfolk, VA| 180|36.84667| -76.29158|FALSE|TRUE|TRUE|TRUE
5751053|Renaissance Portsmouth-Norfolk Waterfront Hotel|Norfolk, VA| 173|36.83754| -76.29632|FALSE|FALSE|TRUE|TRUE
5751053|Sheraton Norfolk Waterside Hotel|Norfolk, VA| 157|36.84373| -76.28969|FALSE|FALSE|TRUE|TRUE
5751053|Red Roof Inn Norfolk - Portsmouth|Norfolk, VA|  74|36.83638| -76.30977|TRUE|FALSE|FALSE|TRUE
5751053|Red Roof Inn Virginia Beach - Norfolk Airport|Norfolk, VA|  70|36.88345| -76.18175|TRUE|FALSE|FALSE|TRUE
5751053|Courtyard by Marriott Norfolk Downtown|Norfolk, VA| 112|36.84683| -76.28720|FALSE|TRUE|FALSE|TRUE
5751053|The Westin Virginia Beach Town Center|Norfolk, VA| 157|36.84166| -76.13579|FALSE|FALSE|TRUE|TRUE
5751067|Days Inn by Wyndham Mobile I-65|Mobile, AL|  76|30.67803| -88.12934|TRUE|TRUE|FALSE|TRUE
5751067|Red Roof Inn Mobile - Midtown|Mobile, AL|  75|30.68778| -88.12458|TRUE|FALSE|FALSE|TRUE
5751067|Baymont by Wyndham Saraland|Mobile, AL|  79|30.80303| -88.10802|TRUE|FALSE|FALSE|TRUE
5751067|Mobile Marriott|Mobile, AL| 137|30.67477| -88.11625|FALSE|FALSE|TRUE|TRUE
5751067|Drury Inn Mobile|Mobile, AL| 124|30.67447| -88.12960|FALSE|TRUE|FALSE|TRUE
5751067|Super 8 by Wyndham Mobile I-65|Mobile, AL|  80|30.67810| -88.12959|TRUE|TRUE|FALSE|TRUE
5751067|Holiday Inn Express And Suites Mobile - University Area, an IHG Hotel|Mobile, AL| 142|30.68832| -88.17550|FALSE|TRUE|TRUE|TRUE
5751067|Travelodge by Wyndham Mobile Al|Mobile, AL|  58|30.58466| -88.17211|TRUE|FALSE|FALSE|TRUE
5751067|Fort Conde Inn|Mobile, AL| 162|30.68697| -88.03987|FALSE|FALSE|TRUE|TRUE
5751067|Homewood Suites by Hilton Mobile Airport-University Area|Mobile, AL| 121|30.68278| -88.20435|FALSE|TRUE|FALSE|TRUE
5751067|Quality Inn Mobile West Tillmans Corner|Mobile, AL|  72|30.58521| -88.17275|TRUE|FALSE|FALSE|TRUE
5751067|The Battle House Renaissance Mobile Hotel & Spa|Mobile, AL| 194|30.69312| -88.04067|FALSE|FALSE|TRUE|TRUE
5751067|Days Inn & Suites by Wyndham Mobile|Mobile, AL|  68|30.58472| -88.17230|TRUE|FALSE|FALSE|TRUE
5751067|Holiday Inn Mobile - Airport, an IHG Hotel|Mobile, AL| 121|30.68100| -88.12946|FALSE|TRUE|FALSE|TRUE
5751067|La Quinta Inn & Suites by Wyndham Mobile|Mobile, AL| 128|30.67729| -88.13003|FALSE|TRUE|TRUE|TRUE
5751067|Holiday Inn Mobile-Dwtn/Hist. District, an IHG Hotel|Mobile, AL| 144|30.68891| -88.04432|FALSE|FALSE|TRUE|TRUE
5751067|Springhill Suites Mobile|Mobile, AL| 148|30.68131| -88.12961|FALSE|TRUE|TRUE|TRUE
5751067|The Admiral|Mobile, AL| 154|30.68924| -88.04322|FALSE|FALSE|TRUE|TRUE
5751067|Extend A Suites|Mobile, AL|  51|30.68689| -88.12510|TRUE|FALSE|FALSE|TRUE
5751067|Renaissance Mobile Riverview Plaza Hotel|Mobile, AL| 194|30.69106| -88.03955|FALSE|FALSE|TRUE|TRUE
5751067|Hilton Garden Inn Mobile West I-65/Airport Blvd|Mobile, AL| 116|30.67411| -88.12934|FALSE|TRUE|FALSE|TRUE
5751067|Homewood Suites by Hilton Mobile I-65/Airport Blvd, AL|Mobile, AL| 159|30.66208| -88.12816|FALSE|FALSE|TRUE|TRUE
5751067|Quality Inn near University of Mobile|Mobile, AL|  79|30.80134| -88.09917|TRUE|FALSE|FALSE|TRUE
5751067|Quality Inn & Suites at Airport Blvd I-65|Mobile, AL|  82|30.68140| -88.12891|FALSE|TRUE|FALSE|TRUE
5751067|Fairview Inn and Suites|Mobile, AL|  69|30.68595| -88.12495|TRUE|FALSE|FALSE|TRUE
5751069|Red Roof Inn Mobile - Midtown|Mobile, AL|  75|30.68778| -88.12458|TRUE|FALSE|FALSE|TRUE
5751069|Springhill Suites Mobile|Mobile, AL| 148|30.68131| -88.12961|FALSE|TRUE|TRUE|TRUE
5751069|La Quinta Inn & Suites by Wyndham Mobile|Mobile, AL| 128|30.67729| -88.13003|FALSE|TRUE|TRUE|TRUE
5751069|The Admiral|Mobile, AL| 154|30.68924| -88.04322|FALSE|FALSE|TRUE|TRUE
5751069|Drury Inn Mobile|Mobile, AL| 124|30.67447| -88.12960|FALSE|TRUE|FALSE|TRUE
5751069|Fort Conde Inn|Mobile, AL| 162|30.68697| -88.03987|FALSE|FALSE|TRUE|TRUE
5751069|Quality Inn & Suites at Airport Blvd I-65|Mobile, AL|  82|30.68140| -88.12891|FALSE|TRUE|FALSE|TRUE
5751069|Fairview Inn and Suites|Mobile, AL|  69|30.68595| -88.12495|TRUE|FALSE|FALSE|TRUE
5751069|Days Inn & Suites by Wyndham Mobile|Mobile, AL|  68|30.58472| -88.17230|TRUE|FALSE|FALSE|TRUE
5751069|Hilton Garden Inn Mobile West I-65/Airport Blvd|Mobile, AL| 116|30.67411| -88.12934|FALSE|TRUE|FALSE|TRUE
5751069|Baymont by Wyndham Saraland|Mobile, AL|  79|30.80303| -88.10802|TRUE|FALSE|FALSE|TRUE
5751069|Days Inn by Wyndham Mobile I-65|Mobile, AL|  76|30.67803| -88.12934|TRUE|TRUE|FALSE|TRUE
5751069|The Battle House Renaissance Mobile Hotel & Spa|Mobile, AL| 194|30.69312| -88.04067|FALSE|FALSE|TRUE|TRUE
5751069|Travelodge by Wyndham Mobile Al|Mobile, AL|  58|30.58466| -88.17211|TRUE|FALSE|FALSE|TRUE
5751069|Mobile Marriott|Mobile, AL| 137|30.67477| -88.11625|FALSE|FALSE|TRUE|TRUE
5751069|Homewood Suites by Hilton Mobile I-65/Airport Blvd, AL|Mobile, AL| 159|30.66208| -88.12816|FALSE|FALSE|TRUE|TRUE
5751069|Quality Inn Mobile West Tillmans Corner|Mobile, AL|  72|30.58521| -88.17275|TRUE|FALSE|FALSE|TRUE
5751069|Super 8 by Wyndham Mobile I-65|Mobile, AL|  80|30.67810| -88.12959|TRUE|TRUE|FALSE|TRUE
5751069|Renaissance Mobile Riverview Plaza Hotel|Mobile, AL| 194|30.69106| -88.03955|FALSE|FALSE|TRUE|TRUE
5751069|Holiday Inn Mobile-Dwtn/Hist. District, an IHG Hotel|Mobile, AL| 144|30.68891| -88.04432|FALSE|FALSE|TRUE|TRUE
5751069|Holiday Inn Express And Suites Mobile - University Area, an IHG Hotel|Mobile, AL| 142|30.68832| -88.17550|FALSE|TRUE|TRUE|TRUE
5751069|Quality Inn near University of Mobile|Mobile, AL|  79|30.80134| -88.09917|TRUE|FALSE|FALSE|TRUE
5751069|Extend A Suites|Mobile, AL|  51|30.68689| -88.12510|TRUE|FALSE|FALSE|TRUE
5751069|Holiday Inn Mobile - Airport, an IHG Hotel|Mobile, AL| 121|30.68100| -88.12946|FALSE|TRUE|FALSE|TRUE
5751069|Homewood Suites by Hilton Mobile Airport-University Area|Mobile, AL| 121|30.68278| -88.20435|FALSE|TRUE|FALSE|TRUE
5751071|Fairview Inn and Suites|Mobile, AL|  69|30.68595| -88.12495|TRUE|FALSE|FALSE|TRUE
5751071|Springhill Suites Mobile|Mobile, AL| 148|30.68131| -88.12961|FALSE|TRUE|TRUE|TRUE
5751071|Fort Conde Inn|Mobile, AL| 162|30.68697| -88.03987|FALSE|FALSE|TRUE|TRUE
5751071|The Admiral|Mobile, AL| 154|30.68924| -88.04322|FALSE|FALSE|TRUE|TRUE
5751071|Days Inn by Wyndham Mobile I-65|Mobile, AL|  76|30.67803| -88.12934|TRUE|TRUE|FALSE|TRUE
5751071|Red Roof Inn Mobile - Midtown|Mobile, AL|  75|30.68778| -88.12458|TRUE|FALSE|FALSE|TRUE
5751071|Holiday Inn Express And Suites Mobile - University Area, an IHG Hotel|Mobile, AL| 142|30.68832| -88.17550|FALSE|TRUE|TRUE|TRUE
5751071|Quality Inn & Suites at Airport Blvd I-65|Mobile, AL|  82|30.68140| -88.12891|FALSE|TRUE|FALSE|TRUE
5751071|Travelodge by Wyndham Mobile Al|Mobile, AL|  58|30.58466| -88.17211|TRUE|FALSE|FALSE|TRUE
5751071|Holiday Inn Mobile-Dwtn/Hist. District, an IHG Hotel|Mobile, AL| 144|30.68891| -88.04432|FALSE|FALSE|TRUE|TRUE
5751071|Homewood Suites by Hilton Mobile I-65/Airport Blvd, AL|Mobile, AL| 159|30.66208| -88.12816|FALSE|FALSE|TRUE|TRUE
5751071|Quality Inn Mobile West Tillmans Corner|Mobile, AL|  72|30.58521| -88.17275|TRUE|FALSE|FALSE|TRUE
5751071|La Quinta Inn & Suites by Wyndham Mobile|Mobile, AL| 128|30.67729| -88.13003|FALSE|TRUE|TRUE|TRUE
5751071|Drury Inn Mobile|Mobile, AL| 124|30.67447| -88.12960|FALSE|TRUE|FALSE|TRUE
5751071|Quality Inn near University of Mobile|Mobile, AL|  79|30.80134| -88.09917|TRUE|FALSE|FALSE|TRUE
5751071|Baymont by Wyndham Saraland|Mobile, AL|  79|30.80303| -88.10802|TRUE|FALSE|FALSE|TRUE
5751071|The Battle House Renaissance Mobile Hotel & Spa|Mobile, AL| 194|30.69312| -88.04067|FALSE|FALSE|TRUE|TRUE
5751071|Super 8 by Wyndham Mobile I-65|Mobile, AL|  80|30.67810| -88.12959|TRUE|TRUE|FALSE|TRUE
5751071|Days Inn & Suites by Wyndham Mobile|Mobile, AL|  68|30.58472| -88.17230|TRUE|FALSE|FALSE|TRUE
5751071|Mobile Marriott|Mobile, AL| 137|30.67477| -88.11625|FALSE|FALSE|TRUE|TRUE
5751071|Homewood Suites by Hilton Mobile Airport-University Area|Mobile, AL| 121|30.68278| -88.20435|FALSE|TRUE|FALSE|TRUE
5751071|Holiday Inn Mobile - Airport, an IHG Hotel|Mobile, AL| 121|30.68100| -88.12946|FALSE|TRUE|FALSE|TRUE
5751071|Renaissance Mobile Riverview Plaza Hotel|Mobile, AL| 194|30.69106| -88.03955|FALSE|FALSE|TRUE|TRUE
5751071|Hilton Garden Inn Mobile West I-65/Airport Blvd|Mobile, AL| 116|30.67411| -88.12934|FALSE|TRUE|FALSE|TRUE
5751071|Extend A Suites|Mobile, AL|  51|30.68689| -88.12510|TRUE|FALSE|FALSE|TRUE
5751086|Candlewood Suites Hattiesburg, an IHG Hotel|Hattiesburg, MS| 126|31.35732| -89.34969|FALSE|FALSE|TRUE|TRUE
5751086|Hilton Garden Inn Hattiesburg|Hattiesburg, MS| 125|31.32739| -89.35531|TRUE|FALSE|TRUE|TRUE
5751086|Hotel Indigo Hattiesburg, an IHG Hotel|Hattiesburg, MS| 158|31.32379| -89.33446|FALSE|TRUE|TRUE|TRUE
5751086|TownePlace Suites Hattiesburg|Hattiesburg, MS| 128|31.33145| -89.35123|FALSE|TRUE|TRUE|TRUE
5751086|Home2 Suites by Hilton Hattiesburg|Hattiesburg, MS| 153|31.32821| -89.35351|FALSE|FALSE|TRUE|TRUE
5751086|Comfort Suites Hattiesburg|Hattiesburg, MS| 104|31.32735| -89.35314|TRUE|TRUE|FALSE|TRUE
5751086|Super 8 by Wyndham Hattiesburg South|Hattiesburg, MS|  84|31.32406| -89.34856|TRUE|TRUE|FALSE|TRUE
5751086|Avid Hotels Hattiesburg West, an IHG Hotel|Hattiesburg, MS| 114|31.32700| -89.34815|TRUE|TRUE|FALSE|TRUE
5751086|Best Western Premier University Inn|Hattiesburg, MS| 117|31.32669| -89.35541|TRUE|FALSE|FALSE|TRUE
5751086|Holiday Inn Hattiesburg - North, an IHG Hotel|Hattiesburg, MS| 130|31.34938| -89.33980|FALSE|FALSE|TRUE|TRUE
5751086|Doubletree by Hilton Hattiesburg, MS|Hattiesburg, MS| 140|31.35641| -89.34948|FALSE|FALSE|TRUE|TRUE
5751086|Hampton Inn by Hilton Hattiesburg|Hattiesburg, MS| 174|31.32794| -89.35322|FALSE|TRUE|TRUE|TRUE
5751086|Fairfield Inn by Marriott Hattiesburg|Hattiesburg, MS|  87|31.32657| -89.34977|TRUE|TRUE|FALSE|TRUE
5751086|Courtyard by Marriott Hattiesburg|Hattiesburg, MS| 122|31.32861| -89.34905|TRUE|TRUE|TRUE|TRUE
5751086|Microtel Inn & Suites by Wyndham Hattiesburg|Hattiesburg, MS|  84|31.32553| -89.35703|TRUE|FALSE|FALSE|TRUE
5751086|Residence Inn by Marriott Hattiesburg|Hattiesburg, MS| 153|31.32852| -89.34993|FALSE|TRUE|TRUE|TRUE
5751086|Days Inn by Wyndham Hattiesburg MS|Hattiesburg, MS|  75|31.32585| -89.34941|TRUE|TRUE|FALSE|TRUE
5751086|Baymont by Wyndham Hattiesburg|Hattiesburg, MS|  69|31.32760| -89.35407|TRUE|FALSE|FALSE|TRUE
5751088|Fairfield Inn by Marriott Hattiesburg|Hattiesburg, MS|  87|31.32657| -89.34977|TRUE|TRUE|FALSE|TRUE
5751088|Microtel Inn & Suites by Wyndham Hattiesburg|Hattiesburg, MS|  84|31.32553| -89.35703|TRUE|FALSE|FALSE|TRUE
5751088|Hilton Garden Inn Hattiesburg|Hattiesburg, MS| 125|31.32739| -89.35531|TRUE|FALSE|TRUE|TRUE
5751088|Comfort Suites Hattiesburg|Hattiesburg, MS| 104|31.32735| -89.35314|TRUE|TRUE|FALSE|TRUE
5751088|Candlewood Suites Hattiesburg, an IHG Hotel|Hattiesburg, MS| 126|31.35732| -89.34969|FALSE|FALSE|TRUE|TRUE
5751088|Holiday Inn Hattiesburg - North, an IHG Hotel|Hattiesburg, MS| 130|31.34938| -89.33980|FALSE|FALSE|TRUE|TRUE
5751088|Courtyard by Marriott Hattiesburg|Hattiesburg, MS| 122|31.32861| -89.34905|TRUE|TRUE|TRUE|TRUE
5751088|Residence Inn by Marriott Hattiesburg|Hattiesburg, MS| 153|31.32852| -89.34993|FALSE|TRUE|TRUE|TRUE
5751088|Hampton Inn by Hilton Hattiesburg|Hattiesburg, MS| 174|31.32794| -89.35322|FALSE|TRUE|TRUE|TRUE
5751088|Baymont by Wyndham Hattiesburg|Hattiesburg, MS|  69|31.32760| -89.35407|TRUE|FALSE|FALSE|TRUE
5751088|TownePlace Suites Hattiesburg|Hattiesburg, MS| 128|31.33145| -89.35123|FALSE|TRUE|TRUE|TRUE
5751088|Days Inn by Wyndham Hattiesburg MS|Hattiesburg, MS|  75|31.32585| -89.34941|TRUE|TRUE|FALSE|TRUE
5751088|Avid Hotels Hattiesburg West, an IHG Hotel|Hattiesburg, MS| 114|31.32700| -89.34815|TRUE|TRUE|FALSE|TRUE
5751088|Super 8 by Wyndham Hattiesburg South|Hattiesburg, MS|  84|31.32406| -89.34856|TRUE|TRUE|FALSE|TRUE
5751088|Hotel Indigo Hattiesburg, an IHG Hotel|Hattiesburg, MS| 158|31.32379| -89.33446|FALSE|TRUE|TRUE|TRUE
5751088|Home2 Suites by Hilton Hattiesburg|Hattiesburg, MS| 153|31.32821| -89.35351|FALSE|FALSE|TRUE|TRUE
5751088|Doubletree by Hilton Hattiesburg, MS|Hattiesburg, MS| 140|31.35641| -89.34948|FALSE|FALSE|TRUE|TRUE
5751088|Best Western Premier University Inn|Hattiesburg, MS| 117|31.32669| -89.35541|TRUE|FALSE|FALSE|TRUE
5751106|Residence Inn by Marriott San Marcos|San Marcos, TX| 160|29.82534| -97.99047|FALSE|FALSE|TRUE|TRUE
5751106|Embassy Suites by Hilton San Marcos Hotel Conference Center|San Marcos, TX| 157|29.83914| -97.96916|FALSE|FALSE|TRUE|TRUE
5751106|Quality Inn University near Downtown|San Marcos, TX|  67|29.89512| -97.91214|TRUE|TRUE|FALSE|TRUE
5751106|Homewood Suites by Hilton San Marcos|San Marcos, TX| 131|29.84833| -97.96471|FALSE|FALSE|TRUE|TRUE
5751106|Candlewood Suites San Marcos, an IHG Hotel|San Marcos, TX| 111|29.85756| -97.95476|TRUE|TRUE|FALSE|TRUE
5751106|Collective Hill Country Retreat|San Marcos, TX| 481|29.97445| -98.04825|FALSE|FALSE|TRUE|TRUE
5751106|Wingate by Wyndham San Marcos|San Marcos, TX|  97|29.86919| -97.93651|TRUE|TRUE|FALSE|TRUE
5751106|Studio 6 San Marcos, TX|San Marcos, TX|  85|29.90534| -97.90083|TRUE|TRUE|FALSE|TRUE
5751106|Fairfield Inn & Suites by Marriott Austin San Marcos|San Marcos, TX| 115|29.88642| -97.91688|TRUE|TRUE|FALSE|TRUE
5751106|Hampton Inn & Suites San Marcos|San Marcos, TX| 128|29.86852| -97.93722|FALSE|TRUE|TRUE|TRUE
5751106|Comfort Suites Near Texas State University|San Marcos, TX|  96|29.86931| -97.93756|TRUE|TRUE|FALSE|TRUE
5751106|Holiday Inn San Marcos-Convention CTR Area, an IHG Hotel|San Marcos, TX| 120|29.85979| -97.95132|TRUE|TRUE|TRUE|TRUE
5751106|Hilton Garden Inn San Marcos|San Marcos, TX| 140|29.90359| -97.90441|FALSE|TRUE|TRUE|TRUE
5751106|Comfort Inn & Suites|San Marcos, TX|  79|29.84616| -97.96185|TRUE|FALSE|FALSE|TRUE
5751106|Hampton Inn Kyle|San Marcos, TX| 121|30.00906| -97.86092|FALSE|FALSE|TRUE|TRUE
5751106|Best Western San Marcos|San Marcos, TX|  86|29.88061| -97.92568|TRUE|TRUE|FALSE|TRUE
5751106|Holiday Inn Express and Suites San Marcos South, an IHG Hotel|San Marcos, TX| 134|29.84289| -97.97398|FALSE|FALSE|TRUE|TRUE
5751106|Courtyard San Marcos|San Marcos, TX| 137|29.82529| -97.99059|FALSE|FALSE|TRUE|TRUE
5751106|Comfort Suites Kyle|San Marcos, TX| 115|30.01012| -97.86445|TRUE|FALSE|FALSE|TRUE
5751108|Comfort Suites Near Texas State University|San Marcos, TX|  96|29.86931| -97.93756|TRUE|TRUE|FALSE|TRUE
5751108|Hampton Inn & Suites San Marcos|San Marcos, TX| 128|29.86852| -97.93722|FALSE|TRUE|TRUE|TRUE
5751108|Fairfield Inn & Suites by Marriott Austin San Marcos|San Marcos, TX| 115|29.88642| -97.91688|TRUE|TRUE|FALSE|TRUE
5751108|Candlewood Suites San Marcos, an IHG Hotel|San Marcos, TX| 111|29.85756| -97.95476|TRUE|TRUE|FALSE|TRUE
5751108|Comfort Inn & Suites|San Marcos, TX|  79|29.84616| -97.96185|TRUE|FALSE|FALSE|TRUE
5751108|Courtyard San Marcos|San Marcos, TX| 137|29.82529| -97.99059|FALSE|FALSE|TRUE|TRUE
5751108|Hilton Garden Inn San Marcos|San Marcos, TX| 140|29.90359| -97.90441|FALSE|TRUE|TRUE|TRUE
5751108|Holiday Inn San Marcos-Convention CTR Area, an IHG Hotel|San Marcos, TX| 120|29.85979| -97.95132|TRUE|TRUE|TRUE|TRUE
5751108|Quality Inn University near Downtown|San Marcos, TX|  67|29.89512| -97.91214|TRUE|TRUE|FALSE|TRUE
5751108|Best Western San Marcos|San Marcos, TX|  86|29.88061| -97.92568|TRUE|TRUE|FALSE|TRUE
5751108|Wingate by Wyndham San Marcos|San Marcos, TX|  97|29.86919| -97.93651|TRUE|TRUE|FALSE|TRUE
5751108|Residence Inn by Marriott San Marcos|San Marcos, TX| 160|29.82534| -97.99047|FALSE|FALSE|TRUE|TRUE
5751108|Homewood Suites by Hilton San Marcos|San Marcos, TX| 131|29.84833| -97.96471|FALSE|FALSE|TRUE|TRUE
5751108|Collective Hill Country Retreat|San Marcos, TX| 481|29.97445| -98.04825|FALSE|FALSE|TRUE|TRUE
5751108|Embassy Suites by Hilton San Marcos Hotel Conference Center|San Marcos, TX| 157|29.83914| -97.96916|FALSE|FALSE|TRUE|TRUE
5751108|Comfort Suites Kyle|San Marcos, TX| 115|30.01012| -97.86445|TRUE|FALSE|FALSE|TRUE
5751108|Studio 6 San Marcos, TX|San Marcos, TX|  85|29.90534| -97.90083|TRUE|TRUE|FALSE|TRUE
5751108|Hampton Inn Kyle|San Marcos, TX| 121|30.00906| -97.86092|FALSE|FALSE|TRUE|TRUE
5751108|Holiday Inn Express and Suites San Marcos South, an IHG Hotel|San Marcos, TX| 134|29.84289| -97.97398|FALSE|FALSE|TRUE|TRUE
5751162|TownePlace Suites Oxford|Oxford, MS| 119|34.37106| -89.49802|TRUE|TRUE|TRUE|TRUE
5751162|La Quinta Inn & Suites by Wyndham Oxford|Oxford, MS|  97|34.35272| -89.52213|TRUE|TRUE|TRUE|TRUE
5751162|Chancellor's House|Oxford, MS| 152|34.36414| -89.51889|TRUE|TRUE|TRUE|TRUE
5751162|Courtyard by Marriott Oxford|Oxford, MS| 110|34.36831| -89.52682|TRUE|TRUE|TRUE|TRUE
5751162|Hampton Inn Oxford-West|Oxford, MS|  96|34.36487| -89.55727|TRUE|TRUE|TRUE|TRUE
5751162|Hampton Inn Oxford/Conference Center|Oxford, MS| 101|34.37181| -89.49833|TRUE|TRUE|TRUE|TRUE
5751162|Graduate Oxford|Oxford, MS| 122|34.36899| -89.51792|TRUE|TRUE|TRUE|TRUE
5751162|Home2 Suites by Hilton Oxford|Oxford, MS| 110|34.34858| -89.52200|TRUE|TRUE|TRUE|TRUE
5751162|Tru by Hilton Oxford|Oxford, MS|  96|34.37418| -89.49845|TRUE|TRUE|TRUE|TRUE
5751162|Super 8 by Wyndham Oxford|Oxford, MS|  67|34.36301| -89.56183|TRUE|TRUE|TRUE|TRUE
5751166|TownePlace Suites Oxford|Oxford, MS| 119|34.37106| -89.49802|TRUE|TRUE|TRUE|TRUE
5751166|La Quinta Inn & Suites by Wyndham Oxford|Oxford, MS|  97|34.35272| -89.52213|TRUE|TRUE|TRUE|TRUE
5751166|Chancellor's House|Oxford, MS| 152|34.36414| -89.51889|TRUE|TRUE|TRUE|TRUE
5751166|Home2 Suites by Hilton Oxford|Oxford, MS| 110|34.34858| -89.52200|TRUE|TRUE|TRUE|TRUE
5751166|Super 8 by Wyndham Oxford|Oxford, MS|  67|34.36301| -89.56183|TRUE|TRUE|TRUE|TRUE
5751166|Hampton Inn Oxford-West|Oxford, MS|  96|34.36487| -89.55727|TRUE|TRUE|TRUE|TRUE
5751166|Courtyard by Marriott Oxford|Oxford, MS| 110|34.36831| -89.52682|TRUE|TRUE|TRUE|TRUE
5751166|Tru by Hilton Oxford|Oxford, MS|  96|34.37418| -89.49845|TRUE|TRUE|TRUE|TRUE
5751166|Hampton Inn Oxford/Conference Center|Oxford, MS| 101|34.37181| -89.49833|TRUE|TRUE|TRUE|TRUE
5751166|Graduate Oxford|Oxford, MS| 122|34.36899| -89.51792|TRUE|TRUE|TRUE|TRUE
5751671|Home2 Suites by Hilton Fort Worth Cultural District|Fort Worth, TX| 158|32.74768| -97.36131|FALSE|TRUE|TRUE|TRUE
5751671|Kimpton Harper Hotel, an IHG Hotel|Fort Worth, TX| 174|32.75284| -97.33030|FALSE|TRUE|TRUE|TRUE
5751671|WoodSpring Suites Fort Worth Forest Hill|Fort Worth, TX|  67|32.66226| -97.26295|TRUE|FALSE|FALSE|TRUE
5751671|Executive Inn Fort Worth West|Fort Worth, TX|  71|32.73893| -97.46228|TRUE|FALSE|FALSE|TRUE
5751671|Super 8 by Wyndham Fort Worth North|Fort Worth, TX|  65|32.83787| -97.29155|TRUE|FALSE|FALSE|TRUE
5751671|TownePlace Suites Fort Worth University Area/Medical Center|Fort Worth, TX| 110|32.73068| -97.36824|FALSE|TRUE|FALSE|TRUE
5751671|WoodSpring Suites Fort Worth Fossil Creek|Fort Worth, TX|  60|32.84032| -97.29692|TRUE|FALSE|FALSE|TRUE
5751671|Hampton Inn & Suites Fort Worth Downtown|Fort Worth, TX| 129|32.75166| -97.32764|FALSE|FALSE|TRUE|TRUE
5751671|Omni Fort Worth Hotel|Fort Worth, TX| 202|32.74828| -97.32850|FALSE|TRUE|TRUE|TRUE
5751671|Quality Inn Fort Worth - Downtown East|Fort Worth, TX|  64|32.74844| -97.29066|TRUE|FALSE|FALSE|TRUE
5751671|Courtyard by Marriott Fort Worth Historic Stockyards|Fort Worth, TX| 135|32.79127| -97.34940|FALSE|FALSE|TRUE|TRUE
5751671|Quality Inn West Fort Worth|Fort Worth, TX|  71|32.73527| -97.45147|TRUE|FALSE|FALSE|TRUE
5751671|Microtel Inn & Suites by Wyndham Ft. Worth North/At Fossil|Fort Worth, TX|  66|32.83643| -97.29280|TRUE|FALSE|FALSE|TRUE
5751671|SpringHill Suites by Marriott Fort Worth University|Fort Worth, TX| 115|32.73206| -97.36483|FALSE|TRUE|FALSE|TRUE
5751671|Stay Express Inn Fort Worth|Fort Worth, TX|  69|32.74798| -97.29172|TRUE|FALSE|FALSE|TRUE
5751671|Courtyard by Marriott Fort Worth University Drive|Fort Worth, TX| 144|32.72515| -97.36266|FALSE|TRUE|TRUE|TRUE
5751671|Fairfield Inn & Suites Fort Worth University Drive|Fort Worth, TX|  90|32.73079| -97.35985|FALSE|TRUE|FALSE|TRUE
5751671|Days Inn by Wyndham Fort Worth North / Fossil Creek|Fort Worth, TX|  67|32.82656| -97.31488|TRUE|FALSE|FALSE|TRUE
5751671|AC Hotel by Marriott Fort Worth Downtown|Fort Worth, TX| 142|32.75345| -97.33112|FALSE|FALSE|TRUE|TRUE
5751671|Super 8 by Wyndham Fort Worth Stockyards|Fort Worth, TX|  67|32.82586| -97.31567|TRUE|FALSE|FALSE|TRUE
5751671|Hilton Garden Inn Fort Worth Medical Center|Fort Worth, TX| 154|32.73487| -97.35180|FALSE|TRUE|TRUE|TRUE
5751671|Aloft Fort Worth Downtown|Fort Worth, TX| 147|32.75438| -97.33372|FALSE|TRUE|TRUE|TRUE
5751671|Hotel Drover, Autograph Collection|Fort Worth, TX| 467|32.78730| -97.34749|FALSE|FALSE|TRUE|TRUE
5751671|Hyatt Place Fort Worth Cityview|Fort Worth, TX|  95|32.68093| -97.41308|FALSE|TRUE|FALSE|TRUE
5751673|WoodSpring Suites Fort Worth Fossil Creek|Fort Worth, TX|  60|32.84032| -97.29692|TRUE|FALSE|FALSE|TRUE
5751673|Quality Inn Fort Worth - Downtown East|Fort Worth, TX|  64|32.74844| -97.29066|TRUE|FALSE|FALSE|TRUE
5751673|Super 8 by Wyndham Fort Worth Stockyards|Fort Worth, TX|  67|32.82586| -97.31567|TRUE|FALSE|FALSE|TRUE
5751673|Super 8 by Wyndham Fort Worth North|Fort Worth, TX|  65|32.83787| -97.29155|TRUE|FALSE|FALSE|TRUE
5751673|Microtel Inn & Suites by Wyndham Ft. Worth North/At Fossil|Fort Worth, TX|  66|32.83643| -97.29280|TRUE|FALSE|FALSE|TRUE
5751673|Kimpton Harper Hotel, an IHG Hotel|Fort Worth, TX| 174|32.75284| -97.33030|FALSE|TRUE|TRUE|TRUE
5751673|Quality Inn West Fort Worth|Fort Worth, TX|  71|32.73527| -97.45147|TRUE|FALSE|FALSE|TRUE
5751673|Stay Express Inn Fort Worth|Fort Worth, TX|  69|32.74798| -97.29172|TRUE|FALSE|FALSE|TRUE
5751673|Courtyard by Marriott Fort Worth University Drive|Fort Worth, TX| 144|32.72515| -97.36266|FALSE|TRUE|TRUE|TRUE
5751673|Home2 Suites by Hilton Fort Worth Cultural District|Fort Worth, TX| 158|32.74768| -97.36131|FALSE|TRUE|TRUE|TRUE
5751673|Hyatt Place Fort Worth Cityview|Fort Worth, TX|  95|32.68093| -97.41308|FALSE|TRUE|FALSE|TRUE
5751673|Hilton Garden Inn Fort Worth Medical Center|Fort Worth, TX| 154|32.73487| -97.35180|FALSE|TRUE|TRUE|TRUE
5751673|Executive Inn Fort Worth West|Fort Worth, TX|  71|32.73893| -97.46228|TRUE|FALSE|FALSE|TRUE
5751673|Courtyard by Marriott Fort Worth Historic Stockyards|Fort Worth, TX| 135|32.79127| -97.34940|FALSE|FALSE|TRUE|TRUE
5751673|Days Inn by Wyndham Fort Worth North / Fossil Creek|Fort Worth, TX|  67|32.82656| -97.31488|TRUE|FALSE|FALSE|TRUE
5751673|SpringHill Suites by Marriott Fort Worth University|Fort Worth, TX| 115|32.73206| -97.36483|FALSE|TRUE|FALSE|TRUE
5751673|Hotel Drover, Autograph Collection|Fort Worth, TX| 467|32.78730| -97.34749|FALSE|FALSE|TRUE|TRUE
5751673|TownePlace Suites Fort Worth University Area/Medical Center|Fort Worth, TX| 110|32.73068| -97.36824|FALSE|TRUE|FALSE|TRUE
5751673|AC Hotel by Marriott Fort Worth Downtown|Fort Worth, TX| 142|32.75345| -97.33112|FALSE|FALSE|TRUE|TRUE
5751673|Fairfield Inn & Suites Fort Worth University Drive|Fort Worth, TX|  90|32.73079| -97.35985|FALSE|TRUE|FALSE|TRUE
5751673|Omni Fort Worth Hotel|Fort Worth, TX| 214|32.74828| -97.32850|FALSE|TRUE|TRUE|TRUE
5751673|WoodSpring Suites Fort Worth Forest Hill|Fort Worth, TX|  67|32.66226| -97.26295|TRUE|FALSE|FALSE|TRUE
5751673|Hampton Inn & Suites Fort Worth Downtown|Fort Worth, TX| 129|32.75166| -97.32764|FALSE|FALSE|TRUE|TRUE
5751673|Aloft Fort Worth Downtown|Fort Worth, TX| 147|32.75438| -97.33372|FALSE|TRUE|TRUE|TRUE
5753449|Comfort Suites Manhattan|Manhattan, KS| 116|39.19068| -96.55642|TRUE|TRUE|TRUE|TRUE
5753449|Four Points by Sheraton Manhattan|Manhattan, KS|  93|39.17028| -96.59746|TRUE|TRUE|TRUE|TRUE
5753449|Holiday Inn Manhattan at the Campus, an IHG Hotel|Manhattan, KS| 121|39.18551| -96.58258|TRUE|TRUE|TRUE|TRUE
5753449|Best Western Manhattan Inn|Manhattan, KS|  97|39.18655| -96.54925|TRUE|FALSE|TRUE|TRUE
5753449|Super 8 by Wyndham Manhattan KS|Manhattan, KS|  62|39.18120| -96.55578|TRUE|TRUE|FALSE|TRUE
5753449|Quality Inn & Suites|Manhattan, KS|  72|39.18052| -96.55399|TRUE|FALSE|FALSE|TRUE
5753449|Candlewood Suites Manhattan, an IHG Hotel|Manhattan, KS| 128|39.17538| -96.55936|FALSE|TRUE|TRUE|TRUE
5753449|The Bluemont Hotel|Manhattan, KS| 114|39.18713| -96.57578|TRUE|TRUE|TRUE|TRUE
5753449|Parkwood Inn & Suites|Manhattan, KS|  83|39.17513| -96.58270|TRUE|TRUE|TRUE|TRUE
5753449|Hilton Garden Inn Manhattan|Manhattan, KS| 110|39.17522| -96.56066|TRUE|TRUE|TRUE|TRUE
5753449|Moore House Bed and Breakfast|Manhattan, KS| 138|39.18431| -96.58524|FALSE|TRUE|TRUE|TRUE
5753449|Courtyard by Marriott Manhattan Aggieville|Manhattan, KS| 108|39.18634| -96.57501|TRUE|TRUE|TRUE|TRUE
5753451|Four Points by Sheraton Manhattan|Manhattan, KS|  93|39.17028| -96.59746|TRUE|TRUE|TRUE|TRUE
5753451|Moore House Bed and Breakfast|Manhattan, KS| 138|39.18431| -96.58524|FALSE|TRUE|TRUE|TRUE
5753451|Best Western Manhattan Inn|Manhattan, KS|  97|39.18655| -96.54925|TRUE|FALSE|TRUE|TRUE
5753451|Candlewood Suites Manhattan, an IHG Hotel|Manhattan, KS| 128|39.17538| -96.55936|FALSE|TRUE|TRUE|TRUE
5753451|Parkwood Inn & Suites|Manhattan, KS|  83|39.17513| -96.58270|TRUE|TRUE|TRUE|TRUE
5753451|Comfort Suites Manhattan|Manhattan, KS| 116|39.19068| -96.55642|TRUE|TRUE|TRUE|TRUE
5753451|The Bluemont Hotel|Manhattan, KS| 114|39.18713| -96.57578|TRUE|TRUE|TRUE|TRUE
5753451|Hilton Garden Inn Manhattan|Manhattan, KS| 110|39.17522| -96.56066|TRUE|TRUE|TRUE|TRUE
5753451|Quality Inn & Suites|Manhattan, KS|  72|39.18052| -96.55399|TRUE|FALSE|FALSE|TRUE
5753451|Super 8 by Wyndham Manhattan KS|Manhattan, KS|  62|39.18120| -96.55578|TRUE|TRUE|FALSE|TRUE
5753451|Courtyard by Marriott Manhattan Aggieville|Manhattan, KS| 108|39.18634| -96.57501|TRUE|TRUE|TRUE|TRUE
5753451|Holiday Inn Manhattan at the Campus, an IHG Hotel|Manhattan, KS| 121|39.18551| -96.58258|TRUE|TRUE|TRUE|TRUE
5753453|Four Points by Sheraton Manhattan|Manhattan, KS|  93|39.17028| -96.59746|TRUE|TRUE|TRUE|TRUE
5753453|Quality Inn & Suites|Manhattan, KS|  72|39.18052| -96.55399|TRUE|FALSE|FALSE|TRUE
5753453|Candlewood Suites Manhattan, an IHG Hotel|Manhattan, KS| 128|39.17538| -96.55936|FALSE|TRUE|TRUE|TRUE
5753453|Best Western Manhattan Inn|Manhattan, KS|  97|39.18655| -96.54925|TRUE|FALSE|TRUE|TRUE
5753453|The Bluemont Hotel|Manhattan, KS| 114|39.18713| -96.57578|TRUE|TRUE|TRUE|TRUE
5753453|Holiday Inn Manhattan at the Campus, an IHG Hotel|Manhattan, KS| 121|39.18551| -96.58258|TRUE|TRUE|TRUE|TRUE
5753453|Comfort Suites Manhattan|Manhattan, KS| 116|39.19068| -96.55642|TRUE|TRUE|TRUE|TRUE
5753453|Moore House Bed and Breakfast|Manhattan, KS| 138|39.18431| -96.58524|FALSE|TRUE|TRUE|TRUE
5753453|Super 8 by Wyndham Manhattan KS|Manhattan, KS|  62|39.18120| -96.55578|TRUE|TRUE|FALSE|TRUE
5753453|Hilton Garden Inn Manhattan|Manhattan, KS| 110|39.17522| -96.56066|TRUE|TRUE|TRUE|TRUE
5753453|Courtyard by Marriott Manhattan Aggieville|Manhattan, KS| 108|39.18634| -96.57501|TRUE|TRUE|TRUE|TRUE
5753453|Parkwood Inn & Suites|Manhattan, KS|  83|39.17513| -96.58270|TRUE|TRUE|TRUE|TRUE
5757212|Potawatomi Hotel & Casino|Milwaukee, WI| 225|43.02965| -87.93487|FALSE|FALSE|TRUE|TRUE
5757212|Saint Kate - The Arts Hotel|Milwaukee, WI| 221|43.04195| -87.91079|FALSE|TRUE|TRUE|TRUE
5757212|Econo Lodge Milwaukee Airport|Milwaukee, WI|  60|42.92620| -87.93161|TRUE|FALSE|FALSE|TRUE
5757212|Marriott Milwaukee Downtown|Milwaukee, WI| 176|43.03904| -87.91422|FALSE|TRUE|TRUE|TRUE
5757212|Days Inn by Wyndham West Allis/Milwaukee|Milwaukee, WI|  82|43.01211| -88.04818|TRUE|FALSE|FALSE|TRUE
5757212|La Quinta Inn by Wyndham Milwaukee Airport / Oak Creek|Milwaukee, WI|  89|42.91491| -87.93214|TRUE|FALSE|FALSE|TRUE
5757212|Hyatt Place Milwaukee/Downtown|Milwaukee, WI| 127|43.04607| -87.92134|FALSE|TRUE|FALSE|TRUE
5757212|Aloft Milwaukee Downtown|Milwaukee, WI| 134|43.04615| -87.91400|FALSE|TRUE|FALSE|TRUE
5757212|Travelodge by Wyndham Milwaukee|Milwaukee, WI|  65|42.96017| -87.93651|TRUE|FALSE|FALSE|TRUE
5757212|Kinn Guesthouse Downtown|Milwaukee, WI| 176|43.03764| -87.90731|FALSE|FALSE|TRUE|TRUE
5757212|Cambria Hotel Milwaukee Downtown|Milwaukee, WI| 107|43.03623| -87.91145|FALSE|TRUE|FALSE|TRUE
5757212|Hyatt Regency Milwaukee|Milwaukee, WI| 128|43.04090| -87.91502|FALSE|TRUE|FALSE|TRUE
5757212|Hilton Garden Inn Milwaukee Downtown|Milwaukee, WI| 107|43.03781| -87.90812|FALSE|TRUE|FALSE|TRUE
5757212|The Brewhouse Inn & Suites|Milwaukee, WI| 195|43.04606| -87.92468|FALSE|FALSE|TRUE|TRUE
5757212|Hotel Metro, Autograph Collection|Milwaukee, WI| 224|43.03975| -87.90632|FALSE|FALSE|TRUE|TRUE
5757212|DoubleTree by Hilton Milwaukee Downtown|Milwaukee, WI| 113|43.03828| -87.91945|FALSE|TRUE|FALSE|TRUE
5757212|Hilton Milwaukee City Center|Milwaukee, WI| 122|43.03831| -87.91795|FALSE|TRUE|FALSE|TRUE
5757212|Best Western Plus Milwaukee Airport Hotel & Conference Ctr|Milwaukee, WI|  98|42.95137| -87.91131|TRUE|FALSE|FALSE|TRUE
5757212|Kinn Guesthouse Bay View|Milwaukee, WI| 189|42.99867| -87.90103|FALSE|FALSE|TRUE|TRUE
5757212|The Westin Milwaukee|Milwaukee, WI| 186|43.03723| -87.90199|FALSE|FALSE|TRUE|TRUE
5757212|Kimpton Journeyman Hotel, an IHG Hotel|Milwaukee, WI| 208|43.03280| -87.90672|FALSE|FALSE|TRUE|TRUE
5757212|Village Inn|Milwaukee, WI|  96|43.03834| -87.95192|TRUE|FALSE|FALSE|TRUE
5757212|Tru By Hilton Milwaukee Downtown, WI|Milwaukee, WI|  98|43.03678| -87.90540|TRUE|FALSE|FALSE|TRUE
5757212|Quality Suites Milwaukee Airport|Milwaukee, WI|  93|42.96417| -87.94764|TRUE|FALSE|FALSE|TRUE
5757212|The Pfister Hotel|Milwaukee, WI| 221|43.03941| -87.90572|FALSE|FALSE|TRUE|TRUE
5757212|The Iron Horse Hotel|Milwaukee, WI| 207|43.02760| -87.91725|FALSE|FALSE|TRUE|TRUE
5757212|Quality Inn Milwaukee Route 45|Milwaukee, WI|  91|43.11601| -88.05410|TRUE|FALSE|FALSE|TRUE
5757212|Days Inn & Suites by Wyndham Milwaukee|Milwaukee, WI|  74|43.05480| -87.91812|TRUE|FALSE|FALSE|TRUE
5757212|Drury Plaza Hotel Milwaukee Downtown|Milwaukee, WI| 114|43.03891| -87.90893|FALSE|TRUE|FALSE|TRUE
5757212|Super 8 by Wyndham Milwaukee Airport|Milwaukee, WI|  68|42.94896| -87.91061|TRUE|FALSE|FALSE|TRUE
5757284|3 Palms|Phoenix, AZ|  87|33.46450|-112.21065|TRUE|FALSE|FALSE|TRUE
5757284|Hampton Inn & Suites Phoenix Downtown|Phoenix, AZ| 134|33.45218|-112.07290|FALSE|TRUE|FALSE|TRUE
5757284|Hermosa Inn|Phoenix, AZ| 566|33.51834|-112.00490|FALSE|FALSE|TRUE|TRUE
5757284|JW Marriott Camelback Inn Scottsdale Resort & Spa|Phoenix, AZ| 536|33.53293|-111.96421|FALSE|FALSE|TRUE|TRUE
5757284|Super 8 by Wyndham Phoenix West|Phoenix, AZ|  68|33.49607|-112.11553|TRUE|FALSE|FALSE|TRUE
5757284|Travelodge by Wyndham Phoenix|Phoenix, AZ|  72|33.46431|-112.16685|TRUE|FALSE|FALSE|TRUE
5757284|Red Roof Inn PLUS+ Phoenix West|Phoenix, AZ|  88|33.46438|-112.17166|TRUE|FALSE|FALSE|TRUE
5757284|Sanctuary Camelback Mountain, A Gurney's Resort and Spa|Phoenix, AZ| 729|33.52248|-111.95951|FALSE|FALSE|TRUE|TRUE
5757284|Travel Inn - In Phoenix (Alhambra)|Phoenix, AZ|  80|33.49380|-112.11609|TRUE|FALSE|FALSE|TRUE
5757284|Motel 6 Phoenix East|Phoenix, AZ|  79|33.45034|-111.96701|TRUE|FALSE|FALSE|TRUE
5757284|Renaissance Phoenix Downtown|Phoenix, AZ| 200|33.44963|-112.07320|FALSE|TRUE|TRUE|TRUE
5757284|The Phoenician, a Luxury Collection Resort, Scottsdale|Phoenix, AZ| 594|33.50578|-111.94957|FALSE|FALSE|TRUE|TRUE
5757284|Super 8 by Wyndham Phoenix Metro North|Phoenix, AZ|  75|33.55603|-112.11363|TRUE|FALSE|FALSE|TRUE
5757284|E-Z 8 Motel Phoenix Airporter|Phoenix, AZ|  96|33.43002|-112.06670|FALSE|TRUE|FALSE|TRUE
5757284|Hilton Garden Inn Phoenix Downtown|Phoenix, AZ| 171|33.45008|-112.07347|FALSE|TRUE|TRUE|TRUE
5757284|Best Western Downtown Phoenix|Phoenix, AZ| 123|33.45498|-112.06686|FALSE|TRUE|FALSE|TRUE
5757284|Cambria Hotel Downtown Phoenix Convention Center|Phoenix, AZ| 148|33.46020|-112.06989|FALSE|TRUE|FALSE|TRUE
5757284|Red Roof Inn Phoenix - Midtown|Phoenix, AZ|  86|33.49583|-112.11374|TRUE|FALSE|FALSE|TRUE
5757284|La Quinta Inn by Wyndham Phoenix Thomas Road|Phoenix, AZ|  83|33.47952|-112.11191|TRUE|FALSE|FALSE|TRUE
5757284|Hyatt Regency Phoenix|Phoenix, AZ| 292|33.44985|-112.07184|FALSE|TRUE|TRUE|TRUE
5757284|Hotel San Carlos - Downtown Convention Center|Phoenix, AZ| 175|33.45056|-112.07407|FALSE|TRUE|TRUE|TRUE
5757284|Kimpton Hotel Palomar Phoenix Cityscape, an IHG Hotel|Phoenix, AZ| 270|33.44739|-112.07327|FALSE|TRUE|TRUE|TRUE
5757284|Hyatt Place Phoenix / Downtown|Phoenix, AZ| 159|33.44969|-112.07618|FALSE|TRUE|TRUE|TRUE
5757284|Red Roof Inn PLUS+ Tempe - Phoenix Airport|Phoenix, AZ|  85|33.41152|-111.97151|TRUE|FALSE|FALSE|TRUE
5759154|Hotel Versey Days Inn by Wyndham Chicago|Evanston, IL|  89|41.93294| -87.64557|TRUE|FALSE|FALSE|TRUE
5759154|Hampton Inn Chicago North-Loyola Station|Evanston, IL| 135|42.00238| -87.66120|FALSE|TRUE|FALSE|TRUE
5759154|Estia Hotel and Suites|Evanston, IL| 101|42.04507| -87.68770|TRUE|TRUE|FALSE|TRUE
5759154|Hotel Zachary Chicago, a Tribute Portfolio Hotel|Evanston, IL| 211|41.94788| -87.65722|FALSE|FALSE|TRUE|TRUE
5759154|Residence Inn by Marriott Chicago Wilmette/Skokie|Evanston, IL| 161|42.06521| -87.75648|FALSE|TRUE|TRUE|TRUE
5759154|Courtyard by Marriott Chicago Deerfield|Evanston, IL| 114|42.15337| -87.84732|TRUE|FALSE|FALSE|TRUE
5759154|Heart O' Chicago|Evanston, IL| 115|41.99032| -87.67211|TRUE|FALSE|FALSE|TRUE
5759154|Comfort Inn Convention Center - Chicago O'hare Airport|Evanston, IL| 119|42.00985| -87.87121|TRUE|FALSE|FALSE|TRUE
5759154|Hilton Garden Inn Chicago North Shore/Evanston|Evanston, IL| 126|42.05071| -87.68514|FALSE|TRUE|FALSE|TRUE
5759154|The Glen Club|Evanston, IL| 188|42.09020| -87.82771|FALSE|FALSE|TRUE|TRUE
5759154|Holiday Inn Chicago North-Evanston, an IHG Hotel|Evanston, IL| 100|42.04434| -87.68160|TRUE|TRUE|FALSE|TRUE
5759154|Extended Stay America Suites Chicago Skokie|Evanston, IL| 169|42.04507| -87.68770|FALSE|TRUE|TRUE|TRUE
5759154|Renaissance Chicago O'Hare Suites Hotel|Evanston, IL| 177|41.98347| -87.84082|FALSE|FALSE|TRUE|TRUE
5759154|The Chicago Hotel Collection - Wrigleyville|Evanston, IL| 212|41.94553| -87.65487|FALSE|FALSE|TRUE|TRUE
5759154|Graduate Evanston|Evanston, IL| 146|42.04651| -87.67714|FALSE|TRUE|FALSE|TRUE
5759154|The Guesthouse Hotel|Evanston, IL| 257|41.97095| -87.66789|FALSE|FALSE|TRUE|TRUE
5759154|Baymont by Wyndham Glenview|Evanston, IL|  84|42.08600| -87.86750|TRUE|FALSE|FALSE|TRUE
5759154|Hilton Orrington / Evanston|Evanston, IL| 117|42.04890| -87.68084|TRUE|TRUE|FALSE|TRUE
5759154|SpringHill Suites Chicago O'Hare by Marriott|Evanston, IL| 119|41.98513| -87.83005|TRUE|FALSE|FALSE|TRUE
5759154|Hyatt House Chicago/Evanston|Evanston, IL| 174|42.04561| -87.67961|FALSE|TRUE|TRUE|TRUE
5759154|Marriott Chicago O'Hare|Evanston, IL| 187|41.98551| -87.84119|FALSE|FALSE|TRUE|TRUE
5759154|DoubleTree by Hilton Chicago - North Shore Conference Center|Evanston, IL| 140|42.05438| -87.74568|FALSE|TRUE|FALSE|TRUE
5759154|Red Roof Inn Morton Grove|Evanston, IL|  80|42.05280| -87.79996|TRUE|FALSE|FALSE|TRUE
5759154|The Hotel at Midtown|Evanston, IL| 339|41.92558| -87.67940|FALSE|FALSE|TRUE|TRUE
5759154|The Willows Hotel|Evanston, IL| 104|41.93395| -87.64358|TRUE|FALSE|FALSE|TRUE
5759158|Marriott Chicago O'Hare|Evanston, IL| 187|41.98551| -87.84119|FALSE|FALSE|TRUE|TRUE
5759158|Hotel Zachary Chicago, a Tribute Portfolio Hotel|Evanston, IL| 211|41.94788| -87.65722|FALSE|FALSE|TRUE|TRUE
5759158|Heart O' Chicago|Evanston, IL| 115|41.99032| -87.67211|TRUE|FALSE|FALSE|TRUE
5759158|Graduate Evanston|Evanston, IL| 146|42.04651| -87.67714|FALSE|TRUE|FALSE|TRUE
5759158|Hampton Inn Chicago North-Loyola Station|Evanston, IL| 135|42.00238| -87.66120|FALSE|TRUE|FALSE|TRUE
5759158|The Guesthouse Hotel|Evanston, IL| 257|41.97095| -87.66789|FALSE|FALSE|TRUE|TRUE
5759158|The Willows Hotel|Evanston, IL| 104|41.93395| -87.64358|TRUE|FALSE|FALSE|TRUE
5759158|Estia Hotel and Suites|Evanston, IL| 101|42.04507| -87.68770|TRUE|TRUE|FALSE|TRUE
5759158|Courtyard by Marriott Chicago Deerfield|Evanston, IL| 114|42.15337| -87.84732|TRUE|FALSE|FALSE|TRUE
5759158|Renaissance Chicago O'Hare Suites Hotel|Evanston, IL| 177|41.98347| -87.84082|FALSE|FALSE|TRUE|TRUE
5759158|Baymont by Wyndham Glenview|Evanston, IL|  84|42.08600| -87.86750|TRUE|FALSE|FALSE|TRUE
5759158|Extended Stay America Suites Chicago Skokie|Evanston, IL| 169|42.04507| -87.68770|FALSE|TRUE|TRUE|TRUE
5759158|Comfort Inn Convention Center - Chicago O'hare Airport|Evanston, IL| 119|42.00985| -87.87121|TRUE|FALSE|FALSE|TRUE
5759158|Hotel Versey Days Inn by Wyndham Chicago|Evanston, IL|  89|41.93294| -87.64557|TRUE|FALSE|FALSE|TRUE
5759158|Hilton Garden Inn Chicago North Shore/Evanston|Evanston, IL| 126|42.05071| -87.68514|FALSE|TRUE|FALSE|TRUE
5759158|Hyatt House Chicago/Evanston|Evanston, IL| 174|42.04561| -87.67961|FALSE|TRUE|TRUE|TRUE
5759158|Red Roof Inn Morton Grove|Evanston, IL|  80|42.05280| -87.79996|TRUE|FALSE|FALSE|TRUE
5759158|Residence Inn by Marriott Chicago Wilmette/Skokie|Evanston, IL| 161|42.06521| -87.75648|FALSE|TRUE|TRUE|TRUE
5759158|Hilton Orrington / Evanston|Evanston, IL| 117|42.04890| -87.68084|TRUE|TRUE|FALSE|TRUE
5759158|The Chicago Hotel Collection - Wrigleyville|Evanston, IL| 212|41.94553| -87.65487|FALSE|FALSE|TRUE|TRUE
5759158|The Hotel at Midtown|Evanston, IL| 339|41.92558| -87.67940|FALSE|FALSE|TRUE|TRUE
5759158|The Glen Club|Evanston, IL| 188|42.09020| -87.82771|FALSE|FALSE|TRUE|TRUE
5759158|Holiday Inn Chicago North-Evanston, an IHG Hotel|Evanston, IL| 100|42.04434| -87.68160|TRUE|TRUE|FALSE|TRUE
5759158|DoubleTree by Hilton Chicago - North Shore Conference Center|Evanston, IL| 140|42.05438| -87.74568|FALSE|TRUE|FALSE|TRUE
5759158|SpringHill Suites Chicago O'Hare by Marriott|Evanston, IL| 119|41.98513| -87.83005|TRUE|FALSE|FALSE|TRUE
5759160|Hilton Garden Inn Chicago North Shore/Evanston|Evanston, IL| 126|42.05071| -87.68514|FALSE|TRUE|FALSE|TRUE
5759160|Heart O' Chicago|Evanston, IL| 115|41.99032| -87.67211|TRUE|FALSE|FALSE|TRUE
5759160|DoubleTree by Hilton Chicago - North Shore Conference Center|Evanston, IL| 140|42.05438| -87.74568|FALSE|TRUE|FALSE|TRUE
5759160|Hyatt House Chicago/Evanston|Evanston, IL| 174|42.04561| -87.67961|FALSE|TRUE|TRUE|TRUE
5759160|Estia Hotel and Suites|Evanston, IL| 101|42.04507| -87.68770|TRUE|TRUE|FALSE|TRUE
5759160|Renaissance Chicago O'Hare Suites Hotel|Evanston, IL| 177|41.98347| -87.84082|FALSE|FALSE|TRUE|TRUE
5759160|Hotel Zachary Chicago, a Tribute Portfolio Hotel|Evanston, IL| 211|41.94788| -87.65722|FALSE|FALSE|TRUE|TRUE
5759160|The Chicago Hotel Collection - Wrigleyville|Evanston, IL| 212|41.94553| -87.65487|FALSE|FALSE|TRUE|TRUE
5759160|Courtyard by Marriott Chicago Deerfield|Evanston, IL| 114|42.15337| -87.84732|TRUE|FALSE|FALSE|TRUE
5759160|Baymont by Wyndham Glenview|Evanston, IL|  84|42.08600| -87.86750|TRUE|FALSE|FALSE|TRUE
5759160|Hampton Inn Chicago North-Loyola Station|Evanston, IL| 135|42.00238| -87.66120|FALSE|TRUE|FALSE|TRUE
5759160|SpringHill Suites Chicago O'Hare by Marriott|Evanston, IL| 119|41.98513| -87.83005|TRUE|FALSE|FALSE|TRUE
5759160|Holiday Inn Chicago North-Evanston, an IHG Hotel|Evanston, IL| 100|42.04434| -87.68160|TRUE|TRUE|FALSE|TRUE
5759160|The Glen Club|Evanston, IL| 188|42.09020| -87.82771|FALSE|FALSE|TRUE|TRUE
5759160|The Guesthouse Hotel|Evanston, IL| 257|41.97095| -87.66789|FALSE|FALSE|TRUE|TRUE
5759160|Comfort Inn Convention Center - Chicago O'hare Airport|Evanston, IL| 119|42.00985| -87.87121|TRUE|FALSE|FALSE|TRUE
5759160|Hotel Versey Days Inn by Wyndham Chicago|Evanston, IL|  89|41.93294| -87.64557|TRUE|FALSE|FALSE|TRUE
5759160|Red Roof Inn Morton Grove|Evanston, IL|  80|42.05280| -87.79996|TRUE|FALSE|FALSE|TRUE
5759160|The Willows Hotel|Evanston, IL| 104|41.93395| -87.64358|TRUE|FALSE|FALSE|TRUE
5759160|Marriott Chicago O'Hare|Evanston, IL| 187|41.98551| -87.84119|FALSE|FALSE|TRUE|TRUE
5759160|Extended Stay America Suites Chicago Skokie|Evanston, IL| 169|42.04507| -87.68770|FALSE|TRUE|TRUE|TRUE
5759160|Hilton Orrington / Evanston|Evanston, IL| 117|42.04890| -87.68084|TRUE|TRUE|FALSE|TRUE
5759160|The Hotel at Midtown|Evanston, IL| 339|41.92558| -87.67940|FALSE|FALSE|TRUE|TRUE
5759160|Graduate Evanston|Evanston, IL| 146|42.04651| -87.67714|FALSE|TRUE|FALSE|TRUE
5759160|Residence Inn by Marriott Chicago Wilmette/Skokie|Evanston, IL| 161|42.06521| -87.75648|FALSE|TRUE|TRUE|TRUE
5760668|Sleep Inn|College Station, TX|  76|30.62798| -96.33441|TRUE|TRUE|FALSE|TRUE
5760668|Embassy Suites by Hilton College Station, TX|College Station, TX| 156|30.62970| -96.33421|FALSE|TRUE|TRUE|TRUE
5760668|Studio 6 Bryan, TX - University Area|College Station, TX|  58|30.65542| -96.36585|TRUE|FALSE|FALSE|TRUE
5760668|The Stella Hotel, Autograph Collection|College Station, TX| 184|30.60129| -96.38222|FALSE|FALSE|TRUE|TRUE
5760668|Ramada by Wyndham College Station|College Station, TX|  78|30.64313| -96.31399|TRUE|FALSE|FALSE|TRUE
