id|name|city|price|lat|long|p|t|l|fresh
5612248|The DWIGHT D Hotel |Philadelphia, PA| 347|39.94796| -75.16814|FALSE|TRUE|TRUE|TRUE
5612248|Days Inn by Wyndham Springfield/Phil.Intl Airport|Philadelphia, PA|  95|39.91948| -75.32802|TRUE|FALSE|FALSE|TRUE
5612248|Club Quarters Hotel Rittenhouse Square, Philadelphia|Philadelphia, PA| 158|39.95122| -75.16840|FALSE|TRUE|FALSE|TRUE
5612248|Extended Stay America Suites Philadelphia Cherry Hill|Philadelphia, PA| 109|39.88385| -75.24823|TRUE|FALSE|FALSE|TRUE
5612248|Courtyard Philadelphia South at The Navy Yard|Philadelphia, PA| 265|39.89545| -75.17173|FALSE|TRUE|TRUE|TRUE
5612248|Hilton Philadelphia at Penn's Landing|Philadelphia, PA| 197|39.94536| -75.14137|FALSE|TRUE|FALSE|TRUE
5612248|Guild House Hotel|Philadelphia, PA| 424|39.94819| -75.16268|FALSE|TRUE|TRUE|TRUE
5612248|Sofitel Philadelphia at Rittenhouse Square|Philadelphia, PA| 229|39.95085| -75.16911|FALSE|TRUE|TRUE|TRUE
5612248|Days Inn by Wyndham Philadelphia - Roosevelt Boulevard|Philadelphia, PA| 109|40.02974| -75.10607|TRUE|FALSE|FALSE|TRUE
5612248|Days Inn by Wyndham Runnemede Philadelphia Area|Philadelphia, PA|  83|39.85779| -75.07254|TRUE|FALSE|FALSE|TRUE
5612248|Radisson Hotel Philadelphia, PA|Philadelphia, PA| 124|39.94917| -75.16954|FALSE|TRUE|FALSE|TRUE
5612248|Red Carpet Inn Philadelphia Airport|Philadelphia, PA|  76|39.87242| -75.28119|TRUE|FALSE|FALSE|TRUE
5612248|Warwick Hotel Rittenhouse Square|Philadelphia, PA| 170|39.94917| -75.16954|FALSE|TRUE|FALSE|TRUE
5612248|Best Western Plus Philadelphia Convention Center Hotel|Philadelphia, PA| 111|39.95801| -75.15947|TRUE|FALSE|FALSE|TRUE
5612248|Travelodge by Wyndham Bellmawr|Philadelphia, PA|  86|39.86208| -75.07705|TRUE|FALSE|FALSE|TRUE
5612248|Fitler Club|Philadelphia, PA| 508|39.95349| -75.17914|FALSE|FALSE|TRUE|TRUE
5612248|BnB Philadelphia - Boutique Hotel|Philadelphia, PA| 621|39.97993| -75.12262|FALSE|FALSE|TRUE|TRUE
5612248|Wyndham Garden Philadelphia Airport|Philadelphia, PA| 101|39.86764| -75.30377|TRUE|FALSE|FALSE|TRUE
5612248|Parkway Inn|Philadelphia, PA|  95|39.91875| -75.32845|TRUE|FALSE|FALSE|TRUE
5612248|The Ritz-Carlton, Philadelphia|Philadelphia, PA| 429|39.95128| -75.16427|FALSE|FALSE|TRUE|TRUE
5612248|The Rittenhouse Philadelphia|Philadelphia, PA| 744|39.94966| -75.16482|FALSE|TRUE|TRUE|TRUE
5612248|Red Roof Inn PLUS+ Philadelphia Airport|Philadelphia, PA|  92|39.86820| -75.30609|TRUE|FALSE|FALSE|TRUE
5612248|Lokal Hotel - Old City|Philadelphia, PA| 372|39.95328| -75.14486|FALSE|FALSE|TRUE|TRUE
5612248|DoubleTree by Hilton Philadelphia Center City|Philadelphia, PA| 197|39.94792| -75.16413|FALSE|TRUE|FALSE|TRUE
5612248|Four Seasons Hotel Philadelphia at Comcast Center|Philadelphia, PA| 977|39.95509| -75.17090|FALSE|FALSE|TRUE|TRUE
5613213|Virgin Hotels New Orleans|New Orleans, LA| 198|29.94894| -90.07313|FALSE|TRUE|FALSE|TRUE
5613213|Courtyard by Marriott New Orleans Westbank/Gretna|New Orleans, LA| 452|29.92568| -90.04143|FALSE|FALSE|TRUE|TRUE
5613213|Days Inn by Wyndham New Orleans Pontchartrain|New Orleans, LA|  76|30.00213| -90.03978|TRUE|FALSE|FALSE|TRUE
5613213|Suburban Studios|New Orleans, LA| 100|29.90910| -90.20646|TRUE|FALSE|FALSE|TRUE
5613213|Four Seasons Hotel New Orleans|New Orleans, LA| 446|29.94888| -90.06389|FALSE|FALSE|TRUE|TRUE
5613213|Drury Plaza Hotel New Orleans|New Orleans, LA| 147|29.94980| -90.07240|FALSE|TRUE|FALSE|TRUE
5613213|MOXY by Marriott New Orleans Downtown French Quarter|New Orleans, LA| 102|29.95233| -90.06955|TRUE|TRUE|FALSE|TRUE
5613213|Hyatt Regency New Orleans|New Orleans, LA| 249|29.94955| -90.07727|FALSE|TRUE|TRUE|TRUE
5613213|One11 Hotel|New Orleans, LA| 356|29.95196| -90.06481|FALSE|FALSE|TRUE|TRUE
5613213|The Jung Hotel and Residences|New Orleans, LA| 115|29.95720| -90.07581|FALSE|TRUE|FALSE|TRUE
5613213|Comfort Inn Marrero - New Orleans West|New Orleans, LA|  91|29.89219| -90.12282|TRUE|FALSE|FALSE|TRUE
5613213|Best Western New Orleans East|New Orleans, LA|  96|30.03823| -89.97211|TRUE|FALSE|FALSE|TRUE
5613213|The Natchez|New Orleans, LA| 492|29.94974| -90.06870|FALSE|FALSE|TRUE|TRUE
5613213|La Quinta Inn by Wyndham New Orleans Veterans / Metairie|New Orleans, LA|  81|30.00483| -90.20567|TRUE|FALSE|FALSE|TRUE
5613213|Maison de la Luz|New Orleans, LA| 418|29.94879| -90.07202|FALSE|TRUE|TRUE|TRUE
5613213|La Quinta Inn & Suites by Wyndham New Orleans Downtown|New Orleans, LA|  92|29.95089| -90.06941|TRUE|TRUE|FALSE|TRUE
5613213|The Frenchmen|New Orleans, LA|1569|30.00757| -90.06095|FALSE|FALSE|TRUE|TRUE
5613213|The Windsor Court|New Orleans, LA| 399|29.94984| -90.06644|FALSE|FALSE|TRUE|TRUE
5613213|The Roosevelt New Orleans, A Waldorf Astoria Hotel|New Orleans, LA| 263|29.95434| -90.07230|FALSE|TRUE|TRUE|TRUE
5613213|Quality Inn New Orleans I-10 East|New Orleans, LA|  64|30.03715| -89.97409|TRUE|FALSE|FALSE|TRUE
5613213|Lucky Inn|New Orleans, LA| 102|29.96603| -90.08545|TRUE|FALSE|FALSE|TRUE
5613213|Olde Town Inn|New Orleans, LA|  80|29.96776| -90.05529|TRUE|FALSE|FALSE|TRUE
5613213|The Ritz-Carlton, New Orleans|New Orleans, LA| 315|29.95496| -90.07097|FALSE|TRUE|TRUE|TRUE
5613213|Selina Catahoula New Orleans|New Orleans, LA| 111|29.95185| -90.07321|FALSE|TRUE|FALSE|TRUE
5613225|Grand Palms Spa & Golf Resort|Miami Gardens, FL|  95|26.00016| -80.35079|TRUE|FALSE|FALSE|TRUE
5613225|Seminole Hard Rock Hotel and Casino|Miami Gardens, FL| 486|26.05082| -80.21155|FALSE|FALSE|TRUE|TRUE
5613225|Hollywood Beach Hotels|Miami Gardens, FL|  92|25.94204| -80.24560|TRUE|TRUE|FALSE|TRUE
5613225|Hollywood Beach Suites, a South Beach Group Hotel|Miami Gardens, FL|  90|25.77903| -80.13172|TRUE|FALSE|FALSE|TRUE
5613225|Stadium Hotel|Miami Gardens, FL| 134|25.95790| -80.23885|FALSE|TRUE|FALSE|TRUE
5613225|The Ritz-Carlton Bal Harbour, Miami|Miami Gardens, FL| 943|25.89900| -80.12330|FALSE|FALSE|TRUE|TRUE
5613225|Trump International Beach Resort|Miami Gardens, FL| 470|25.94320| -80.12061|FALSE|FALSE|TRUE|TRUE
5613225|Grand Beach Hotel Surfside|Miami Gardens, FL| 502|25.88445| -80.12222|FALSE|FALSE|TRUE|TRUE
5613225|Miami Gardens Inn & Suites|Miami Gardens, FL| 121|25.94204| -80.24560|FALSE|TRUE|FALSE|TRUE
5613225|Margaritaville Hollywood Beach Resort|Miami Gardens, FL| 454|26.01878| -80.11674|FALSE|FALSE|TRUE|TRUE
5613225|The Clevelander|Miami Gardens, FL| 102|25.78078| -80.13098|TRUE|FALSE|FALSE|TRUE
5613225|May-Dee Suites|Miami Gardens, FL| 112|26.01073| -80.19495|FALSE|TRUE|FALSE|TRUE
5613225|WoodSpring Suites Miramar|Miami Gardens, FL| 124|25.97539| -80.29685|FALSE|TRUE|FALSE|TRUE
5613225|The Oasis Tower at Seminole Hard Rock|Miami Gardens, FL| 573|26.05187| -80.21052|FALSE|FALSE|TRUE|TRUE
5613225|The St. Regis Bal Harbour Resort|Miami Gardens, FL|1132|25.88909| -80.12241|FALSE|FALSE|TRUE|TRUE
5613225|Red Carpet Inn Airport/Cruiseport|Miami Gardens, FL|  73|26.08635| -80.17466|TRUE|FALSE|FALSE|TRUE
5613225|Greniers|Miami Gardens, FL|  95|26.02505| -80.11578|TRUE|FALSE|FALSE|TRUE
5613225|Miami Lakes Hotel|Miami Gardens, FL| 123|25.91206| -80.31126|FALSE|TRUE|FALSE|TRUE
5613225|Curtis Inn & Suites|Miami Gardens, FL| 102|25.99833| -80.14250|TRUE|FALSE|FALSE|TRUE
5613225|Holiday Inn Miami West - Airport Area, an IHG Hotel|Miami Gardens, FL| 105|25.86764| -80.32409|TRUE|FALSE|FALSE|TRUE
5613225|Private Ocean Condos at Marenas Beach|Miami Gardens, FL| 590|25.94916| -80.11988|FALSE|FALSE|TRUE|TRUE
5613225|Hollywood Beachside Boutique Suites|Miami Gardens, FL| 111|26.01577| -80.11704|TRUE|FALSE|FALSE|TRUE
5613225|Sonesta Select Miami Lakes|Miami Gardens, FL| 146|25.91614| -80.32612|FALSE|TRUE|FALSE|TRUE
5613225|SpringHill Suites by Marriott Fort Lauderdale Miramar|Miami Gardens, FL| 180|25.97424| -80.29263|FALSE|TRUE|FALSE|TRUE
5613225|Casa Pellegrino|Miami Gardens, FL|  94|26.02446| -80.11617|TRUE|FALSE|FALSE|TRUE
5613225|Best Western Plus Hollywood/Aventura|Miami Gardens, FL| 144|25.98591| -80.16482|FALSE|TRUE|FALSE|TRUE
5613225|Thunderbird Hotel|Miami Gardens, FL| 111|25.94204| -80.24560|TRUE|TRUE|FALSE|TRUE
5613225|Four Seasons Hotel at The Surf Club|Miami Gardens, FL|1177|25.87772| -80.12142|FALSE|FALSE|TRUE|TRUE
5613225|Acqualina Resort & Residences On The Beach|Miami Gardens, FL|1130|25.94082| -80.12092|FALSE|FALSE|TRUE|TRUE
5617953|Palms Casino Resort|Las Vegas, NV|  99|36.11444|-115.19482|FALSE|TRUE|FALSE|TRUE
5617953|Las Vegas Hilton at Resorts World|Las Vegas, NV| 162|36.13516|-115.16667|FALSE|FALSE|TRUE|TRUE
5617953|Virgin Hotels Las Vegas, Curio Collection by Hilton|Las Vegas, NV| 115|36.10877|-115.15373|FALSE|FALSE|TRUE|TRUE
5617953|The Palazzo at The Venetian|Las Vegas, NV| 213|36.12400|-115.16796|FALSE|FALSE|TRUE|TRUE
5617953|The Signature at MGM Grand (All Suites)|Las Vegas, NV| 139|36.10607|-115.16678|FALSE|TRUE|TRUE|TRUE
5617953|Oasis at Gold Spike - Adults Only|Las Vegas, NV|  60|36.17095|-115.13982|TRUE|FALSE|FALSE|TRUE
5617953|Nobu Hotel at Caesars Palace|Las Vegas, NV| 678|36.11671|-115.17519|FALSE|TRUE|TRUE|TRUE
5617953|Tropicana Las Vegas - a DoubleTree by Hilton Hotel|Las Vegas, NV|  86|36.09963|-115.17136|FALSE|TRUE|FALSE|TRUE
5617953|Conrad Las Vegas at Resorts World|Las Vegas, NV| 184|36.13448|-115.16566|FALSE|FALSE|TRUE|TRUE
5617953|Westgate Las Vegas Resort & Casino|Las Vegas, NV| 113|36.13529|-115.15246|FALSE|FALSE|TRUE|TRUE
5617953|Golden Gate Hotel and Casino|Las Vegas, NV|  61|36.17124|-115.14621|TRUE|FALSE|FALSE|TRUE
5617953|Thunderbird Hotel|Las Vegas, NV|  59|36.15581|-115.14903|TRUE|FALSE|FALSE|TRUE
5617953|Super 8 by Wyndham Las Vegas North Strip/Fremont St. Area|Las Vegas, NV|  49|36.15606|-115.14829|TRUE|FALSE|FALSE|TRUE
5617953|Bellagio|Las Vegas, NV| 232|36.11311|-115.17701|FALSE|TRUE|TRUE|TRUE
5617953|OYO Hotel and Casino Las Vegas|Las Vegas, NV|  77|36.10039|-115.16772|FALSE|TRUE|FALSE|TRUE
5617953|NoMad Las Vegas|Las Vegas, NV| 188|36.10474|-115.17651|FALSE|TRUE|TRUE|TRUE
5617953|Howard Johnson by Wyndham Las Vegas near the Strip|Las Vegas, NV|  57|36.09948|-115.16580|TRUE|TRUE|FALSE|TRUE
5617953|ARIA Sky Suites|Las Vegas, NV| 821|36.10765|-115.17577|FALSE|TRUE|TRUE|TRUE
5617953|Hotel Apache|Las Vegas, NV|  51|36.17113|-115.14408|TRUE|FALSE|FALSE|TRUE
5617953|El Cortez Hotel and Casino - 21 and Over|Las Vegas, NV|  59|36.16943|-115.13873|TRUE|FALSE|FALSE|TRUE
5617953|Four Queens Hotel and Casino|Las Vegas, NV|  57|36.16987|-115.14371|TRUE|FALSE|FALSE|TRUE
5617953|Mardi Gras Hotel & Casino|Las Vegas, NV|  61|36.12549|-115.15446|TRUE|FALSE|FALSE|TRUE
5617953|Longhorn Casino & Hotel|Las Vegas, NV|  63|36.10704|-115.05916|TRUE|FALSE|FALSE|TRUE
5617953|Hampton Inn Tropicana|Las Vegas, NV| 109|36.09967|-115.18338|FALSE|TRUE|FALSE|TRUE
5622440|Quality Inn South|Indianapolis, IN|  70|39.69870| -86.18827|TRUE|FALSE|FALSE|TRUE
5622440|Rodeway Inn|Indianapolis, IN|  73|39.82140| -86.04500|TRUE|FALSE|FALSE|TRUE
5622440|Bottleworks Hotel|Indianapolis, IN| 262|39.77909| -86.14340|FALSE|FALSE|TRUE|TRUE
5622440|The Alexander, a Dolce by Wyndham|Indianapolis, IN| 228|39.76179| -86.15447|FALSE|FALSE|TRUE|TRUE
5622440|Omni Severin Hotel|Indianapolis, IN| 158|39.76381| -86.15980|FALSE|TRUE|FALSE|TRUE
5622440|JW Marriott Indianapolis|Indianapolis, IN| 221|39.76659| -86.16769|FALSE|TRUE|TRUE|TRUE
5622440|Hyatt Regency Indianapolis|Indianapolis, IN| 188|39.76636| -86.16082|FALSE|TRUE|TRUE|TRUE
5622440|Quality Inn & Suites|Indianapolis, IN|  65|39.84322| -86.25248|TRUE|FALSE|FALSE|TRUE
5622440|Tru By Hilton Indianapolis Downtown, IN|Indianapolis, IN| 131|39.75889| -86.15967|FALSE|TRUE|FALSE|TRUE
5622440|Comfort Inn Indianapolis South I-65|Indianapolis, IN|  72|39.71476| -86.12201|TRUE|FALSE|FALSE|TRUE
5622440|Studio 6 Indianapolis, IN|Indianapolis, IN|  69|39.82268| -86.27231|TRUE|FALSE|FALSE|TRUE
5622440|Hyatt Place Indianapolis Downtown|Indianapolis, IN| 188|39.76461| -86.15676|FALSE|TRUE|TRUE|TRUE
5622440|Le Méridien Indianapolis|Indianapolis, IN| 245|39.76514| -86.15965|FALSE|TRUE|TRUE|TRUE
5622440|Royal Inn|Indianapolis, IN|  63|39.76840| -86.15807|TRUE|FALSE|FALSE|TRUE
5622440|Conrad Indianapolis|Indianapolis, IN| 248|39.76743| -86.15920|FALSE|FALSE|TRUE|TRUE
5622440|Homewood Suites by Hilton Indianapolis-Downtown|Indianapolis, IN| 172|39.76381| -86.15772|FALSE|TRUE|FALSE|TRUE
5622440|Baymont by Wyndham Indianapolis West|Indianapolis, IN|  75|39.82521| -86.27816|TRUE|FALSE|FALSE|TRUE
5622440|The Westin Indianapolis|Indianapolis, IN| 188|39.76647| -86.16359|FALSE|TRUE|TRUE|TRUE
5622440|Holiday Inn Indianapolis Downtown, an IHG Hotel|Indianapolis, IN| 121|39.76010| -86.16702|FALSE|TRUE|FALSE|TRUE
5622440|Days Inn by Wyndham Indianapolis East Post Road|Indianapolis, IN|  73|39.79823| -86.01011|TRUE|FALSE|FALSE|TRUE
5622440|Sleep Inn|Indianapolis, IN|  75|39.76840| -86.15807|TRUE|FALSE|FALSE|TRUE
5622440|Super 8 by Wyndham Indianapolis/Emerson Ave|Indianapolis, IN|  74|39.70099| -86.08389|TRUE|FALSE|FALSE|TRUE
5622440|Marriott Indianapolis Downtown|Indianapolis, IN| 188|39.76663| -86.16481|FALSE|TRUE|TRUE|TRUE
5622440|Hotel Indy, Indianapolis, a Tribute Portfolio Hotel|Indianapolis, IN| 198|39.76633| -86.15474|FALSE|FALSE|TRUE|TRUE
5622642|Thompson Buckhead|Atlanta, GA| 359|33.83833| -84.37435|FALSE|FALSE|TRUE|TRUE
5622642|Rodeway Inn At Six Flags|Atlanta, GA|  89|33.77213| -84.55608|TRUE|FALSE|FALSE|TRUE
5622642|Econo Lodge Conley|Atlanta, GA|  73|33.66714| -84.33847|TRUE|FALSE|FALSE|TRUE
5622642|Econo Lodge|Atlanta, GA|  82|33.65881| -84.43356|TRUE|FALSE|FALSE|TRUE
5622642|Renaissance Atlanta Airport Gateway Hotel|Atlanta, GA| 371|33.64303| -84.45625|FALSE|FALSE|TRUE|TRUE
5622642|Omni Atlanta Hotel at CNN Center|Atlanta, GA| 203|33.75915| -84.39494|FALSE|TRUE|TRUE|TRUE
5622642|SpringHill Suites by Marriott Atlanta Downtown|Atlanta, GA| 141|33.76497| -84.39502|FALSE|TRUE|FALSE|TRUE
5622642|Rodeway Inn|Atlanta, GA|  70|33.74900| -84.38798|TRUE|FALSE|FALSE|TRUE
5622642|Hilton Atlanta|Atlanta, GA| 152|33.76151| -84.38330|FALSE|FALSE|TRUE|TRUE
5622642|The Westin Peachtree Plaza, Atlanta|Atlanta, GA| 179|33.75941| -84.38836|FALSE|TRUE|TRUE|TRUE
5622642|Microtel Inn by Wyndham Atlanta Airport|Atlanta, GA|  84|33.62339| -84.45537|TRUE|FALSE|FALSE|TRUE
5622642|Holiday Inn Express and Suites Atlanta Downtown, an IHG Hotel|Atlanta, GA| 125|33.75789| -84.38989|FALSE|TRUE|FALSE|TRUE
5622642|Days Inn by Wyndham Hartsfield Jackson Atlanta Airport West|Atlanta, GA|  71|33.63341| -84.49180|TRUE|FALSE|FALSE|TRUE
5622642|Quality Inn Atlanta Airport - Central|Atlanta, GA|  79|33.62451| -84.45417|TRUE|FALSE|FALSE|TRUE
5622642|Hyatt Place Atlanta Centennial Park|Atlanta, GA| 173|33.76254| -84.39597|FALSE|TRUE|TRUE|TRUE
5622642|Home2 Suites by Hilton Atlanta Downtown|Atlanta, GA| 163|33.75698| -84.39114|FALSE|TRUE|TRUE|TRUE
5622642|Reverb by Hard Rock Atlanta Downtown|Atlanta, GA| 179|33.75348| -84.39925|FALSE|TRUE|TRUE|TRUE
5622642|OYO Hotel Decatur I-285 The Perimeter|Atlanta, GA|  83|33.73786| -84.23582|TRUE|FALSE|FALSE|TRUE
5622642|Clarion Inn & Suites Atlanta Downtown|Atlanta, GA| 125|33.74900| -84.40337|FALSE|TRUE|FALSE|TRUE
5622642|Nobu Hotel Atlanta|Atlanta, GA| 467|33.85439| -84.36349|FALSE|FALSE|TRUE|TRUE
5622642|Howard Johnson by Wyndham Atlanta Airport/College Park|Atlanta, GA|  74|33.61529| -84.43967|TRUE|FALSE|FALSE|TRUE
5622642|The American Hotel Atlanta Downtown - a DoubleTree by Hilton|Atlanta, GA| 193|33.75931| -84.38992|FALSE|TRUE|TRUE|TRUE
5622642|Econo Lodge At Six Flags|Atlanta, GA|  87|33.77361| -84.55028|TRUE|FALSE|FALSE|TRUE
5622642|Fairfield Inn & Suites Atlanta Downtown|Atlanta, GA| 121|33.75287| -84.39119|FALSE|TRUE|FALSE|TRUE
5622921|Econo Lodge Conley|Atlanta, GA|  73|33.66714| -84.33847|TRUE|FALSE|FALSE|TRUE
5622921|Nobu Hotel Atlanta|Atlanta, GA| 467|33.85439| -84.36349|FALSE|FALSE|TRUE|TRUE
5622921|Omni Atlanta Hotel at CNN Center|Atlanta, GA| 203|33.75915| -84.39494|FALSE|TRUE|TRUE|TRUE
5622921|Hyatt Place Atlanta Centennial Park|Atlanta, GA| 173|33.76254| -84.39597|FALSE|TRUE|TRUE|TRUE
5622921|Clarion Inn & Suites Atlanta Downtown|Atlanta, GA| 125|33.74900| -84.40337|FALSE|TRUE|FALSE|TRUE
5622921|Rodeway Inn|Atlanta, GA|  70|33.74900| -84.38798|TRUE|FALSE|FALSE|TRUE
5622921|SpringHill Suites by Marriott Atlanta Downtown|Atlanta, GA| 141|33.76497| -84.39502|FALSE|TRUE|FALSE|TRUE
5622921|Fairfield Inn & Suites Atlanta Downtown|Atlanta, GA| 121|33.75287| -84.39119|FALSE|TRUE|FALSE|TRUE
5622921|Microtel Inn by Wyndham Atlanta Airport|Atlanta, GA|  84|33.62339| -84.45537|TRUE|FALSE|FALSE|TRUE
5622921|Holiday Inn Express and Suites Atlanta Downtown, an IHG Hotel|Atlanta, GA| 125|33.75789| -84.38989|FALSE|TRUE|FALSE|TRUE
5622921|Econo Lodge|Atlanta, GA|  82|33.65881| -84.43356|TRUE|FALSE|FALSE|TRUE
5622921|Rodeway Inn At Six Flags|Atlanta, GA|  89|33.77213| -84.55608|TRUE|FALSE|FALSE|TRUE
5622921|Quality Inn Atlanta Airport - Central|Atlanta, GA|  79|33.62451| -84.45417|TRUE|FALSE|FALSE|TRUE
5622921|Howard Johnson by Wyndham Atlanta Airport/College Park|Atlanta, GA|  74|33.61529| -84.43967|TRUE|FALSE|FALSE|TRUE
5622921|Thompson Buckhead|Atlanta, GA| 359|33.83833| -84.37435|FALSE|FALSE|TRUE|TRUE
5622921|Reverb by Hard Rock Atlanta Downtown|Atlanta, GA| 179|33.75348| -84.39925|FALSE|TRUE|TRUE|TRUE
5622921|Home2 Suites by Hilton Atlanta Downtown|Atlanta, GA| 163|33.75698| -84.39114|FALSE|TRUE|TRUE|TRUE
5622921|OYO Hotel Decatur I-285 The Perimeter|Atlanta, GA|  83|33.73786| -84.23582|TRUE|FALSE|FALSE|TRUE
5622921|Days Inn by Wyndham Hartsfield Jackson Atlanta Airport West|Atlanta, GA|  71|33.63341| -84.49180|TRUE|FALSE|FALSE|TRUE
5622921|The American Hotel Atlanta Downtown - a DoubleTree by Hilton|Atlanta, GA| 193|33.75931| -84.38992|FALSE|TRUE|TRUE|TRUE
5622921|The Westin Peachtree Plaza, Atlanta|Atlanta, GA| 179|33.75941| -84.38836|FALSE|TRUE|TRUE|TRUE
5622921|Hilton Atlanta|Atlanta, GA| 152|33.76151| -84.38330|FALSE|FALSE|TRUE|TRUE
5622921|Econo Lodge At Six Flags|Atlanta, GA|  87|33.77361| -84.55028|TRUE|FALSE|FALSE|TRUE
5622921|Renaissance Atlanta Airport Gateway Hotel|Atlanta, GA| 371|33.64303| -84.45625|FALSE|FALSE|TRUE|TRUE
5622925|Antonio Hotel|Pasadena, CA|  86|34.04595|-118.20875|TRUE|FALSE|FALSE|TRUE
5622925|Conrad Los Angeles|Pasadena, CA| 461|34.14980|-118.13269|FALSE|TRUE|TRUE|TRUE
5622925|Glendale Hotel|Pasadena, CA|  94|34.14259|-118.23099|TRUE|FALSE|FALSE|TRUE
5622925|Quality Inn Rosemead - Los Angeles|Pasadena, CA|  94|34.08094|-118.06275|TRUE|FALSE|FALSE|TRUE
5622925|Courtyard by Marriott Old Pasadena|Pasadena, CA| 145|34.14873|-118.15028|FALSE|TRUE|FALSE|TRUE
5622925|City Center Hotel|Pasadena, CA|  93|34.14778|-118.14452|TRUE|TRUE|FALSE|TRUE
5622925|Hyatt Place Pasadena|Pasadena, CA| 217|34.14493|-118.14189|FALSE|TRUE|TRUE|TRUE
5622925|Highland Park Motel|Pasadena, CA| 475|34.12216|-118.20927|FALSE|FALSE|TRUE|TRUE
5622925|JW Marriott Los Angeles L.A. LIVE|Pasadena, CA| 459|34.04524|-118.26647|FALSE|FALSE|TRUE|TRUE
5622925|Level Los Angeles Downtown - South Olive|Pasadena, CA| 411|34.04375|-118.25798|FALSE|FALSE|TRUE|TRUE
5622925|Hollywood Inn Express South|Pasadena, CA|  94|34.06797|-118.27007|TRUE|FALSE|FALSE|TRUE
5622925|Stuart Hotel - Near Good Samaritan Hospital|Pasadena, CA|  87|34.05326|-118.27140|TRUE|FALSE|FALSE|TRUE
5622925|Hilton Pasadena|Pasadena, CA| 213|34.14269|-118.14091|FALSE|TRUE|TRUE|TRUE
5622925|Langham Huntington, Pasadena, Los Angeles|Pasadena, CA| 383|34.12075|-118.13342|FALSE|FALSE|TRUE|TRUE
5622925|Residence Inn Los Angeles Pasadena/Old Town|Pasadena, CA| 208|34.15027|-118.15085|FALSE|TRUE|TRUE|TRUE
5622925|Pasadena Hotel & Pool|Pasadena, CA| 175|34.14778|-118.14452|FALSE|TRUE|FALSE|TRUE
5622925|Bokai Garden Hotel|Pasadena, CA|  84|34.07467|-118.07403|TRUE|FALSE|FALSE|TRUE
5622925|Garden Inn|Pasadena, CA|  81|34.09633|-118.07290|TRUE|FALSE|FALSE|TRUE
5622925|The Ritz-Carlton, Los Angeles|Pasadena, CA|1076|34.04526|-118.26662|FALSE|FALSE|TRUE|TRUE
5622925|The Westin Pasadena|Pasadena, CA| 202|34.14913|-118.14200|FALSE|TRUE|FALSE|TRUE
5622925|Hollywood Inn Express North|Pasadena, CA|  92|34.10207|-118.30169|TRUE|FALSE|FALSE|TRUE
5622925|Cara|Pasadena, CA| 464|34.10287|-118.30868|FALSE|FALSE|TRUE|TRUE
5622925|Pasadena Rose & Crown Hotel|Pasadena, CA| 132|34.14778|-118.14452|FALSE|TRUE|FALSE|TRUE
5622925|Welcome Inn on Colorado Blvd|Pasadena, CA|  91|34.13893|-118.20781|TRUE|FALSE|FALSE|TRUE
5622925|Sheraton Pasadena Hotel|Pasadena, CA| 165|34.14295|-118.14422|FALSE|TRUE|FALSE|TRUE
5648402|Hilton Arlington|Arlington, TX| 195|32.76248| -97.06729|FALSE|FALSE|TRUE|TRUE
5648402|Live by Loews, Arlington, TX|Arlington, TX| 321|32.74950| -97.08570|FALSE|TRUE|TRUE|TRUE
5648402|Courtyard by Marriott Dallas Arlington/Entertainment Dist|Arlington, TX| 165|32.75760| -97.08895|FALSE|TRUE|TRUE|TRUE
5648402|Baymont by Wyndham Arlington At Six Flags Dr|Arlington, TX|  56|32.75387| -97.06519|TRUE|FALSE|FALSE|TRUE
5648402|Super 8 by Wyndham Irving DFW Airport/South|Arlington, TX|  75|32.83844| -97.01175|TRUE|FALSE|FALSE|TRUE
5648402|Extended Stay America Suites Arlington Six Flags|Arlington, TX|  76|32.76082| -97.06756|TRUE|FALSE|FALSE|TRUE
5648402|Crowne Plaza Suites Arlington - Ballpark - Stadium, an IHG Hotel|Arlington, TX| 138|32.76056| -97.05647|FALSE|FALSE|TRUE|TRUE
5648402|Sheraton Arlington Hotel|Arlington, TX| 224|32.75686| -97.08185|FALSE|TRUE|TRUE|TRUE
5648402|Sleep Inn Arlington Near Six Flags|Arlington, TX|  66|32.75355| -97.06618|TRUE|FALSE|FALSE|TRUE
5648402|OYO Hotel Irving DFW Airport South|Arlington, TX|  69|32.83824| -96.98151|TRUE|FALSE|FALSE|TRUE
5648402|HomeTowne Studios by Red Roof Dallas - Irving|Arlington, TX|  72|32.86436| -96.99415|TRUE|FALSE|FALSE|TRUE
5648402|Howard Johnson by Wyndham Arlington Ballpark / Six Flags|Arlington, TX|  84|32.75889| -97.07810|FALSE|TRUE|FALSE|TRUE
5648402|Comfort Suites Arlington - Entertainment District|Arlington, TX| 117|32.75869| -97.11011|FALSE|TRUE|FALSE|TRUE
5648402|Holiday Inn Arlington NE-Rangers Ballpark, an IHG Hotel|Arlington, TX| 149|32.76136| -97.09205|FALSE|TRUE|TRUE|TRUE
5648402|Quality Inn at Arlington Highlands|Arlington, TX|  64|32.67999| -97.11338|TRUE|FALSE|FALSE|TRUE
5648402|Extended Stay America Suites Arlington|Arlington, TX|  67|32.73569| -97.10807|TRUE|TRUE|FALSE|TRUE
5648402|Embassy Suites by Hilton Dallas DFW Airport South|Arlington, TX| 168|32.83520| -97.02132|FALSE|FALSE|TRUE|TRUE
5648402|Arya Inn & Suites|Arlington, TX|  69|32.83452| -96.99184|TRUE|FALSE|FALSE|TRUE
5648402|Marriott DFW Airport South|Arlington, TX| 270|32.82344| -97.05717|FALSE|FALSE|TRUE|TRUE
5648402|SpringHill Suites Dallas Arlington North|Arlington, TX| 135|32.76329| -97.07872|FALSE|TRUE|FALSE|TRUE
5648402|Motel 6 Arlington, Tx – Entertainment District|Arlington, TX|  72|32.74876| -97.09796|TRUE|TRUE|FALSE|TRUE
5648402|The Sanford House Inn & Spa|Arlington, TX| 224|32.74326| -97.10726|FALSE|TRUE|TRUE|TRUE
5648402|SpringHill Suites by Marriott Dallas DFW Airport South/CentrePort|Arlington, TX| 188|32.82729| -97.05926|FALSE|FALSE|TRUE|TRUE
5655684|The Ritz-Carlton, Cleveland|Cleveland, OH| 535|41.49726| -81.69469|FALSE|TRUE|TRUE|TRUE
5655684|Red Roof Inn Cleveland - Independence|Cleveland, OH|  79|41.39458| -81.64999|TRUE|FALSE|FALSE|TRUE
5655684|Hilton Garden Inn Cleveland Downtown|Cleveland, OH| 143|41.49617| -81.68131|FALSE|TRUE|FALSE|TRUE
5655684|Economy Inn North Randall|Cleveland, OH|  76|41.42920| -81.52489|TRUE|FALSE|FALSE|TRUE
5655684|Comfort Inn|Cleveland, OH| 106|41.50092| -81.67835|TRUE|FALSE|FALSE|TRUE
5655684|Wyndham Cleveland Airport|Cleveland, OH| 111|41.43770| -81.80006|TRUE|FALSE|FALSE|TRUE
5655684|Extended Stay America Premier Suites - Cleveland - Independence|Cleveland, OH|  94|41.40293| -81.65252|TRUE|FALSE|FALSE|TRUE
5655684|Ramada by Wyndham Cleveland Independence|Cleveland, OH|  99|41.39493| -81.65457|TRUE|FALSE|FALSE|TRUE
5655684|Cleveland Marriott Downtown at Key Tower|Cleveland, OH| 179|41.50133| -81.69440|FALSE|FALSE|TRUE|TRUE
5655684|Residence Inn By Marriott Cleveland Downtown|Cleveland, OH| 183|41.49871| -81.68902|FALSE|TRUE|TRUE|TRUE
5655684|La Quinta Inn by Wyndham Cleveland Independence|Cleveland, OH| 100|41.39373| -81.64880|TRUE|FALSE|FALSE|TRUE
5655684|Crowne Plaza Cleveland at Playhouse Square, an IHG Hotel|Cleveland, OH| 151|41.50049| -81.68329|FALSE|TRUE|FALSE|TRUE
5655684|Hyatt Regency Cleveland At The Arcade|Cleveland, OH| 159|41.50076| -81.69075|FALSE|TRUE|FALSE|TRUE
5655684|Travelodge by Wyndham Cleveland Lakewood|Cleveland, OH|  77|41.49014| -81.77088|TRUE|FALSE|FALSE|TRUE
5655684|Days Inn by Wyndham Cleveland Lakewood|Cleveland, OH|  77|41.48959| -81.77313|TRUE|FALSE|FALSE|TRUE
5655684|Aloft Cleveland Downtown|Cleveland, OH| 161|41.50081| -81.70338|FALSE|FALSE|TRUE|TRUE
5655684|Drury Plaza Hotel Cleveland Downtown|Cleveland, OH| 180|41.50221| -81.69202|FALSE|FALSE|TRUE|TRUE
5655684|Travelodge by Wyndham Cleveland Airport|Cleveland, OH|  67|41.41807| -81.79263|TRUE|FALSE|FALSE|TRUE
5655684|Holiday Inn Express Cleveland Downtown, an IHG Hotel|Cleveland, OH| 159|41.50039| -81.68879|FALSE|TRUE|FALSE|TRUE
5655684|Hotel Indigo Cleveland Downtown, an IHG Hotel|Cleveland, OH| 168|41.49820| -81.68767|FALSE|TRUE|TRUE|TRUE
5655684|Metropolitan at The 9, Autograph Collection|Cleveland, OH| 269|41.49978| -81.68605|FALSE|TRUE|TRUE|TRUE
5655684|Hilton Cleveland Downtown|Cleveland, OH| 179|41.50279| -81.69562|FALSE|FALSE|TRUE|TRUE
5655684|Kimpton Schofield Hotel, an IHG Hotel|Cleveland, OH| 168|41.49961| -81.68674|FALSE|TRUE|TRUE|TRUE
5655684|Renaissance Cleveland Hotel|Cleveland, OH| 164|41.49856| -81.69471|FALSE|TRUE|TRUE|TRUE
5657024|La Quinta Inn & Suites by Wyndham Buffalo Amherst|Buffalo, NY|  91|43.00486| -78.81757|TRUE|TRUE|FALSE|TRUE
5657024|Amherst Inn & Suites|Buffalo, NY|  90|43.00761| -78.82098|TRUE|FALSE|FALSE|TRUE
5657024|Hampton Inn Buffalo-Williamsville|Buffalo, NY| 152|42.96110| -78.74988|FALSE|FALSE|TRUE|TRUE
5657024|Home2 Suites by Hilton Amherst Buffalo|Buffalo, NY| 132|43.00185| -78.82132|FALSE|TRUE|TRUE|TRUE
5657024|Radisson Hotel Niagara Falls-Grand Island|Buffalo, NY|  86|43.02136| -78.89637|TRUE|FALSE|FALSE|TRUE
5657024|Sleep Inn|Buffalo, NY|  81|43.00568| -78.81907|TRUE|TRUE|FALSE|TRUE
5657024|Comfort Inn University|Buffalo, NY|  82|42.99046| -78.79073|TRUE|TRUE|FALSE|TRUE
5657024|Staybridge Suites Buffalo-Amherst, an IHG Hotel|Buffalo, NY| 131|42.99700| -78.80148|FALSE|TRUE|TRUE|TRUE
5657024|Quality Inn Airport|Buffalo, NY|  88|42.93040| -78.72998|TRUE|FALSE|FALSE|TRUE
5657024|La Quinta Inn by Wyndham Buffalo Airport|Buffalo, NY|  69|42.94800| -78.69602|TRUE|FALSE|FALSE|TRUE
5657024|Suburban Studios Buffalo Airport|Buffalo, NY|  91|42.93034| -78.72999|TRUE|FALSE|FALSE|TRUE
5657024|Comfort Inn|Buffalo, NY|  88|42.88645| -78.87837|TRUE|FALSE|FALSE|TRUE
5657024|Courtyard by Marriott Buffalo Amherst/University|Buffalo, NY| 115|42.97970| -78.78195|FALSE|TRUE|TRUE|TRUE
5657024|Days Inn by Wyndham Tonawanda/Buffalo|Buffalo, NY|  91|42.98477| -78.82350|TRUE|FALSE|FALSE|TRUE
5657024|Hyatt Place Buffalo/Amherst|Buffalo, NY| 134|42.96078| -78.76965|FALSE|FALSE|TRUE|TRUE
5657024|DoubleTree by Hilton Hotel Buffalo - Amherst|Buffalo, NY| 139|42.98985| -78.79527|FALSE|TRUE|TRUE|TRUE
5657024|Fairfield Inn & Suites by Marriott Buffalo Amherst/University|Buffalo, NY| 110|42.99615| -78.80265|FALSE|TRUE|TRUE|TRUE
5657024|Reikart House, Buffalo, a Tribute Portfolio Hotel|Buffalo, NY| 431|42.95985| -78.77040|FALSE|FALSE|TRUE|TRUE
5657024|Buffalo Marriott Niagara|Buffalo, NY| 173|42.98858| -78.79294|FALSE|TRUE|TRUE|TRUE
5657024|CenterWay Hotel Tonawanda|Buffalo, NY|  80|42.99662| -78.86616|TRUE|FALSE|FALSE|TRUE
5657024|Fairbridge Inn Express Buffalo Airport Williamsville|Buffalo, NY|  56|42.96395| -78.73781|TRUE|FALSE|FALSE|TRUE
5657024|Hampton Inn Buffalo - Amherst, NY|Buffalo, NY| 110|42.99418| -78.78527|FALSE|TRUE|TRUE|TRUE
5679243|Hotel Shattuck Plaza|Berkeley, CA| 184|37.86918|-122.26849|FALSE|TRUE|FALSE|TRUE
5679243|Le Meridien San Francisco|Berkeley, CA| 430|37.79471|-122.40073|FALSE|FALSE|TRUE|TRUE
5679243|Signature Inn Oakland|Berkeley, CA|  96|37.82909|-122.25522|TRUE|FALSE|FALSE|TRUE
5679243|Union Square Plaza Hotel|Berkeley, CA|  87|37.78718|-122.41049|TRUE|FALSE|FALSE|TRUE
5679243|Hotel North Beach|Berkeley, CA|  76|37.87152|-122.27304|TRUE|TRUE|FALSE|TRUE
5679243|Residence Inn by Marriott Berkeley|Berkeley, CA| 189|37.87076|-122.26719|FALSE|TRUE|FALSE|TRUE
5679243|W San Francisco|Berkeley, CA| 430|37.78542|-122.40021|FALSE|FALSE|TRUE|TRUE
5679243|Canopy by Hilton San Francisco SoMa|Berkeley, CA| 408|37.78239|-122.40210|FALSE|FALSE|TRUE|TRUE
5679243|Civic Center Lodge|Berkeley, CA|  97|37.79535|-122.26516|TRUE|FALSE|FALSE|TRUE
5679243|Four Seasons Hotel San Francisco at Embarcadero|Berkeley, CA| 643|37.79246|-122.40079|FALSE|FALSE|TRUE|TRUE
5679243|Europa Hotel|Berkeley, CA|  66|37.79814|-122.40687|TRUE|FALSE|FALSE|TRUE
5679243|Rodeway Inn|Berkeley, CA| 100|37.87052|-122.28325|TRUE|TRUE|FALSE|TRUE
5679243|La Quinta Inn by Wyndham Berkeley|Berkeley, CA| 121|37.86797|-122.29574|FALSE|TRUE|FALSE|TRUE
5679243|Grant Hotel|Berkeley, CA|  90|37.78979|-122.40962|TRUE|FALSE|FALSE|TRUE
5679243|Jack London Inn|Berkeley, CA|  87|37.79532|-122.27602|TRUE|FALSE|FALSE|TRUE
5679243|JW Marriott San Francisco Union Square|Berkeley, CA| 408|37.78832|-122.41049|FALSE|FALSE|TRUE|TRUE
5679243|Four Seasons Hotel San Francisco|Berkeley, CA| 671|37.78630|-122.40390|FALSE|FALSE|TRUE|TRUE
5679243|Harbor Court Hotel|Berkeley, CA| 466|37.79259|-122.39218|FALSE|FALSE|TRUE|TRUE
5679243|The Ritz-Carlton, San Francisco|Berkeley, CA| 662|37.79162|-122.40728|FALSE|FALSE|TRUE|TRUE
5679243|1 Hotel San Francisco|Berkeley, CA| 627|37.79359|-122.39305|FALSE|FALSE|TRUE|TRUE
5679243|Radisson Hotel Oakland Airport|Berkeley, CA| 103|37.74201|-122.19492|TRUE|FALSE|FALSE|TRUE
5679243|Hyatt Place Emeryville/San Francisco Bay Area|Berkeley, CA| 181|37.83732|-122.29222|FALSE|TRUE|FALSE|TRUE
5679243|Graduate Berkeley|Berkeley, CA| 158|37.86792|-122.25631|FALSE|TRUE|FALSE|TRUE
5679243|HYATT house Emeryville/San Francisco Bay Area|Berkeley, CA| 190|37.83918|-122.29277|FALSE|TRUE|FALSE|TRUE
5679243|Aiden by Best Western @ Berkeley|Berkeley, CA| 153|37.87054|-122.28218|FALSE|TRUE|FALSE|TRUE
5679243|The St. Regis San Francisco|Berkeley, CA| 718|37.78613|-122.40147|FALSE|FALSE|TRUE|TRUE
5679243|Quality Inn University|Berkeley, CA| 105|37.87145|-122.27639|FALSE|TRUE|FALSE|TRUE
5679243|Fairmont Heritage Place, Ghirardelli Square|Berkeley, CA| 893|37.80543|-122.42349|FALSE|FALSE|TRUE|TRUE
5679243|SureStay Plus Hotel by Best Western Point Richmond|Berkeley, CA| 101|37.92652|-122.37889|TRUE|FALSE|FALSE|TRUE
5679336|Residence Inn By Marriott Boulder|Boulder, CO| 171|39.95744|-105.15847|FALSE|FALSE|TRUE|TRUE
5679336|Embassy Suites by Hilton Boulder|Boulder, CO| 209|40.01791|-105.26022|FALSE|TRUE|TRUE|TRUE
5679336|Boulder Twin Lakes Inn|Boulder, CO| 121|40.05695|-105.20275|TRUE|FALSE|FALSE|TRUE
5679336|HYATT house Boulder/Broomfield|Boulder, CO| 118|39.94033|-105.12471|TRUE|FALSE|FALSE|TRUE
5679336|Boulder Adventure Lodge|Boulder, CO| 119|40.01799|-105.32630|TRUE|FALSE|FALSE|TRUE
5679336|Quality Inn Louisville - Boulder|Boulder, CO|  84|39.96128|-105.16791|TRUE|FALSE|FALSE|TRUE
5679336|Hyatt Place Boulder/Pearl Street|Boulder, CO| 147|40.02421|-105.25181|FALSE|TRUE|FALSE|TRUE
5679336|Boulder Marriott|Boulder, CO| 212|40.01653|-105.25984|FALSE|TRUE|TRUE|TRUE
5679336|Niwot Inn & Spa|Boulder, CO| 253|40.10222|-105.17024|FALSE|FALSE|TRUE|TRUE
5679336|Residence Inn by Marriott Boulder Broomfield|Boulder, CO| 107|39.95710|-105.15807|TRUE|FALSE|FALSE|TRUE
5679336|Basecamp Boulder|Boulder, CO| 201|40.01416|-105.26839|FALSE|TRUE|TRUE|TRUE
5679336|Courtyard by Marriott Boulder Broomfield|Boulder, CO| 104|39.95889|-105.16368|TRUE|FALSE|FALSE|TRUE
5679336|Holiday Inn Express and Suites Broomfield, an IHG Hotel|Boulder, CO| 103|39.94156|-105.12600|TRUE|FALSE|FALSE|TRUE
5679336|TownePlace Suites by Marriott Boulder Broomfield/Interlocken|Boulder, CO|  93|39.92581|-105.13055|TRUE|FALSE|FALSE|TRUE
5679336|Renaissance Boulder FlatIron Hotel|Boulder, CO| 196|39.92683|-105.12952|FALSE|FALSE|TRUE|TRUE
5679336|Hotel Boulderado|Boulder, CO| 179|40.01934|-105.27943|FALSE|TRUE|TRUE|TRUE
5679336|Hilton Garden Inn Boulder|Boulder, CO| 152|40.01797|-105.25880|FALSE|TRUE|FALSE|TRUE
5679336|Colorado Chautauqua|Boulder, CO| 278|39.99719|-105.27946|FALSE|TRUE|TRUE|TRUE
5679336|Best Western Plus Louisville Inn & Suites|Boulder, CO|  94|39.95982|-105.16293|TRUE|FALSE|FALSE|TRUE
5679336|Millennium Harvest House Boulder|Boulder, CO| 122|40.01230|-105.25972|FALSE|TRUE|FALSE|TRUE
5679336|Bradley Boulder Inn|Boulder, CO| 253|40.01988|-105.27480|FALSE|TRUE|TRUE|TRUE
5679336|Hampton Inn Boulder - Louisville|Boulder, CO| 109|39.95855|-105.16280|TRUE|FALSE|FALSE|TRUE
5679336|Residence Inn by Marriott Boulder Canyon Boulevard|Boulder, CO| 201|40.01685|-105.26091|FALSE|TRUE|TRUE|TRUE
5679357|Best Western New Oregon|Eugene, OR| 118|44.04704|-123.06825|TRUE|TRUE|FALSE|TRUE
5679357|Best Western Grand Manor Inn|Eugene, OR| 111|44.08205|-123.03969|TRUE|FALSE|FALSE|TRUE
5679357|EVEN Hotel Eugene, an IHG Hotel|Eugene, OR| 148|44.06100|-123.07895|FALSE|TRUE|TRUE|TRUE
5679357|The Gordon Hotel|Eugene, OR| 239|44.05372|-123.09120|FALSE|FALSE|TRUE|TRUE
5679357|Campbell House Inn|Eugene, OR| 152|44.05712|-123.09001|FALSE|FALSE|TRUE|TRUE
5679357|HomeTowne Studios by Red Roof Eugene – Springfield|Eugene, OR|  89|44.05519|-123.09233|TRUE|FALSE|FALSE|TRUE
5679357|Inn at the 5th|Eugene, OR| 254|44.05409|-123.08927|FALSE|TRUE|TRUE|TRUE
5679357|Hyatt Place Eugene / Oakway Center|Eugene, OR| 170|44.06638|-123.07784|FALSE|FALSE|TRUE|TRUE
5679357|Valley River Inn|Eugene, OR| 145|44.06552|-123.10285|FALSE|FALSE|TRUE|TRUE
5679357|Super 8 by Wyndham Springfield/Eugene|Eugene, OR|  98|44.08167|-123.04093|TRUE|FALSE|FALSE|TRUE
5679357|Tru By Hilton Eugene, OR|Eugene, OR| 138|44.04432|-123.04618|FALSE|TRUE|FALSE|TRUE
5679357|Royal Inn Eugene|Eugene, OR| 101|44.07952|-123.15180|TRUE|FALSE|FALSE|TRUE
5679357|Hayward Inn|Eugene, OR| 119|44.04628|-123.06696|TRUE|TRUE|FALSE|TRUE
5679357|Graduate Eugene|Eugene, OR| 170|44.04408|-123.06525|FALSE|TRUE|TRUE|TRUE
5679357|Comfort Suites Eugene|Eugene, OR| 115|44.03255|-123.04419|TRUE|FALSE|FALSE|TRUE
5679357|La Quinta Inn & Suites by Wyndham Eugene|Eugene, OR| 122|44.05837|-123.07980|FALSE|TRUE|FALSE|TRUE
5679357|Residence Inn Eugene Springfield|Eugene, OR| 199|44.05971|-123.08369|FALSE|FALSE|TRUE|TRUE
5679357|Hilton Garden Inn Eugene/Springfield|Eugene, OR| 176|44.08522|-123.04288|FALSE|FALSE|TRUE|TRUE
5679357|Quality Inn and Suites Eugene - Springfield|Eugene, OR| 100|44.08540|-123.04366|TRUE|FALSE|FALSE|TRUE
5679357|Courtyard by Marriott Eugene Springfield|Eugene, OR| 149|44.08305|-123.03881|FALSE|FALSE|TRUE|TRUE
5679357|Valueinn Motel|Eugene, OR| 104|44.05207|-123.08675|TRUE|TRUE|FALSE|TRUE
5679357|Maverick Hotel|Eugene, OR| 121|44.04615|-123.06550|TRUE|TRUE|FALSE|TRUE
5679357|Candlewood Suites Eugene Springfield, an IHG Hotel|Eugene, OR| 134|44.04412|-123.04679|FALSE|TRUE|FALSE|TRUE
5679364|The Stanford Park Hotel|Stanford, CA| 661|37.44776|-122.17224|FALSE|TRUE|TRUE|TRUE
5679364|Comfort Inn Palo Alto|Stanford, CA| 136|37.41675|-122.12836|TRUE|TRUE|FALSE|TRUE
5679364|Creekside Inn|Stanford, CA| 242|37.41897|-122.13564|FALSE|TRUE|FALSE|TRUE
5679364|Hotel Lucent|Stanford, CA| 365|37.45136|-122.17914|FALSE|TRUE|FALSE|TRUE
5679364|Enchanté Boutique Hotel|Stanford, CA| 435|37.38078|-122.11446|FALSE|FALSE|TRUE|TRUE
5679364|The Nest Hotel Palo Alto|Stanford, CA| 398|37.41735|-122.12899|FALSE|TRUE|FALSE|TRUE
5679364|Quality Inn Santa Clara Convention Center|Stanford, CA| 110|37.40705|-121.99828|TRUE|FALSE|FALSE|TRUE
5679364|The Westin Palo Alto|Stanford, CA| 467|37.44063|-122.16310|FALSE|TRUE|TRUE|TRUE
5679364|Sheraton Palo Alto Hotel|Stanford, CA| 394|37.44141|-122.16388|FALSE|TRUE|FALSE|TRUE
5679364|Good Nite Inn - Redwood City|Stanford, CA| 102|37.49631|-122.23581|TRUE|FALSE|FALSE|TRUE
5679364|Super 8 by Wyndham Mountain View|Stanford, CA| 125|37.38965|-122.09332|TRUE|FALSE|FALSE|TRUE
5679364|Extended Stay America Suites San Jose Sunnyvale|Stanford, CA| 128|37.36482|-121.91163|TRUE|FALSE|FALSE|TRUE
5679364|Americas Best Value Inn Mountain View|Stanford, CA| 124|37.38709|-122.08600|TRUE|FALSE|FALSE|TRUE
5679364|Stanford Motor Inn Palo Alto|Stanford, CA| 196|37.42042|-122.13665|FALSE|TRUE|FALSE|TRUE
5679364|Good Living Inn|Stanford, CA| 122|37.49595|-122.24755|TRUE|FALSE|FALSE|TRUE
5679364|Hotel Nia, Autograph Collection|Stanford, CA| 448|37.48251|-122.17716|FALSE|FALSE|TRUE|TRUE
5679364|Rosewood Sand Hill|Stanford, CA|1005|37.41924|-122.21292|FALSE|FALSE|TRUE|TRUE
5679364|Hotel Zico|Stanford, CA| 130|37.37971|-122.06857|TRUE|FALSE|FALSE|TRUE
5679364|The Clement Hotel – All Inclusive|Stanford, CA|1403|37.44024|-122.16268|FALSE|TRUE|TRUE|TRUE
5679364|Ramada by Wyndham Mountain View|Stanford, CA| 121|37.40635|-122.06375|TRUE|FALSE|FALSE|TRUE
5679364|Four Seasons Hotel Silicon Valley at East Palo Alto|Stanford, CA| 674|37.46030|-122.14243|FALSE|FALSE|TRUE|TRUE
5679364|Hyatt Centric Mountain View|Stanford, CA| 486|37.40376|-122.11044|FALSE|FALSE|TRUE|TRUE
5679364|el PRADO|Stanford, CA| 692|37.44766|-122.15908|FALSE|TRUE|TRUE|TRUE
5679364|Ramada by Wyndham Sunnyvale/Silicon Valley|Stanford, CA| 124|37.39097|-121.99232|TRUE|FALSE|FALSE|TRUE
5679364|Shashi Hotel Mountain View, an Urban Resort|Stanford, CA| 458|37.41695|-122.07772|FALSE|FALSE|TRUE|TRUE
5679366|Extended Stay America Suites Salt Lake City West Valley Ctr|Salt Lake City, UT|  97|40.72464|-111.85618|FALSE|TRUE|FALSE|TRUE
5679366|DoubleTree Suites by Hilton Hotel Salt Lake City|Salt Lake City, UT| 181|40.75686|-111.89468|FALSE|FALSE|TRUE|TRUE
5679366|Hilton Salt Lake City Center|Salt Lake City, UT| 173|40.76390|-111.89326|FALSE|TRUE|TRUE|TRUE
5679366|Little America Hotel|Salt Lake City, UT| 124|40.75799|-111.89193|FALSE|TRUE|FALSE|TRUE
5679366|Radisson Hotel Salt Lake City Downtown|Salt Lake City, UT| 173|40.76899|-111.89782|FALSE|FALSE|TRUE|TRUE
5679366|Ellerbeck Mansion Bed & Breakfast|Salt Lake City, UT| 208|40.77263|-111.88172|FALSE|TRUE|TRUE|TRUE
5679366|Marriott City Center|Salt Lake City, UT| 199|40.76433|-111.88859|FALSE|TRUE|TRUE|TRUE
5679366|Salt Lake Marriott Downtown at City Creek|Salt Lake City, UT| 181|40.76774|-111.89313|FALSE|TRUE|TRUE|TRUE
5679366|Microtel Inn & Suites by Wyndham Salt Lake City Airport|Salt Lake City, UT|  84|40.77006|-112.00282|TRUE|FALSE|FALSE|TRUE
5679366|Ramada by Wyndham Salt Lake City Airport Hotel|Salt Lake City, UT|  76|40.77535|-112.02386|TRUE|FALSE|FALSE|TRUE
5679366|Comfort Inn Murray - Salt Lake City South|Salt Lake City, UT|  85|40.65501|-111.90444|TRUE|FALSE|FALSE|TRUE
5679366|Marriott University Park|Salt Lake City, UT| 255|40.75925|-111.83021|FALSE|TRUE|TRUE|TRUE
5679366|Ramada by Wyndham Salt Lake City|Salt Lake City, UT|  84|40.71740|-111.88712|TRUE|FALSE|FALSE|TRUE
5679366|City Creek Inn & Suites|Salt Lake City, UT|  81|40.74690|-111.89023|TRUE|TRUE|FALSE|TRUE
5679366|HomeTowne Studios by Red Roof Salt Lake City - Mid Valley|Salt Lake City, UT|  85|40.64658|-111.93621|TRUE|FALSE|FALSE|TRUE
5679366|Econo Lodge Downtown|Salt Lake City, UT|  84|40.77127|-111.91175|TRUE|FALSE|FALSE|TRUE
5679366|Quality Inn Downtown|Salt Lake City, UT|  85|40.75574|-111.89726|TRUE|FALSE|FALSE|TRUE
5679366|MainStay Suites Salt Lake City Fort Union|Salt Lake City, UT|  71|40.62426|-111.85270|TRUE|FALSE|FALSE|TRUE
5679366|Hyatt Regency Salt Lake City|Salt Lake City, UT| 223|40.76574|-111.89463|FALSE|FALSE|TRUE|TRUE
5679366|Kimpton Hotel Monaco Salt Lake City, an IHG Hotel|Salt Lake City, UT| 199|40.76472|-111.89222|FALSE|TRUE|TRUE|TRUE
5679366|The Grand America Hotel|Salt Lake City, UT| 340|40.75740|-111.88888|FALSE|TRUE|TRUE|TRUE
5679366|Tapestry by Hilton The Peery Salt Lake City Downtown, UT|Salt Lake City, UT| 204|40.76319|-111.89448|FALSE|FALSE|TRUE|TRUE
5679366|Quality Inn & Suites Airport West|Salt Lake City, UT|  81|40.77548|-112.02300|TRUE|FALSE|FALSE|TRUE
5679368|3 Palms Tucson North Foothills|Tucson, AZ|  61|32.34139|-110.97772|TRUE|FALSE|FALSE|TRUE
5679368|Knights Inn Tucson D.M.A.F Area|Tucson, AZ|  80|32.20341|-110.87553|TRUE|FALSE|FALSE|TRUE
5679368|DoubleTree by Hilton Tucson Downtown Convention Center|Tucson, AZ| 186|32.21732|-110.97321|FALSE|TRUE|TRUE|TRUE
5679368|Econo Lodge near the University of Arizona|Tucson, AZ|  74|32.23188|-110.95011|TRUE|TRUE|FALSE|TRUE
5679368|Days Inn by Wyndham Tucson Airport|Tucson, AZ|  66|32.16423|-110.91671|TRUE|FALSE|FALSE|TRUE
5679368|JW Marriott Starr Pass Resort and Spa|Tucson, AZ| 587|32.21601|-111.05030|FALSE|FALSE|TRUE|TRUE
5679368|Loews Ventana Canyon Resort|Tucson, AZ| 239|32.32770|-110.85016|FALSE|FALSE|TRUE|TRUE
5679368|Days Inn Tucson City Center|Tucson, AZ|  84|32.23119|-110.98414|TRUE|FALSE|FALSE|TRUE
5679368|Travel Inn|Tucson, AZ|  80|32.11720|-110.86047|TRUE|FALSE|FALSE|TRUE
5679368|GLH Hotel|Tucson, AZ|  69|32.24987|-110.99386|TRUE|FALSE|FALSE|TRUE
5679368|The Armory Park Inn|Tucson, AZ| 298|32.21632|-110.96422|FALSE|TRUE|TRUE|TRUE
5679368|Quality Inn Tucson Airport - East Valencia|Tucson, AZ|  72|32.13453|-110.92957|TRUE|FALSE|FALSE|TRUE
5679368|Quality Inn near Downtown Tucson|Tucson, AZ|  71|32.22187|-110.97127|TRUE|TRUE|FALSE|TRUE
5679368|Hacienda Del Sol Guest Ranch Resort|Tucson, AZ| 276|32.30802|-110.91444|FALSE|FALSE|TRUE|TRUE
5679368|Red Roof Inn Tucson Downtown – University|Tucson, AZ|  80|32.23879|-110.97157|TRUE|TRUE|FALSE|TRUE
5679368|Stone Inn U of A|Tucson, AZ|  98|32.23820|-110.97141|FALSE|TRUE|FALSE|TRUE
5679368|Hampton Inn Tucson Downtown|Tucson, AZ| 178|32.21980|-110.97070|FALSE|TRUE|TRUE|TRUE
5679368|Best Western Royal Sun Inn & Suites|Tucson, AZ| 101|32.23488|-110.97199|FALSE|TRUE|FALSE|TRUE
5679368|Aloft Tucson University|Tucson, AZ| 151|32.23575|-110.94326|FALSE|TRUE|FALSE|TRUE
5679368|The Lodge at Ventana Canyon|Tucson, AZ| 273|32.32191|-110.84534|FALSE|FALSE|TRUE|TRUE
5679368|Westward Look Wyndham Grand Resort and Spa|Tucson, AZ| 216|32.34263|-110.96530|FALSE|FALSE|TRUE|TRUE
5679368|Graduate Tucson|Tucson, AZ| 301|32.23282|-110.95767|FALSE|TRUE|TRUE|TRUE
5679368|Lodge on the Desert|Tucson, AZ| 160|32.22597|-110.90885|FALSE|FALSE|TRUE|TRUE
5679478|AC Hotel Phoenix Tempe/Downtown|Tempe, AZ| 410|33.43086|-111.93738|FALSE|TRUE|TRUE|TRUE
5679478|Quality Inn Chandler I-10|Tempe, AZ|  66|33.30637|-111.94502|TRUE|FALSE|FALSE|TRUE
5679478|JW Marriott Camelback Inn Scottsdale Resort & Spa|Tempe, AZ| 865|33.53293|-111.96421|FALSE|FALSE|TRUE|TRUE
5679478|Mountain Shadows Resort Scottsdale|Tempe, AZ| 539|33.53058|-111.96382|FALSE|FALSE|TRUE|TRUE
5679478|Comfort Suites Phoenix Airport|Tempe, AZ| 120|33.41023|-111.96914|FALSE|TRUE|FALSE|TRUE
5679478|Sanctuary Camelback Mountain, A Gurney's Resort and Spa|Tempe, AZ| 842|33.52248|-111.95951|FALSE|FALSE|TRUE|TRUE
5679478|Hyatt Place Tempe / Phoenix / University|Tempe, AZ| 183|33.42345|-111.92990|FALSE|TRUE|FALSE|TRUE
5679478|The Phoenician, a Luxury Collection Resort, Scottsdale|Tempe, AZ| 762|33.50578|-111.94957|FALSE|FALSE|TRUE|TRUE
5679478|W Scottsdale|Tempe, AZ| 374|33.50195|-111.92410|FALSE|FALSE|TRUE|TRUE
5679478|Graduate Tempe|Tempe, AZ| 151|33.41420|-111.93626|FALSE|TRUE|FALSE|TRUE
5679478|The Camby, Autograph Collection|Tempe, AZ| 598|33.50867|-112.02935|FALSE|FALSE|TRUE|TRUE
5679478|Hermosa Inn|Tempe, AZ| 622|33.51834|-112.00490|FALSE|FALSE|TRUE|TRUE
5679478|Andaz Scottsdale Resort & Bungalows|Tempe, AZ| 528|33.52836|-111.92820|FALSE|FALSE|TRUE|TRUE
5679478|Sonesta Select Tempe Downtown|Tempe, AZ| 144|33.42497|-111.94277|FALSE|TRUE|FALSE|TRUE
5679478|Extend A Suites Tempe|Tempe, AZ|  82|33.34995|-111.96555|TRUE|FALSE|FALSE|TRUE
5679478|Chandler Hospitality Inn|Tempe, AZ|  82|33.30862|-111.97351|TRUE|FALSE|FALSE|TRUE
5679478|The Westin Tempe|Tempe, AZ| 398|33.42286|-111.93929|FALSE|TRUE|TRUE|TRUE
5679478|SureStay Hotel by Best Western Phoenix Airport|Tempe, AZ|  89|33.45107|-112.01551|TRUE|FALSE|FALSE|TRUE
5679478|3 Palms|Tempe, AZ|  88|33.41925|-111.91953|TRUE|TRUE|FALSE|TRUE
5679478|Red Roof Inn PLUS+ Tempe - Phoenix Airport|Tempe, AZ|  85|33.41152|-111.97151|TRUE|FALSE|FALSE|TRUE
5679478|Motel 6 Phoenix East|Tempe, AZ|  79|33.45034|-111.96701|TRUE|FALSE|FALSE|TRUE
5679478|Days Hotel by Wyndham Mesa Near Phoenix|Tempe, AZ|  93|33.38193|-111.83878|TRUE|FALSE|FALSE|TRUE
5679478|Super 8 by Wyndham Chandler Phoenix|Tempe, AZ|  89|33.30487|-111.96657|TRUE|FALSE|FALSE|TRUE
5679478|Canopy by Hilton Tempe Downtown|Tempe, AZ| 246|33.42230|-111.93776|FALSE|TRUE|FALSE|TRUE
5679478|Extend -a -Suites Mesa|Tempe, AZ|  74|33.42551|-111.94001|TRUE|TRUE|FALSE|TRUE
5679478|Wyndham Phoenix Airport/Tempe|Tempe, AZ| 125|33.41099|-111.97059|FALSE|TRUE|FALSE|TRUE
5679480|Shutters on the Beach|Los Angeles, CA|1013|34.00706|-118.49172|FALSE|FALSE|TRUE|TRUE
5679480|Royal Palace Westwood|Los Angeles, CA| 240|34.06060|-118.44287|FALSE|TRUE|FALSE|TRUE
5679480|The Ritz-Carlton, Marina del Rey|Los Angeles, CA| 679|33.98430|-118.45116|FALSE|FALSE|TRUE|TRUE
5679480|H3 Inn & Suites - LAX Airport - Los Angeles|Los Angeles, CA|  92|33.94569|-118.36044|TRUE|FALSE|FALSE|TRUE
5679480|Cloud 9 Inn LAX|Los Angeles, CA| 104|33.96197|-118.36567|TRUE|FALSE|FALSE|TRUE
5679480|Century Park Hotel|Los Angeles, CA| 204|34.05188|-118.41763|FALSE|TRUE|FALSE|TRUE
5679480|Rosa Bell Motel - Los Angeles|Los Angeles, CA|  98|33.99136|-118.30872|TRUE|FALSE|FALSE|TRUE
5679480|The Maybourne Beverly Hills|Los Angeles, CA|1213|34.06777|-118.39892|FALSE|FALSE|TRUE|TRUE
5679480|Crenshaw Inn Motel|Los Angeles, CA|  96|33.98272|-118.33132|TRUE|FALSE|FALSE|TRUE
5679480|The Beverly Hills Hotel|Los Angeles, CA|1571|34.08171|-118.41380|FALSE|TRUE|TRUE|TRUE
5679480|Hollywood Roxy Hotel|Los Angeles, CA|  95|34.10069|-118.30964|TRUE|FALSE|FALSE|TRUE
5679480|Four Seasons Los Angeles at Beverly Hills|Los Angeles, CA|1214|34.07295|-118.38921|FALSE|FALSE|TRUE|TRUE
5679480|Casa Del Mar|Los Angeles, CA| 897|34.00627|-118.49147|FALSE|FALSE|TRUE|TRUE
5679480|Hotel Angeleno|Los Angeles, CA| 197|34.07374|-118.46820|FALSE|TRUE|FALSE|TRUE
5679480|Palihotel Westwood Village|Los Angeles, CA| 296|34.06086|-118.44295|FALSE|TRUE|FALSE|TRUE
5679480|Las Palmas Hotel|Los Angeles, CA|  95|34.10210|-118.33590|TRUE|FALSE|FALSE|TRUE
5679480|L'Ermitage Beverly Hills|Los Angeles, CA| 804|34.07264|-118.39542|FALSE|FALSE|TRUE|TRUE
5679480|Hollywood Guest Inn|Los Angeles, CA|  86|34.09772|-118.33695|TRUE|FALSE|FALSE|TRUE
5679480|Budget Motel|Los Angeles, CA|  97|33.97495|-118.31656|TRUE|FALSE|FALSE|TRUE
5679480|Fairmont Century Plaza|Los Angeles, CA| 523|34.05745|-118.41578|FALSE|TRUE|FALSE|TRUE
5679480|Hollywood VIP Hotel|Los Angeles, CA| 101|34.10358|-118.33979|TRUE|FALSE|FALSE|TRUE
5679480|Santa Monica Proper Hotel|Los Angeles, CA| 701|34.02087|-118.49452|FALSE|FALSE|TRUE|TRUE
5679480|1 Hotel West Hollywood|Los Angeles, CA| 653|34.09407|-118.37570|FALSE|FALSE|TRUE|TRUE
5679480|Kimpton Hotel Palomar Los Angeles Beverly Hills, an IHG Hotel|Los Angeles, CA| 375|34.06023|-118.43744|FALSE|TRUE|FALSE|TRUE
5679480|Beverly Wilshire - Beverly Hills, A Four Seasons Hotel|Los Angeles, CA|1116|34.06674|-118.40077|FALSE|FALSE|TRUE|TRUE
5679480|Beverly Hills Plaza Hotel & Spa|Los Angeles, CA| 323|34.06773|-118.42604|FALSE|TRUE|FALSE|TRUE
5679480|W Los Angeles - West Beverly Hills|Los Angeles, CA| 429|34.06278|-118.44105|FALSE|TRUE|FALSE|TRUE
5679480|Luxe Sunset Boulevard Hotel|Los Angeles, CA| 312|34.07261|-118.46901|FALSE|TRUE|FALSE|TRUE
5679480|Hollywood Inn Express North|Los Angeles, CA|  89|34.10207|-118.30169|TRUE|FALSE|FALSE|TRUE
5679600|L'Ermitage Beverly Hills|Los Angeles, CA| 804|34.07264|-118.39542|FALSE|FALSE|TRUE|TRUE
5679600|The Peninsula Beverly Hills|Los Angeles, CA|1041|34.06575|-118.41055|FALSE|FALSE|TRUE|TRUE
5679600|Hollywood Inn Express North|Los Angeles, CA|  89|34.10207|-118.30169|TRUE|TRUE|FALSE|TRUE
5679600|Redondo Beach Inn|Los Angeles, CA|  83|33.89303|-118.36550|TRUE|FALSE|FALSE|TRUE
5679600|Park Motel|Los Angeles, CA|  75|34.00815|-118.28303|TRUE|TRUE|FALSE|TRUE
5679600|Hollywood Guest Inn|Los Angeles, CA|  86|34.09772|-118.33695|TRUE|FALSE|FALSE|TRUE
5679600|Conrad Los Angeles|Los Angeles, CA| 461|34.05514|-118.24851|FALSE|TRUE|FALSE|TRUE
5679600|LAX Stadium Inn - El Segundo/Inglewood|Los Angeles, CA|  86|33.93112|-118.35535|TRUE|FALSE|FALSE|TRUE
5679600|Antonio Hotel|Los Angeles, CA|  86|34.04595|-118.20875|TRUE|TRUE|FALSE|TRUE
5679600|1 Hotel West Hollywood|Los Angeles, CA| 653|34.09407|-118.37570|FALSE|FALSE|TRUE|TRUE
5679600|The West Hollywood EDITION|Los Angeles, CA| 702|34.09002|-118.38915|FALSE|FALSE|TRUE|TRUE
5679600|Crenshaw Inn Motel|Los Angeles, CA|  96|33.98272|-118.33132|FALSE|TRUE|FALSE|TRUE
5679600|Welcome Inn on Colorado Blvd|Los Angeles, CA|  84|34.13893|-118.20781|TRUE|FALSE|FALSE|TRUE
5679600|Hollywood Inn Express South|Los Angeles, CA|  94|34.06781|-118.27002|FALSE|TRUE|FALSE|TRUE
5679600|Beverly Wilshire - Beverly Hills, A Four Seasons Hotel|Los Angeles, CA|1116|34.06674|-118.40077|FALSE|FALSE|TRUE|TRUE
5679600|Level Los Angeles Downtown - South Olive|Los Angeles, CA| 507|34.04375|-118.25798|FALSE|TRUE|FALSE|TRUE
5679600|Central Inn Motel on 41 Street|Los Angeles, CA|  79|34.00935|-118.25629|TRUE|TRUE|FALSE|TRUE
5679600|The Beverly Hills Hotel|Los Angeles, CA|1571|34.08171|-118.41380|FALSE|FALSE|TRUE|TRUE
5679600|The Ritz-Carlton, Los Angeles|Los Angeles, CA| 808|34.04530|-118.26696|FALSE|TRUE|TRUE|TRUE
5679600|The Maybourne Beverly Hills|Los Angeles, CA|1213|34.06777|-118.39892|FALSE|FALSE|TRUE|TRUE
5679600|Central Inn Motel|Los Angeles, CA|  87|34.00935|-118.25629|TRUE|TRUE|FALSE|TRUE
5679600|Waldorf Astoria Beverly Hills|Los Angeles, CA|1154|34.06658|-118.41164|FALSE|FALSE|TRUE|TRUE
5679600|Hollywood Inn Suites Hotel|Los Angeles, CA|  75|33.91615|-118.29309|TRUE|FALSE|FALSE|TRUE
5679600|Four Seasons Los Angeles at Beverly Hills|Los Angeles, CA|1214|34.07295|-118.38921|FALSE|FALSE|TRUE|TRUE
5679602|Comfort Inn Kirkland|Seattle, WA| 104|47.70958|-122.17794|TRUE|FALSE|FALSE|TRUE
5679602|College Inn Hotel|Seattle, WA| 120|47.65545|-122.31301|TRUE|TRUE|FALSE|TRUE
5679602|Four Seasons Hotel Seattle|Seattle, WA| 860|47.60738|-122.33916|FALSE|FALSE|TRUE|TRUE
5679602|Lotte Hotel Seattle|Seattle, WA| 463|47.60525|-122.33084|FALSE|FALSE|TRUE|TRUE
5679602|Staypineapple, Watertown, University District Seattle|Seattle, WA| 162|47.65940|-122.31762|FALSE|TRUE|FALSE|TRUE
5679602|Hampton Inn & Suites Seattle-Downtown|Seattle, WA| 141|47.62587|-122.34654|FALSE|TRUE|FALSE|TRUE
5679602|Red Lion Hotel Bellevue|Seattle, WA| 110|47.60901|-122.18965|TRUE|FALSE|FALSE|TRUE
5679602|Hotel 1000, LXR Hotels & Resorts|Seattle, WA| 443|47.60505|-122.33612|FALSE|FALSE|TRUE|TRUE
5679602|Hotel Nexus, BW Signature Collection|Seattle, WA| 127|47.70913|-122.33228|TRUE|FALSE|FALSE|TRUE
5679602|Fairmont Olympic Hotel|Seattle, WA| 380|47.60806|-122.33393|FALSE|FALSE|TRUE|TRUE
5679602|Extended Stay America Suites Seattle Redmond|Seattle, WA| 114|47.63458|-122.13137|TRUE|FALSE|FALSE|TRUE
5679602|W Bellevue|Seattle, WA| 445|47.61628|-122.32679|FALSE|TRUE|TRUE|TRUE
5679602|Holiday Inn Seattle Downtown, an IHG Hotel|Seattle, WA| 130|47.62033|-122.34282|FALSE|TRUE|FALSE|TRUE
5679602|Willows Lodge|Seattle, WA| 550|47.73361|-122.14681|FALSE|FALSE|TRUE|TRUE
5679602|Travelodge by Wyndham Seattle By The Space Needle|Seattle, WA| 106|47.62041|-122.34467|TRUE|TRUE|FALSE|TRUE
5679602|Graduate Seattle|Seattle, WA| 153|47.66166|-122.31463|FALSE|TRUE|FALSE|TRUE
5679602|Woodmark Hotel and Still Spa|Seattle, WA| 620|47.65682|-122.20710|FALSE|FALSE|TRUE|TRUE
5679602|The Heathman Hotel|Seattle, WA| 376|47.67570|-122.20367|FALSE|FALSE|TRUE|TRUE
5679602|Quality Inn Bellevue|Seattle, WA| 111|47.58134|-122.13688|TRUE|FALSE|FALSE|TRUE
5679602|Extended Stay America Suites Seattle Bellevue Factoria|Seattle, WA| 109|47.63458|-122.13137|TRUE|FALSE|FALSE|TRUE
5679602|Bellevue Club Hotel|Seattle, WA| 416|47.60535|-122.18956|FALSE|FALSE|TRUE|TRUE
5679602|Four Points by Sheraton Downtown Seattle Center|Seattle, WA| 141|47.62496|-122.34470|FALSE|TRUE|FALSE|TRUE
5679602|Staypineapple, University Inn, University District Seattle|Seattle, WA| 146|47.65817|-122.31750|FALSE|TRUE|FALSE|TRUE
5679602|Staybridge Suites Seattle - Fremont, an IHG Hotel|Seattle, WA| 147|47.65490|-122.34690|FALSE|TRUE|FALSE|TRUE
5679602|The Westin Bellevue|Seattle, WA| 395|47.61588|-122.20071|FALSE|FALSE|TRUE|TRUE
5679602|Extended Stay America Premier Suites Seattle Bellevue Downtown|Seattle, WA| 125|47.61071|-122.18764|TRUE|FALSE|FALSE|TRUE
5679602|Days Inn by Wyndham Seattle Aurora|Seattle, WA|  85|47.77134|-122.34658|TRUE|FALSE|FALSE|TRUE
5679604|Residence Inn Pullman|Pullman, WA| 131|46.73899|-117.15119|TRUE|TRUE|TRUE|TRUE
5679604|Quality Inn Paradise Creek|Pullman, WA|  78|46.72054|-117.16316|TRUE|TRUE|TRUE|TRUE
5679604|Coast Hilltop Inn|Pullman, WA| 110|46.73252|-117.19249|TRUE|TRUE|TRUE|TRUE
5679604|Courtyard by Marriott Pullman|Pullman, WA| 118|46.73995|-117.15026|TRUE|TRUE|TRUE|TRUE
5679604|Cougar Land Motel|Pullman, WA|  66|46.73009|-117.18242|TRUE|TRUE|FALSE|TRUE
5679604|FairBridge Inn - Moscow|Pullman, WA|  78|46.73389|-117.02137|TRUE|FALSE|TRUE|TRUE
5679604|Empire Apartments By Barsala|Pullman, WA| 207|46.72978|-117.18174|FALSE|TRUE|TRUE|TRUE
5679604|Monarch Motel|Pullman, WA| 146|46.73040|-117.00231|TRUE|FALSE|TRUE|TRUE
5679604|Empire Studios By Barsala|Pullman, WA| 219|46.72978|-117.18174|FALSE|TRUE|TRUE|TRUE
5679604|Hotel McCoy - Art, Coffee, Beer, Wine|Pullman, WA| 148|46.72914|-117.17718|FALSE|TRUE|TRUE|TRUE
5679604|Holiday Inn Express And Suites Pullman, an IHG Hotel|Pullman, WA| 135|46.71599|-117.16699|TRUE|TRUE|TRUE|TRUE
5679604|Super 8 by Wyndham Moscow / Pullman|Pullman, WA|  80|46.73389|-117.01691|TRUE|FALSE|TRUE|TRUE
5679604|American Travel Inn|Pullman, WA|  76|46.72611|-117.18555|TRUE|TRUE|FALSE|TRUE
5685036|Tru By Hilton Frisco Dallas, TX|Frisco, TX|  98|33.09756| -96.81649|TRUE|TRUE|FALSE|TRUE
5685036|Hyatt Place Dallas / The Colony|Frisco, TX| 109|33.07176| -96.88155|FALSE|FALSE|TRUE|TRUE
5685036|Candlewood Suites Dallas-Frisco NW Toyota Ctr, an IHG Hotel|Frisco, TX| 174|33.15801| -96.83308|FALSE|TRUE|TRUE|TRUE
5685036|NYLO Dallas Plano Hotel, Tapestry Collection by Hilton|Frisco, TX| 153|33.08864| -96.80655|FALSE|TRUE|TRUE|TRUE
5685036|Comfort Suites Frisco|Frisco, TX| 131|33.15818| -96.83935|FALSE|TRUE|TRUE|TRUE
5685036|Omni Frisco Hotel|Frisco, TX| 346|33.10959| -96.82768|FALSE|TRUE|TRUE|TRUE
5685036|Extended Stay America Suites Dallas Plano Parkway|Frisco, TX|  74|33.01687| -96.79448|TRUE|FALSE|FALSE|TRUE
5685036|Hyatt Place Plano|Frisco, TX| 108|33.04205| -96.82827|FALSE|FALSE|TRUE|TRUE
5685036|Embassy Suites by Hilton Dallas Frisco Hotel & Convention Center|Frisco, TX| 181|33.09950| -96.81776|FALSE|TRUE|TRUE|TRUE
5685036|Wingate By Wyndham Frisco TX|Frisco, TX|  98|33.12173| -96.74896|TRUE|FALSE|FALSE|TRUE
5685036|Homewood Suites by Hilton North Dallas-Plano|Frisco, TX| 106|33.02202| -96.79099|TRUE|FALSE|FALSE|TRUE
5685036|Holiday Inn Express Frisco, an IHG Hotel|Frisco, TX| 106|33.10824| -96.81652|TRUE|TRUE|FALSE|TRUE
5685036|Tru by Hilton The Colony Dallas|Frisco, TX| 105|33.07220| -96.88071|TRUE|FALSE|FALSE|TRUE
5685036|Holiday Inn Plano - The Colony, an IHG Hotel|Frisco, TX| 101|33.07452| -96.87742|TRUE|FALSE|FALSE|TRUE
5685036|Hyatt Regency Frisco-Dallas|Frisco, TX| 241|33.09931| -96.81311|FALSE|TRUE|TRUE|TRUE
5685036|Sandman Signature Plano - Frisco Hotel|Frisco, TX| 199|33.09052| -96.81492|FALSE|TRUE|TRUE|TRUE
5685036|Renaissance Dallas at Plano Legacy West Hotel|Frisco, TX| 345|33.07836| -96.82741|FALSE|TRUE|TRUE|TRUE
5685036|Quality Inn West Plano - Dallas|Frisco, TX|  74|33.01727| -96.79788|TRUE|FALSE|FALSE|TRUE
5685036|Comfort Suites The Colony - Plano West|Frisco, TX|  83|33.06982| -96.88570|TRUE|FALSE|FALSE|TRUE
5685036|Sonesta Simply Suites Plano Frisco|Frisco, TX|  90|33.07135| -96.79227|TRUE|FALSE|FALSE|TRUE
5685265|The Natchez|New Orleans, LA| 492|29.94974| -90.06870|FALSE|FALSE|TRUE|TRUE
5685265|Four Seasons Hotel New Orleans|New Orleans, LA| 446|29.94888| -90.06389|FALSE|FALSE|TRUE|TRUE
5685265|Drury Plaza Hotel New Orleans|New Orleans, LA| 147|29.94980| -90.07240|FALSE|TRUE|FALSE|TRUE
5685265|Selina Catahoula New Orleans|New Orleans, LA| 111|29.95185| -90.07321|FALSE|TRUE|FALSE|TRUE
5685265|Courtyard by Marriott New Orleans Westbank/Gretna|New Orleans, LA| 452|29.92568| -90.04143|FALSE|FALSE|TRUE|TRUE
5685265|La Quinta Inn & Suites by Wyndham New Orleans Downtown|New Orleans, LA|  92|29.95089| -90.06941|TRUE|TRUE|FALSE|TRUE
5685265|La Quinta Inn by Wyndham New Orleans Veterans / Metairie|New Orleans, LA|  81|30.00483| -90.20567|TRUE|FALSE|FALSE|TRUE
5685265|Hyatt Regency New Orleans|New Orleans, LA| 249|29.94955| -90.07727|FALSE|TRUE|TRUE|TRUE
5685265|The Roosevelt New Orleans, A Waldorf Astoria Hotel|New Orleans, LA| 263|29.95434| -90.07230|FALSE|TRUE|TRUE|TRUE
5685265|One11 Hotel|New Orleans, LA| 356|29.95196| -90.06481|FALSE|FALSE|TRUE|TRUE
5685265|Days Inn by Wyndham New Orleans Pontchartrain|New Orleans, LA|  76|30.00213| -90.03978|TRUE|FALSE|FALSE|TRUE
5685265|The Jung Hotel and Residences|New Orleans, LA| 115|29.95720| -90.07581|FALSE|TRUE|FALSE|TRUE
5685265|Virgin Hotels New Orleans|New Orleans, LA| 198|29.94894| -90.07313|FALSE|TRUE|FALSE|TRUE
5685265|The Windsor Court|New Orleans, LA| 399|29.94984| -90.06644|FALSE|FALSE|TRUE|TRUE
5685265|Lucky Inn|New Orleans, LA| 102|29.96603| -90.08545|TRUE|FALSE|FALSE|TRUE
5685265|MOXY by Marriott New Orleans Downtown French Quarter|New Orleans, LA| 102|29.95233| -90.06955|TRUE|TRUE|FALSE|TRUE
5685265|Quality Inn New Orleans I-10 East|New Orleans, LA|  64|30.03715| -89.97409|TRUE|FALSE|FALSE|TRUE
5685265|The Ritz-Carlton, New Orleans|New Orleans, LA| 315|29.95496| -90.07097|FALSE|TRUE|TRUE|TRUE
5685265|Olde Town Inn|New Orleans, LA|  80|29.96776| -90.05529|TRUE|FALSE|FALSE|TRUE
5685265|Maison de la Luz|New Orleans, LA| 418|29.94879| -90.07202|FALSE|TRUE|TRUE|TRUE
5685265|Suburban Studios|New Orleans, LA| 100|29.90910| -90.20646|TRUE|FALSE|FALSE|TRUE
5685265|Best Western New Orleans East|New Orleans, LA|  96|30.03823| -89.97211|TRUE|FALSE|FALSE|TRUE
5685265|Comfort Inn Marrero - New Orleans West|New Orleans, LA|  91|29.89219| -90.12282|TRUE|FALSE|FALSE|TRUE
5685265|The Frenchmen|New Orleans, LA|1569|30.00757| -90.06095|FALSE|FALSE|TRUE|TRUE
5685266|Hyatt Regency New Orleans|New Orleans, LA| 249|29.94955| -90.07727|FALSE|TRUE|TRUE|TRUE
5685266|Maison de la Luz|New Orleans, LA| 418|29.94879| -90.07202|FALSE|TRUE|TRUE|TRUE
5685266|The Ritz-Carlton, New Orleans|New Orleans, LA| 315|29.95496| -90.07097|FALSE|TRUE|TRUE|TRUE
5685266|MOXY by Marriott New Orleans Downtown French Quarter|New Orleans, LA| 102|29.95233| -90.06955|TRUE|TRUE|FALSE|TRUE
5685266|Olde Town Inn|New Orleans, LA|  80|29.96776| -90.05529|TRUE|FALSE|FALSE|TRUE
5685266|Comfort Inn Marrero - New Orleans West|New Orleans, LA|  91|29.89219| -90.12282|TRUE|FALSE|FALSE|TRUE
5685266|Four Seasons Hotel New Orleans|New Orleans, LA| 446|29.94888| -90.06389|FALSE|FALSE|TRUE|TRUE
5685266|The Frenchmen|New Orleans, LA|1569|30.00757| -90.06095|FALSE|FALSE|TRUE|TRUE
5685266|The Natchez|New Orleans, LA| 492|29.94974| -90.06870|FALSE|FALSE|TRUE|TRUE
5685266|The Jung Hotel and Residences|New Orleans, LA| 115|29.95720| -90.07581|FALSE|TRUE|FALSE|TRUE
5685266|Selina Catahoula New Orleans|New Orleans, LA| 111|29.95185| -90.07321|FALSE|TRUE|FALSE|TRUE
5685266|Lucky Inn|New Orleans, LA| 102|29.96603| -90.08545|TRUE|FALSE|FALSE|TRUE
5685266|La Quinta Inn by Wyndham New Orleans Veterans / Metairie|New Orleans, LA|  81|30.00483| -90.20567|TRUE|FALSE|FALSE|TRUE
5685266|The Windsor Court|New Orleans, LA| 399|29.94984| -90.06644|FALSE|FALSE|TRUE|TRUE
5685266|Courtyard by Marriott New Orleans Westbank/Gretna|New Orleans, LA| 452|29.92568| -90.04143|FALSE|FALSE|TRUE|TRUE
5685266|The Roosevelt New Orleans, A Waldorf Astoria Hotel|New Orleans, LA| 263|29.95434| -90.07230|FALSE|TRUE|TRUE|TRUE
5685266|One11 Hotel|New Orleans, LA| 356|29.95196| -90.06481|FALSE|FALSE|TRUE|TRUE
5685266|La Quinta Inn & Suites by Wyndham New Orleans Downtown|New Orleans, LA|  92|29.95089| -90.06941|TRUE|TRUE|FALSE|TRUE
5685266|Suburban Studios|New Orleans, LA| 100|29.90910| -90.20646|TRUE|FALSE|FALSE|TRUE
5685266|Virgin Hotels New Orleans|New Orleans, LA| 198|29.94894| -90.07313|FALSE|TRUE|FALSE|TRUE
5685266|Drury Plaza Hotel New Orleans|New Orleans, LA| 147|29.94980| -90.07240|FALSE|TRUE|FALSE|TRUE
5685266|Days Inn by Wyndham New Orleans Pontchartrain|New Orleans, LA|  76|30.00213| -90.03978|TRUE|FALSE|FALSE|TRUE
5685266|Best Western New Orleans East|New Orleans, LA|  96|30.03823| -89.97211|TRUE|FALSE|FALSE|TRUE
5685266|Quality Inn New Orleans I-10 East|New Orleans, LA|  64|30.03715| -89.97409|TRUE|FALSE|FALSE|TRUE
5685308|Residence Inn Phoenix Glendale Sports & Entertainment District|Glendale, AZ| 205|33.54214|-112.26034|FALSE|TRUE|TRUE|TRUE
5685308|Super 8 by Wyndham Phoenix West|Glendale, AZ|  65|33.49607|-112.11553|TRUE|FALSE|FALSE|TRUE
5685308|Hilton Garden Inn Avondale|Glendale, AZ| 177|33.45758|-112.30457|FALSE|FALSE|TRUE|TRUE
5685308|Courtyard by Marriott Phoenix West/Avondale|Glendale, AZ| 131|33.46610|-112.26699|FALSE|TRUE|FALSE|TRUE
5685308|Springhill Suites Phoenix Glendale Sports & Entertainment District|Glendale, AZ| 154|33.54272|-112.25994|FALSE|TRUE|TRUE|TRUE
5685308|HomeTowne Studios by Red Roof Phoenix - West|Glendale, AZ|  90|33.46438|-112.17166|TRUE|FALSE|FALSE|TRUE
5685308|Super 8 by Wyndham Phoenix Metro North|Glendale, AZ|  75|33.55603|-112.11363|TRUE|FALSE|FALSE|TRUE
5685308|Days Hotel by Wyndham Peoria Glendale Area|Glendale, AZ|  95|33.59079|-112.25157|TRUE|TRUE|FALSE|TRUE
5685308|HomeTowne Studios Phoenix - Dunlap Ave|Glendale, AZ|  79|33.56842|-112.10440|TRUE|FALSE|FALSE|TRUE
5685308|Holiday Inn Hotel Suites Goodyear, an IHG Hotel|Glendale, AZ| 176|33.45917|-112.34189|FALSE|FALSE|TRUE|TRUE
5685308|Travelers Inn|Glendale, AZ|  96|33.53865|-112.18599|FALSE|TRUE|FALSE|TRUE
5685308|Red Roof Inn Phoenix - Midtown|Glendale, AZ|  86|33.49583|-112.11374|TRUE|FALSE|FALSE|TRUE
5685308|Red Roof Inn PLUS+ Phoenix West|Glendale, AZ|  88|33.46438|-112.17166|TRUE|FALSE|FALSE|TRUE
5685308|Travel Inn - In Phoenix (Alhambra)|Glendale, AZ|  80|33.49380|-112.11609|TRUE|FALSE|FALSE|TRUE
5685308|Tru By Hilton Phoenix Glendale Westgate, AZ|Glendale, AZ| 158|33.53125|-112.26562|FALSE|TRUE|TRUE|TRUE
5685308|Staybridge Suites Phoenix - Glendale Sports Dist, an IHG Hotel|Glendale, AZ| 154|33.54119|-112.26119|FALSE|TRUE|TRUE|TRUE
5685308|Springhill Suites By Marriott Phoenix Glendale Peoria|Glendale, AZ| 183|33.63917|-112.22781|FALSE|FALSE|TRUE|TRUE
5685308|Baymont by Wyndham Phoenix I-10 near 51st Ave|Glendale, AZ|  95|33.46209|-112.17325|TRUE|FALSE|FALSE|TRUE
5685308|La Quinta Inn by Wyndham Phoenix Thomas Road|Glendale, AZ|  83|33.47952|-112.11191|TRUE|FALSE|FALSE|TRUE
5685308|Motel 6 Phoenix, AZ - West|Glendale, AZ|  90|33.46439|-112.17297|TRUE|FALSE|FALSE|TRUE
5685308|The Wigwam|Glendale, AZ| 310|33.49374|-112.35503|FALSE|FALSE|TRUE|TRUE
5685308|Comfort Suites Glendale - State Farm Stadium Area|Glendale, AZ| 136|33.50993|-112.27045|FALSE|TRUE|FALSE|TRUE
5685308|Aloft Glendale at Westgate|Glendale, AZ| 218|33.53637|-112.25928|FALSE|TRUE|TRUE|TRUE
5685308|Home2 Suites by Hilton Glendale - Westgate|Glendale, AZ| 180|33.53138|-112.26659|FALSE|TRUE|TRUE|TRUE
5685337|Springhill Suites Phoenix Glendale Sports & Entertainment District|Glendale, AZ| 154|33.54272|-112.25994|FALSE|TRUE|TRUE|TRUE
5685337|Red Roof Inn PLUS+ Phoenix West|Glendale, AZ|  88|33.46438|-112.17166|TRUE|FALSE|FALSE|TRUE
5685337|The Wigwam|Glendale, AZ| 310|33.49374|-112.35503|FALSE|FALSE|TRUE|TRUE
5685337|Home2 Suites by Hilton Glendale - Westgate|Glendale, AZ| 180|33.53138|-112.26659|FALSE|TRUE|TRUE|TRUE
5685337|HomeTowne Studios Phoenix - Dunlap Ave|Glendale, AZ|  79|33.56842|-112.10440|TRUE|FALSE|FALSE|TRUE
5685337|Hilton Garden Inn Avondale|Glendale, AZ| 177|33.45758|-112.30457|FALSE|FALSE|TRUE|TRUE
5685337|Baymont by Wyndham Phoenix I-10 near 51st Ave|Glendale, AZ|  95|33.46209|-112.17325|TRUE|FALSE|FALSE|TRUE
5685337|Days Hotel by Wyndham Peoria Glendale Area|Glendale, AZ|  95|33.59079|-112.25157|TRUE|TRUE|FALSE|TRUE
5685337|Comfort Suites Glendale - State Farm Stadium Area|Glendale, AZ| 136|33.50993|-112.27045|FALSE|TRUE|FALSE|TRUE
5685337|Staybridge Suites Phoenix - Glendale Sports Dist, an IHG Hotel|Glendale, AZ| 154|33.54119|-112.26119|FALSE|TRUE|TRUE|TRUE
5685337|Super 8 by Wyndham Phoenix West|Glendale, AZ|  65|33.49607|-112.11553|TRUE|FALSE|FALSE|TRUE
5685337|Aloft Glendale at Westgate|Glendale, AZ| 218|33.53637|-112.25928|FALSE|TRUE|TRUE|TRUE
5685337|Residence Inn Phoenix Glendale Sports & Entertainment District|Glendale, AZ| 205|33.54214|-112.26034|FALSE|TRUE|TRUE|TRUE
5685337|Travelers Inn|Glendale, AZ|  96|33.53865|-112.18599|FALSE|TRUE|FALSE|TRUE
5685337|Holiday Inn Hotel Suites Goodyear, an IHG Hotel|Glendale, AZ| 176|33.45917|-112.34189|FALSE|FALSE|TRUE|TRUE
5685337|Courtyard by Marriott Phoenix West/Avondale|Glendale, AZ| 131|33.46610|-112.26699|FALSE|TRUE|FALSE|TRUE
5685337|Red Roof Inn Phoenix - Midtown|Glendale, AZ|  86|33.49583|-112.11374|TRUE|FALSE|FALSE|TRUE
5685337|Travel Inn - In Phoenix (Alhambra)|Glendale, AZ|  80|33.49380|-112.11609|TRUE|FALSE|FALSE|TRUE
5685337|Motel 6 Phoenix, AZ - West|Glendale, AZ|  90|33.46439|-112.17297|TRUE|FALSE|FALSE|TRUE
5685337|Tru By Hilton Phoenix Glendale Westgate, AZ|Glendale, AZ| 158|33.53125|-112.26562|FALSE|TRUE|TRUE|TRUE
5685337|Super 8 by Wyndham Phoenix Metro North|Glendale, AZ|  75|33.55603|-112.11363|TRUE|FALSE|FALSE|TRUE
5685337|Springhill Suites By Marriott Phoenix Glendale Peoria|Glendale, AZ| 183|33.63917|-112.22781|FALSE|FALSE|TRUE|TRUE
5685337|HomeTowne Studios by Red Roof Phoenix - West|Glendale, AZ|  90|33.46438|-112.17166|TRUE|FALSE|FALSE|TRUE
5685337|La Quinta Inn by Wyndham Phoenix Thomas Road|Glendale, AZ|  83|33.47952|-112.11191|TRUE|FALSE|FALSE|TRUE
5685503|Live by Loews, Arlington, TX|Arlington, TX| 321|32.74950| -97.08570|FALSE|TRUE|TRUE|TRUE
5685503|Sleep Inn Arlington Near Six Flags|Arlington, TX|  66|32.75355| -97.06618|TRUE|FALSE|FALSE|TRUE
5685503|SpringHill Suites by Marriott Dallas DFW Airport South/CentrePort|Arlington, TX| 188|32.82729| -97.05926|FALSE|FALSE|TRUE|TRUE
5685503|Baymont by Wyndham Arlington At Six Flags Dr|Arlington, TX|  56|32.75387| -97.06519|TRUE|FALSE|FALSE|TRUE
5685503|Howard Johnson by Wyndham Arlington Ballpark / Six Flags|Arlington, TX|  84|32.75889| -97.07810|FALSE|TRUE|FALSE|TRUE
5685503|Super 8 by Wyndham Irving DFW Airport/South|Arlington, TX|  75|32.83844| -97.01175|TRUE|FALSE|FALSE|TRUE
5685503|OYO Hotel Irving DFW Airport South|Arlington, TX|  69|32.83824| -96.98151|TRUE|FALSE|FALSE|TRUE
5685503|Sheraton Arlington Hotel|Arlington, TX| 224|32.75686| -97.08185|FALSE|TRUE|TRUE|TRUE
5685503|HomeTowne Studios by Red Roof Dallas - Irving|Arlington, TX|  72|32.86436| -96.99415|TRUE|FALSE|FALSE|TRUE
5685503|SpringHill Suites Dallas Arlington North|Arlington, TX| 135|32.76329| -97.07872|FALSE|TRUE|FALSE|TRUE
5685503|Extended Stay America Suites Arlington Six Flags|Arlington, TX|  76|32.76082| -97.06756|TRUE|FALSE|FALSE|TRUE
5685503|Motel 6 Arlington, Tx – Entertainment District|Arlington, TX|  72|32.74876| -97.09796|TRUE|TRUE|FALSE|TRUE
5685503|The Sanford House Inn & Spa|Arlington, TX| 224|32.74326| -97.10726|FALSE|TRUE|TRUE|TRUE
5685503|Embassy Suites by Hilton Dallas DFW Airport South|Arlington, TX| 168|32.83520| -97.02132|FALSE|FALSE|TRUE|TRUE
5685503|Courtyard by Marriott Dallas Arlington/Entertainment Dist|Arlington, TX| 165|32.75760| -97.08895|FALSE|TRUE|TRUE|TRUE
5685503|Extended Stay America Suites Arlington|Arlington, TX|  67|32.73569| -97.10807|TRUE|TRUE|FALSE|TRUE
5685503|Quality Inn at Arlington Highlands|Arlington, TX|  64|32.67999| -97.11338|TRUE|FALSE|FALSE|TRUE
5685503|Holiday Inn Arlington NE-Rangers Ballpark, an IHG Hotel|Arlington, TX| 149|32.76136| -97.09205|FALSE|TRUE|TRUE|TRUE
5685503|Arya Inn & Suites|Arlington, TX|  69|32.83452| -96.99184|TRUE|FALSE|FALSE|TRUE
5685503|Crowne Plaza Suites Arlington - Ballpark - Stadium, an IHG Hotel|Arlington, TX| 138|32.76056| -97.05647|FALSE|FALSE|TRUE|TRUE
5685503|Comfort Suites Arlington - Entertainment District|Arlington, TX| 117|32.75869| -97.11011|FALSE|TRUE|FALSE|TRUE
5685503|Hilton Arlington|Arlington, TX| 195|32.76248| -97.06729|FALSE|FALSE|TRUE|TRUE
5685503|Marriott DFW Airport South|Arlington, TX| 270|32.82344| -97.05717|FALSE|FALSE|TRUE|TRUE
5685506|The Sanford House Inn & Spa|Arlington, TX| 224|32.74326| -97.10726|FALSE|TRUE|TRUE|TRUE
5685506|OYO Hotel Irving DFW Airport South|Arlington, TX|  69|32.83824| -96.98151|TRUE|FALSE|FALSE|TRUE
5685506|Extended Stay America Suites Arlington|Arlington, TX|  67|32.73569| -97.10807|TRUE|TRUE|FALSE|TRUE
5685506|Baymont by Wyndham Arlington At Six Flags Dr|Arlington, TX|  56|32.75387| -97.06519|TRUE|FALSE|FALSE|TRUE
5685506|HomeTowne Studios by Red Roof Dallas - Irving|Arlington, TX|  72|32.86436| -96.99415|TRUE|FALSE|FALSE|TRUE
5685506|Embassy Suites by Hilton Dallas DFW Airport South|Arlington, TX| 168|32.83520| -97.02132|FALSE|FALSE|TRUE|TRUE
5685506|SpringHill Suites Dallas Arlington North|Arlington, TX| 135|32.76329| -97.07872|FALSE|TRUE|FALSE|TRUE
5685506|Arya Inn & Suites|Arlington, TX|  69|32.83452| -96.99184|TRUE|FALSE|FALSE|TRUE
5685506|Quality Inn at Arlington Highlands|Arlington, TX|  64|32.67999| -97.11338|TRUE|FALSE|FALSE|TRUE
5685506|SpringHill Suites by Marriott Dallas DFW Airport South/CentrePort|Arlington, TX| 188|32.82729| -97.05926|FALSE|FALSE|TRUE|TRUE
5685506|Sleep Inn Arlington Near Six Flags|Arlington, TX|  66|32.75355| -97.06618|TRUE|FALSE|FALSE|TRUE
5685506|Live by Loews, Arlington, TX|Arlington, TX| 321|32.74950| -97.08570|FALSE|TRUE|TRUE|TRUE
5685506|Super 8 by Wyndham Irving DFW Airport/South|Arlington, TX|  75|32.83844| -97.01175|TRUE|FALSE|FALSE|TRUE
5685506|Extended Stay America Suites Arlington Six Flags|Arlington, TX|  76|32.76082| -97.06756|TRUE|FALSE|FALSE|TRUE
5685506|Sheraton Arlington Hotel|Arlington, TX| 224|32.75686| -97.08185|FALSE|TRUE|TRUE|TRUE
5685506|Marriott DFW Airport South|Arlington, TX| 270|32.82344| -97.05717|FALSE|FALSE|TRUE|TRUE
5685506|Holiday Inn Arlington NE-Rangers Ballpark, an IHG Hotel|Arlington, TX| 149|32.76136| -97.09205|FALSE|TRUE|TRUE|TRUE
5685506|Motel 6 Arlington, Tx – Entertainment District|Arlington, TX|  72|32.74876| -97.09796|TRUE|TRUE|FALSE|TRUE
5685506|Comfort Suites Arlington - Entertainment District|Arlington, TX| 117|32.75869| -97.11011|FALSE|TRUE|FALSE|TRUE
5685506|Howard Johnson by Wyndham Arlington Ballpark / Six Flags|Arlington, TX|  84|32.75889| -97.07810|FALSE|TRUE|FALSE|TRUE
5685506|Crowne Plaza Suites Arlington - Ballpark - Stadium, an IHG Hotel|Arlington, TX| 138|32.76056| -97.05647|FALSE|FALSE|TRUE|TRUE
5685506|Hilton Arlington|Arlington, TX| 195|32.76248| -97.06729|FALSE|FALSE|TRUE|TRUE
5685506|Courtyard by Marriott Dallas Arlington/Entertainment Dist|Arlington, TX| 165|32.75760| -97.08895|FALSE|TRUE|TRUE|TRUE
5685507|Quality Inn at Arlington Highlands|Arlington, TX|  64|32.67999| -97.11338|TRUE|FALSE|FALSE|TRUE
5685507|Sheraton Arlington Hotel|Arlington, TX| 224|32.75686| -97.08185|FALSE|TRUE|TRUE|TRUE
5685507|Holiday Inn Arlington NE-Rangers Ballpark, an IHG Hotel|Arlington, TX| 149|32.76136| -97.09205|FALSE|TRUE|TRUE|TRUE
5685507|Extended Stay America Suites Arlington Six Flags|Arlington, TX|  76|32.76082| -97.06756|TRUE|FALSE|FALSE|TRUE
5685507|Howard Johnson by Wyndham Arlington Ballpark / Six Flags|Arlington, TX|  84|32.75889| -97.07810|FALSE|TRUE|FALSE|TRUE
5685507|Super 8 by Wyndham Irving DFW Airport/South|Arlington, TX|  75|32.83844| -97.01175|TRUE|FALSE|FALSE|TRUE
5685507|Embassy Suites by Hilton Dallas DFW Airport South|Arlington, TX| 168|32.83520| -97.02132|FALSE|FALSE|TRUE|TRUE
5685507|Extended Stay America Suites Arlington|Arlington, TX|  67|32.73569| -97.10807|TRUE|TRUE|FALSE|TRUE
5685507|SpringHill Suites by Marriott Dallas DFW Airport South/CentrePort|Arlington, TX| 188|32.82729| -97.05926|FALSE|FALSE|TRUE|TRUE
5685507|Motel 6 Arlington, Tx – Entertainment District|Arlington, TX|  72|32.74876| -97.09796|TRUE|TRUE|FALSE|TRUE
5685507|OYO Hotel Irving DFW Airport South|Arlington, TX|  69|32.83824| -96.98151|TRUE|FALSE|FALSE|TRUE
5685507|HomeTowne Studios by Red Roof Dallas - Irving|Arlington, TX|  72|32.86436| -96.99415|TRUE|FALSE|FALSE|TRUE
5685507|Hilton Arlington|Arlington, TX| 195|32.76248| -97.06729|FALSE|FALSE|TRUE|TRUE
5685507|Live by Loews, Arlington, TX|Arlington, TX| 321|32.74950| -97.08570|FALSE|TRUE|TRUE|TRUE
5685507|SpringHill Suites Dallas Arlington North|Arlington, TX| 135|32.76329| -97.07872|FALSE|TRUE|FALSE|TRUE
5685507|Arya Inn & Suites|Arlington, TX|  69|32.83452| -96.99184|TRUE|FALSE|FALSE|TRUE
5685507|The Sanford House Inn & Spa|Arlington, TX| 224|32.74326| -97.10726|FALSE|TRUE|TRUE|TRUE
5685507|Comfort Suites Arlington - Entertainment District|Arlington, TX| 117|32.75869| -97.11011|FALSE|TRUE|FALSE|TRUE
5685507|Crowne Plaza Suites Arlington - Ballpark - Stadium, an IHG Hotel|Arlington, TX| 138|32.76056| -97.05647|FALSE|FALSE|TRUE|TRUE
5685507|Sleep Inn Arlington Near Six Flags|Arlington, TX|  66|32.75355| -97.06618|TRUE|FALSE|FALSE|TRUE
5685507|Marriott DFW Airport South|Arlington, TX| 270|32.82344| -97.05717|FALSE|FALSE|TRUE|TRUE
5685507|Baymont by Wyndham Arlington At Six Flags Dr|Arlington, TX|  56|32.75387| -97.06519|TRUE|FALSE|FALSE|TRUE
5685507|Courtyard by Marriott Dallas Arlington/Entertainment Dist|Arlington, TX| 165|32.75760| -97.08895|FALSE|TRUE|TRUE|TRUE
5689328|OYO Hotel San Antonio Lackland Air Force Base North|San Antonio, TX|  53|29.40426| -98.62365|TRUE|FALSE|FALSE|TRUE
5689328|Quality Inn near SeaWorld - Lackland|San Antonio, TX|  60|29.43952| -98.64256|TRUE|FALSE|FALSE|TRUE
5689328|Deluxe Inn San Antonio|San Antonio, TX|  58|29.40391| -98.62514|TRUE|FALSE|FALSE|TRUE
5689328|Red Roof Inn PLUS+ San Antonio Downtown - Riverwalk|San Antonio, TX|  73|29.42559| -98.48083|FALSE|TRUE|FALSE|TRUE
5689328|Extended Stay SA|San Antonio, TX|  57|29.56888| -98.47979|TRUE|FALSE|FALSE|TRUE
5689328|Marriott San Antonio Riverwalk|San Antonio, TX| 523|29.42235| -98.48450|FALSE|TRUE|TRUE|TRUE
5689328|Crockett Hotel|San Antonio, TX| 136|29.42525| -98.48527|FALSE|TRUE|TRUE|TRUE
5689328|Quality Inn Near Medical Center|San Antonio, TX|  57|29.48781| -98.58071|TRUE|FALSE|FALSE|TRUE
5689328|Flex Studios|San Antonio, TX|  56|29.52851| -98.56124|TRUE|FALSE|FALSE|TRUE
5689328|Hotel Contessa|San Antonio, TX| 232|29.42310| -98.48982|FALSE|TRUE|TRUE|TRUE
5689328|Days Inn by Wyndham San Antonio Alamo/Riverwalk|San Antonio, TX|  62|29.42615| -98.48274|FALSE|TRUE|FALSE|TRUE
5689328|Drury Plaza Hotel San Antonio Riverwalk|San Antonio, TX| 170|29.42427| -98.49201|FALSE|TRUE|TRUE|TRUE
5689328|Super 8 by Wyndham San Antonio Near SeaWorld Ingram Park|San Antonio, TX|  57|29.45276| -98.62805|TRUE|FALSE|FALSE|TRUE
5689328|Star Inn Hotel Seaworld San Antonio|San Antonio, TX|  60|29.46722| -98.61688|TRUE|FALSE|FALSE|TRUE
5689328|Omni La Mansion del Rio|San Antonio, TX| 240|29.42549| -98.49043|FALSE|TRUE|TRUE|TRUE
5689328|Thompson San Antonio – Riverwalk|San Antonio, TX| 352|29.43169| -98.48904|FALSE|FALSE|TRUE|TRUE
5689328|Days Inn by Wyndham San Antonio|San Antonio, TX|  60|29.52344| -98.39550|TRUE|FALSE|FALSE|TRUE
5689328|Days Inn by Wyndham San Antonio at Palo Alto|San Antonio, TX|  55|29.32889| -98.55163|TRUE|FALSE|FALSE|TRUE
5689328|Riverwalk Plaza|San Antonio, TX| 129|29.42926| -98.49250|FALSE|FALSE|TRUE|TRUE
5689328|Mokara Hotel & Spa San Antonio|San Antonio, TX| 272|29.42469| -98.49054|FALSE|TRUE|TRUE|TRUE
5689328|Best Western Premier Historic Travelers Hotel Alamo Riverwalk|San Antonio, TX| 109|29.42809| -98.48717|FALSE|TRUE|TRUE|TRUE
5689328|Econo Lodge|San Antonio, TX|  60|29.57262| -98.59237|TRUE|FALSE|FALSE|TRUE
5689328|Hampton Inn San Antonio-Downtown (River Walk)|San Antonio, TX| 110|29.42567| -98.49281|FALSE|TRUE|TRUE|TRUE
5689330|Sleep Inn University|El Paso, TX|  60|31.81581|-106.55232|TRUE|FALSE|FALSE|TRUE
5689330|Hotel Indigo El Paso Downtown, an IHG Hotel|El Paso, TX| 179|31.76103|-106.48675|FALSE|TRUE|TRUE|TRUE
5689330|Courtyard by Marriott El Paso Downtown/Convention Center|El Paso, TX| 172|31.76068|-106.49244|FALSE|TRUE|TRUE|TRUE
5689330|The Gardner Hotel El Paso|El Paso, TX|  82|31.76192|-106.48800|FALSE|TRUE|FALSE|TRUE
5689330|HI Express El Paso Downtown, an IHG Hotel|El Paso, TX| 144|31.76339|-106.48820|FALSE|TRUE|TRUE|TRUE
5689330|Quality Suites University|El Paso, TX|  54|31.81591|-106.55148|TRUE|FALSE|FALSE|TRUE
5689330|Hotel Conquistador Inn By US Consulate|El Paso, TX|  65|31.69213|-106.40380|TRUE|FALSE|FALSE|TRUE
5689330|Hilton Garden Inn El Paso / University|El Paso, TX| 150|31.77296|-106.50154|FALSE|TRUE|TRUE|TRUE
5689330|Hotel Maripina|El Paso, TX|  42|31.74718|-106.45521|TRUE|FALSE|FALSE|TRUE
5689330|DoubleTree by Hilton El Paso Downtown|El Paso, TX| 150|31.76114|-106.49127|FALSE|TRUE|TRUE|TRUE
5689330|Embassy Suites by Hilton El Paso|El Paso, TX| 206|31.78047|-106.40969|FALSE|FALSE|TRUE|TRUE
5689330|Radisson Hotel El Paso Airport|El Paso, TX| 165|31.79379|-106.39454|FALSE|FALSE|TRUE|TRUE
5689330|Hotel Paso Del Norte, Autograph Collection|El Paso, TX| 210|31.75776|-106.48944|FALSE|TRUE|TRUE|TRUE
5689330|Travelodge by Wyndham El Paso - Airport|El Paso, TX|  63|31.78057|-106.40861|TRUE|FALSE|FALSE|TRUE
5689330|Hotel Chula Vista|El Paso, TX|  60|31.72791|-106.31096|TRUE|FALSE|FALSE|TRUE
5689330|Aloft El Paso Downtown|El Paso, TX| 126|31.75968|-106.48628|FALSE|TRUE|FALSE|TRUE
5689330|Quality Inn & Suites El Paso I-10|El Paso, TX|  60|31.87587|-106.58121|TRUE|FALSE|FALSE|TRUE
5689330|Hotel Colonial Juarez|El Paso, TX|  65|31.74932|-106.45386|TRUE|FALSE|FALSE|TRUE
5689330|Econo Lodge Inn & Suites|El Paso, TX|  65|31.83806|-106.56857|TRUE|FALSE|FALSE|TRUE
5689330|The Plaza Hotel Pioneer Park|El Paso, TX| 239|31.75890|-106.48863|FALSE|TRUE|TRUE|TRUE
5689330|Stanton House|El Paso, TX| 239|31.75957|-106.48687|FALSE|TRUE|TRUE|TRUE
5689330|Quality Inn Airport East|El Paso, TX|  63|31.75060|-106.34471|TRUE|FALSE|FALSE|TRUE
5689332|DoubleTree by Hilton Hotel Tampa Airport - Westshore|Tampa, FL| 109|27.95148| -82.52111|FALSE|TRUE|FALSE|TRUE
5689332|Econo Lodge Busch Gardens|Tampa, FL|  99|28.03202| -82.44045|TRUE|FALSE|FALSE|TRUE
5689332|The Tampa EDITION|Tampa, FL| 680|27.94369| -82.45085|FALSE|FALSE|TRUE|TRUE
5689332|Aloft Tampa Downtown|Tampa, FL| 385|27.94669| -82.46009|FALSE|FALSE|TRUE|TRUE
5689332|Le Méridien Tampa, The Courthouse|Tampa, FL| 430|27.95007| -82.45746|FALSE|FALSE|TRUE|TRUE
5689332|Extended Stay America Suites Tampa Airport Memorial Hwy|Tampa, FL| 102|28.00674| -82.59229|TRUE|FALSE|FALSE|TRUE
5689332|Ramada by Wyndham Tampa Airport Westshore|Tampa, FL| 105|27.95393| -82.52474|TRUE|TRUE|FALSE|TRUE
5689332|Hilton Tampa Airport Westshore|Tampa, FL| 153|27.96260| -82.51278|FALSE|TRUE|FALSE|TRUE
5689332|Tampa Marriott Water Street|Tampa, FL| 455|27.94091| -82.45387|FALSE|FALSE|TRUE|TRUE
5689332|La Quinta Inn by Wyndham Tampa Bay Airport|Tampa, FL| 118|27.95908| -82.52582|FALSE|TRUE|FALSE|TRUE
5689332|La Quinta Inn & Suites by Wyndham Tampa Fairgrounds - Casino|Tampa, FL|  96|27.98951| -82.35775|TRUE|FALSE|FALSE|TRUE
5689332|Extended Stay America Suites Tampa Airport N Westshore Blvd|Tampa, FL| 108|27.95563| -82.52407|TRUE|TRUE|FALSE|TRUE
5689332|Econo Lodge Airport at RJ Stadium|Tampa, FL|  83|27.97587| -82.50333|TRUE|TRUE|FALSE|TRUE
5689332|JW Marriott Tampa Water Street|Tampa, FL| 611|27.94191| -82.45367|FALSE|FALSE|TRUE|TRUE
5689332|Epicurean Hotel, Autograph Collection|Tampa, FL| 512|27.93072| -82.48342|FALSE|FALSE|TRUE|TRUE
5689332|Suburban Studios Airport|Tampa, FL| 108|27.99615| -82.55702|TRUE|FALSE|FALSE|TRUE
5689332|Hyatt House Tampa Airport Westshore|Tampa, FL| 181|27.95692| -82.53262|FALSE|FALSE|TRUE|TRUE
5689332|Quality Inn & Suites Near Fairgrounds Ybor City|Tampa, FL| 100|27.96827| -82.40370|TRUE|FALSE|FALSE|TRUE
5689332|Extended Stay America Suites Tampa Airport Spruce Street|Tampa, FL| 108|27.95890| -82.51729|TRUE|TRUE|FALSE|TRUE
5689332|Hyatt Place Tampa Airport/Westshore|Tampa, FL| 171|27.95748| -82.52591|FALSE|TRUE|TRUE|TRUE
5689332|Extended Stay America Suites Tampa North Airport|Tampa, FL|  97|27.99748| -82.54671|TRUE|FALSE|FALSE|TRUE
5689332|The Westin Tampa Waterside|Tampa, FL| 407|27.93847| -82.45489|FALSE|FALSE|TRUE|TRUE
5689332|Marriott Tampa Westshore|Tampa, FL| 202|27.95304| -82.52309|FALSE|TRUE|TRUE|TRUE
5689332|Holiday Inn Tampa Westshore - Airport Area, an IHG Hotel|Tampa, FL| 154|27.95161| -82.52501|FALSE|TRUE|FALSE|TRUE
5692975|Royal Century Hotel|Inglewood, CA|  92|33.94491|-118.35159|FALSE|TRUE|FALSE|TRUE
5692975|Hollywood Inn Suites Hotel|Inglewood, CA|  82|33.91615|-118.29309|TRUE|FALSE|FALSE|TRUE
5692975|H3 Inn & Suites - LAX Airport - Los Angeles|Inglewood, CA|  97|33.94569|-118.36044|FALSE|TRUE|FALSE|TRUE
5692975|L'Ermitage Beverly Hills|Inglewood, CA| 804|34.07254|-118.39540|FALSE|FALSE|TRUE|TRUE
5692975|The Maybourne Beverly Hills|Inglewood, CA|1396|34.06797|-118.39875|FALSE|FALSE|TRUE|TRUE
5692975|LAX Stadium Inn - El Segundo/Inglewood|Inglewood, CA|  86|33.93112|-118.35535|TRUE|TRUE|FALSE|TRUE
5692975|The Ritz-Carlton, Marina del Rey|Inglewood, CA|1163|33.98426|-118.45068|FALSE|FALSE|TRUE|TRUE
5692975|Stuart Hotel - Near Good Samaritan Hospital|Inglewood, CA|  87|34.05326|-118.27140|TRUE|FALSE|FALSE|TRUE
5692975|Beverly Wilshire - Beverly Hills, A Four Seasons Hotel|Inglewood, CA|1111|34.06674|-118.40077|FALSE|FALSE|TRUE|TRUE
5692975|Hollywood Guest Inn|Inglewood, CA|  86|34.09773|-118.33696|TRUE|FALSE|FALSE|TRUE
5692975|Central Inn Motel on 41 Street|Inglewood, CA|  74|34.00935|-118.25629|TRUE|FALSE|FALSE|TRUE
5692975|The Beverly Hills Hotel|Inglewood, CA|1571|33.96168|-118.35313|FALSE|TRUE|TRUE|TRUE
5692975|1 Hotel West Hollywood|Inglewood, CA| 577|34.09407|-118.37570|FALSE|FALSE|TRUE|TRUE
5692975|Best Western Airpark Hotel-Los Angeles LAX Airport|Inglewood, CA| 133|33.96142|-118.36778|FALSE|TRUE|FALSE|TRUE
5692975|La Quinta Inn & Suites by Wyndham Inglewood|Inglewood, CA| 117|33.93125|-118.34332|FALSE|TRUE|FALSE|TRUE
5692975|Best Western Plus Suites Hotel - Los Angeles LAX Airport|Inglewood, CA| 167|33.94579|-118.36570|FALSE|TRUE|FALSE|TRUE
5692975|Casa Del Mar|Inglewood, CA| 897|34.00627|-118.49147|FALSE|FALSE|TRUE|TRUE
5692975|Central Inn Motel|Inglewood, CA|  87|34.00935|-118.25629|TRUE|FALSE|FALSE|TRUE
5692975|Park Motel|Inglewood, CA|  74|34.00815|-118.28303|TRUE|FALSE|FALSE|TRUE
5692975|Antonio Hotel|Inglewood, CA|  86|33.96168|-118.35313|TRUE|TRUE|FALSE|TRUE
5692975|Four Seasons Los Angeles at Beverly Hills|Inglewood, CA|1197|34.07305|-118.38934|FALSE|FALSE|TRUE|TRUE
5692975|Wingate by Wyndham Los Angeles International Airport LAX|Inglewood, CA|  86|33.94273|-118.36961|TRUE|FALSE|FALSE|TRUE
5692975|Redondo Beach Inn|Inglewood, CA|  83|33.88725|-118.31193|TRUE|FALSE|FALSE|TRUE
5692975|Quality Inn & Suites Los Angeles Airport - LAX|Inglewood, CA| 107|33.94493|-118.36455|FALSE|TRUE|FALSE|TRUE
5692975|The Peninsula Beverly Hills|Inglewood, CA|1041|34.06576|-118.41072|FALSE|FALSE|TRUE|TRUE
5692975|Shutters on the Beach|Inglewood, CA| 955|34.00692|-118.49169|FALSE|FALSE|TRUE|TRUE
5692975|Holiday Inn Los Angeles - LAX Airport, an IHG Hotel|Inglewood, CA| 132|33.94620|-118.37092|FALSE|TRUE|FALSE|TRUE
5693185|The Ivey's Hotel|Charlotte, NC| 448|35.22849| -80.84281|FALSE|TRUE|TRUE|TRUE
5693185|Microtel Inn & Suites by Wyndham Charlotte/Northlake|Charlotte, NC|  72|35.30574| -80.85259|TRUE|FALSE|FALSE|TRUE
5693185|The Westin Charlotte|Charlotte, NC| 174|35.22210| -80.84727|FALSE|TRUE|FALSE|TRUE
5693185|Sleep Inn Airport - Billy Graham Parkway|Charlotte, NC|  80|35.17971| -80.89302|TRUE|FALSE|FALSE|TRUE
5693185|Rodeway Inn Charlotte Airport Area|Charlotte, NC|  70|35.24074| -80.91852|TRUE|FALSE|FALSE|TRUE
5693185|Hyatt Place Charlotte Downtown|Charlotte, NC| 186|35.22258| -80.84108|FALSE|TRUE|TRUE|TRUE
5693185|Fairfield Inn and Suites by Marriott Charlotte Airport|Charlotte, NC| 635|35.18159| -80.91447|FALSE|FALSE|TRUE|TRUE
5693185|La Quinta Inn & Suites by Wyndham Charlotte Airport South|Charlotte, NC|  82|35.17927| -80.89213|TRUE|FALSE|FALSE|TRUE
5693185|DoubleTree by Hilton Hotel Charlotte|Charlotte, NC| 181|35.23307| -80.85196|FALSE|TRUE|FALSE|TRUE
5693185|Kimpton Tryon Park Hotel, an IHG Hotel|Charlotte, NC| 294|35.22642| -80.84637|FALSE|TRUE|TRUE|TRUE
5693185|Quality Inn Airport South|Charlotte, NC|  77|35.18012| -80.88358|TRUE|FALSE|FALSE|TRUE
5693185|Hilton Charlotte Uptown|Charlotte, NC| 225|35.22393| -80.84377|FALSE|TRUE|TRUE|TRUE
5693185|Sheraton Charlotte Hotel|Charlotte, NC| 186|35.21646| -80.83754|FALSE|FALSE|TRUE|TRUE
5693185|Quality Inn & Suites Airport|Charlotte, NC|  82|35.23971| -80.91740|TRUE|FALSE|FALSE|TRUE
5693185|Home2 Suites by Hilton Charlotte Uptown, NC|Charlotte, NC| 166|35.22028| -80.84572|FALSE|TRUE|FALSE|TRUE
5693185|Quality Suites Pineville - Charlotte|Charlotte, NC|  78|35.08548| -80.88408|TRUE|FALSE|FALSE|TRUE
5693185|Baymont by Wyndham Charlotte University|Charlotte, NC|  77|35.28065| -80.79062|TRUE|FALSE|FALSE|TRUE
5693185|Omni Charlotte Hotel|Charlotte, NC| 229|35.22622| -80.84263|FALSE|TRUE|TRUE|TRUE
5693185|La Quinta Inn & Suites by Wyndham Charlotte Airport North|Charlotte, NC|  72|35.24120| -80.92062|TRUE|FALSE|FALSE|TRUE
5693185|Grand Bohemian Hotel Charlotte, Autograph Collection|Charlotte, NC| 577|35.22818| -80.84444|FALSE|TRUE|TRUE|TRUE
5693185|HYATT house Charlotte/Center City|Charlotte, NC| 203|35.22419| -80.83905|FALSE|FALSE|TRUE|TRUE
5693185|Royal Inn Charlotte Airport Hotel|Charlotte, NC|  78|35.23542| -80.91795|TRUE|FALSE|FALSE|TRUE
5693185|Suburban Studios Charlotte-Ballantyne|Charlotte, NC|  78|35.09420| -80.86364|TRUE|FALSE|FALSE|TRUE
5693185|SpringHill Suites by Marriott Charlotte Uptown|Charlotte, NC| 205|35.22637| -80.83919|FALSE|FALSE|TRUE|TRUE
5693185|Hilton Garden Inn Charlotte Uptown|Charlotte, NC| 180|35.22065| -80.84303|FALSE|TRUE|FALSE|TRUE
5695225|Grand Beach Hotel Surfside|Miami Gardens, FL| 502|25.88445| -80.12222|FALSE|FALSE|TRUE|TRUE
5695225|The Ritz-Carlton Bal Harbour, Miami|Miami Gardens, FL| 943|25.89900| -80.12330|FALSE|FALSE|TRUE|TRUE
5695225|Trump International Beach Resort|Miami Gardens, FL| 470|25.94320| -80.12061|FALSE|FALSE|TRUE|TRUE
5695225|May-Dee Suites|Miami Gardens, FL| 112|26.01073| -80.19495|FALSE|TRUE|FALSE|TRUE
5695225|Miami Lakes Hotel|Miami Gardens, FL| 123|25.91206| -80.31126|FALSE|TRUE|FALSE|TRUE
5695225|The Oasis Tower at Seminole Hard Rock|Miami Gardens, FL| 573|26.05187| -80.21052|FALSE|FALSE|TRUE|TRUE
5695225|Red Carpet Inn Airport/Cruiseport|Miami Gardens, FL|  73|26.08635| -80.17466|TRUE|FALSE|FALSE|TRUE
5695225|Hollywood Beach Suites, a South Beach Group Hotel|Miami Gardens, FL|  90|25.77903| -80.13172|TRUE|FALSE|FALSE|TRUE
5695225|Best Western Plus Hollywood/Aventura|Miami Gardens, FL| 144|25.98591| -80.16482|FALSE|TRUE|FALSE|TRUE
5695225|Seminole Hard Rock Hotel and Casino|Miami Gardens, FL| 486|26.05082| -80.21155|FALSE|FALSE|TRUE|TRUE
5695225|The St. Regis Bal Harbour Resort|Miami Gardens, FL|1132|25.88909| -80.12241|FALSE|FALSE|TRUE|TRUE
5695225|Acqualina Resort & Residences On The Beach|Miami Gardens, FL|1130|25.94082| -80.12092|FALSE|FALSE|TRUE|TRUE
5695225|Miami Gardens Inn & Suites|Miami Gardens, FL| 121|25.94204| -80.24560|FALSE|TRUE|FALSE|TRUE
5695225|Hollywood Beach Hotels|Miami Gardens, FL|  92|25.94204| -80.24560|TRUE|TRUE|FALSE|TRUE
5695225|Stadium Hotel|Miami Gardens, FL| 134|25.95790| -80.23885|FALSE|TRUE|FALSE|TRUE
5695225|Sonesta Select Miami Lakes|Miami Gardens, FL| 146|25.91614| -80.32612|FALSE|TRUE|FALSE|TRUE
5695225|Grand Palms Spa & Golf Resort|Miami Gardens, FL|  95|26.00016| -80.35079|TRUE|FALSE|FALSE|TRUE
5695225|Hollywood Beachside Boutique Suites|Miami Gardens, FL| 111|26.01577| -80.11704|TRUE|FALSE|FALSE|TRUE
5695225|SpringHill Suites by Marriott Fort Lauderdale Miramar|Miami Gardens, FL| 180|25.97424| -80.29263|FALSE|TRUE|FALSE|TRUE
5695225|WoodSpring Suites Miramar|Miami Gardens, FL| 124|25.97539| -80.29685|FALSE|TRUE|FALSE|TRUE
5695225|The Clevelander|Miami Gardens, FL| 102|25.78078| -80.13098|TRUE|FALSE|FALSE|TRUE
5695225|Greniers|Miami Gardens, FL|  95|26.02505| -80.11578|TRUE|FALSE|FALSE|TRUE
5695225|Thunderbird Hotel|Miami Gardens, FL| 111|25.94204| -80.24560|TRUE|TRUE|FALSE|TRUE
5695225|Casa Pellegrino|Miami Gardens, FL|  94|26.02446| -80.11617|TRUE|FALSE|FALSE|TRUE
5695225|Curtis Inn & Suites|Miami Gardens, FL| 102|25.99833| -80.14250|TRUE|FALSE|FALSE|TRUE
5695225|Holiday Inn Miami West - Airport Area, an IHG Hotel|Miami Gardens, FL| 105|25.86764| -80.32409|TRUE|FALSE|FALSE|TRUE
5695225|Margaritaville Hollywood Beach Resort|Miami Gardens, FL| 454|26.01878| -80.11674|FALSE|FALSE|TRUE|TRUE
5695225|Four Seasons Hotel at The Surf Club|Miami Gardens, FL|1177|25.87772| -80.12142|FALSE|FALSE|TRUE|TRUE
5695225|Private Ocean Condos at Marenas Beach|Miami Gardens, FL| 590|25.94916| -80.11988|FALSE|FALSE|TRUE|TRUE
5695240|The Ritz-Carlton Bal Harbour, Miami|Miami Gardens, FL| 943|25.89900| -80.12330|FALSE|FALSE|TRUE|TRUE
5695240|May-Dee Suites|Miami Gardens, FL| 112|26.01073| -80.19495|FALSE|TRUE|FALSE|TRUE
5695240|Sonesta Select Miami Lakes|Miami Gardens, FL| 146|25.91614| -80.32612|FALSE|TRUE|FALSE|TRUE
5695240|Seminole Hard Rock Hotel and Casino|Miami Gardens, FL| 486|26.05082| -80.21155|FALSE|FALSE|TRUE|TRUE
5695240|Miami Lakes Hotel|Miami Gardens, FL| 123|25.91206| -80.31126|FALSE|TRUE|FALSE|TRUE
5695240|Hollywood Beach Suites, a South Beach Group Hotel|Miami Gardens, FL|  90|25.77903| -80.13172|TRUE|FALSE|FALSE|TRUE
5695240|The Oasis Tower at Seminole Hard Rock|Miami Gardens, FL| 573|26.05187| -80.21052|FALSE|FALSE|TRUE|TRUE
5695240|Hollywood Beach Hotels|Miami Gardens, FL|  92|25.94204| -80.24560|TRUE|TRUE|FALSE|TRUE
5695240|Miami Gardens Inn & Suites|Miami Gardens, FL| 121|25.94204| -80.24560|FALSE|TRUE|FALSE|TRUE
5695240|Stadium Hotel|Miami Gardens, FL| 134|25.95790| -80.23885|FALSE|TRUE|FALSE|TRUE
5695240|WoodSpring Suites Miramar|Miami Gardens, FL| 124|25.97539| -80.29685|FALSE|TRUE|FALSE|TRUE
5695240|Margaritaville Hollywood Beach Resort|Miami Gardens, FL| 454|26.01878| -80.11674|FALSE|FALSE|TRUE|TRUE
5695240|Best Western Plus Hollywood/Aventura|Miami Gardens, FL| 144|25.98591| -80.16482|FALSE|TRUE|FALSE|TRUE
5695240|Hollywood Beachside Boutique Suites|Miami Gardens, FL| 111|26.01577| -80.11704|TRUE|FALSE|FALSE|TRUE
5695240|Trump International Beach Resort|Miami Gardens, FL| 470|25.94320| -80.12061|FALSE|FALSE|TRUE|TRUE
5695240|The Clevelander|Miami Gardens, FL| 102|25.78078| -80.13098|TRUE|FALSE|FALSE|TRUE
5695240|Curtis Inn & Suites|Miami Gardens, FL| 102|25.99833| -80.14250|TRUE|FALSE|FALSE|TRUE
5695240|Grand Palms Spa & Golf Resort|Miami Gardens, FL|  95|26.00016| -80.35079|TRUE|FALSE|FALSE|TRUE
5695240|Holiday Inn Miami West - Airport Area, an IHG Hotel|Miami Gardens, FL| 105|25.86764| -80.32409|TRUE|FALSE|FALSE|TRUE
5695240|The St. Regis Bal Harbour Resort|Miami Gardens, FL|1132|25.88909| -80.12241|FALSE|FALSE|TRUE|TRUE
5695240|Four Seasons Hotel at The Surf Club|Miami Gardens, FL|1177|25.87772| -80.12142|FALSE|FALSE|TRUE|TRUE
5695240|Grand Beach Hotel Surfside|Miami Gardens, FL| 502|25.88445| -80.12222|FALSE|FALSE|TRUE|TRUE
5695240|Casa Pellegrino|Miami Gardens, FL|  94|26.02446| -80.11617|TRUE|FALSE|FALSE|TRUE
5695240|Acqualina Resort & Residences On The Beach|Miami Gardens, FL|1130|25.94082| -80.12092|FALSE|FALSE|TRUE|TRUE
5695240|Greniers|Miami Gardens, FL|  95|26.02505| -80.11578|TRUE|FALSE|FALSE|TRUE
5695240|SpringHill Suites by Marriott Fort Lauderdale Miramar|Miami Gardens, FL| 180|25.97424| -80.29263|FALSE|TRUE|FALSE|TRUE
5695240|Red Carpet Inn Airport/Cruiseport|Miami Gardens, FL|  73|26.08635| -80.17466|TRUE|FALSE|FALSE|TRUE
5695240|Private Ocean Condos at Marenas Beach|Miami Gardens, FL| 590|25.94916| -80.11988|FALSE|FALSE|TRUE|TRUE
5695240|Thunderbird Hotel|Miami Gardens, FL| 111|25.94204| -80.24560|TRUE|TRUE|FALSE|TRUE
5695243|Found Hotel Chicago River North|Chicago, IL| 104|41.89287| -87.63377|TRUE|FALSE|FALSE|TRUE
5695243|Club Quarters Hotel, Central Loop, Chicago|Chicago, IL| 167|41.87927| -87.63119|FALSE|TRUE|FALSE|TRUE
5695243|Canopy by Hilton Chicago Central Loop|Chicago, IL| 370|41.87821| -87.63427|FALSE|TRUE|FALSE|TRUE
5695243|Residence Inn Chicago Downtown/Loop|Chicago, IL| 410|41.88159| -87.63210|FALSE|TRUE|FALSE|TRUE
5695243|Waldorf Astoria Chicago|Chicago, IL| 683|41.89974| -87.62748|FALSE|FALSE|TRUE|TRUE
5695243|Homewood Suites by Hilton Chicago Downtown South Loop|Chicago, IL| 141|41.86915| -87.62561|FALSE|TRUE|FALSE|TRUE
5695243|Park Hyatt Chicago|Chicago, IL| 523|41.89724| -87.62527|FALSE|FALSE|TRUE|TRUE
5695243|Best Western River North Hotel|Chicago, IL| 115|41.89211| -87.63208|TRUE|FALSE|FALSE|TRUE
5695243|Hilton Garden Inn Chicago McCormick Place|Chicago, IL| 433|41.85270| -87.62268|FALSE|TRUE|FALSE|TRUE
5695243|Heart O' Chicago|Chicago, IL| 115|41.99042| -87.67239|TRUE|FALSE|FALSE|TRUE
5695243|The LaSalle Chicago, Autograph Collection|Chicago, IL| 443|41.87915| -87.63247|FALSE|TRUE|FALSE|TRUE
5695243|The Ritz-Carlton, Chicago|Chicago, IL| 574|41.89782| -87.62228|FALSE|FALSE|TRUE|TRUE
5695243|The Whitehall Hotel|Chicago, IL|  99|41.89891| -87.62571|TRUE|FALSE|FALSE|TRUE
5695243|Hyatt Regency Chicago|Chicago, IL| 202|41.88745| -87.62284|FALSE|TRUE|FALSE|TRUE
5695243|Hotel Versey Days Inn by Wyndham Chicago|Chicago, IL|  99|41.93294| -87.64557|TRUE|FALSE|FALSE|TRUE
5695243|Hampton Inn Chicago Downtown West Loop|Chicago, IL| 589|41.88384| -87.64307|FALSE|FALSE|TRUE|TRUE
5695243|CitizenM Chicago Downtown|Chicago, IL| 187|41.88696| -87.62505|FALSE|TRUE|FALSE|TRUE
5695243|The Peninsula Chicago|Chicago, IL| 675|41.89620| -87.62515|FALSE|FALSE|TRUE|TRUE
5695243|Homewood Suites by Hilton Chicago Downtown West Loop|Chicago, IL| 600|41.88386| -87.64314|FALSE|FALSE|TRUE|TRUE
5695243|The Langham, Chicago|Chicago, IL| 518|41.88842| -87.62751|FALSE|FALSE|TRUE|TRUE
5695243|Hampton Inn Chicago Downtown/Magnificent Mile|Chicago, IL| 112|41.89519| -87.62305|TRUE|FALSE|FALSE|TRUE
5695243|Sleep Inn Midway Airport Bedford Park|Chicago, IL| 109|41.77166| -87.74262|TRUE|FALSE|FALSE|TRUE
5695243|The Majestic Hotel|Chicago, IL| 104|41.94752| -87.64420|TRUE|FALSE|FALSE|TRUE
5695243|Nobu Hotel Chicago|Chicago, IL| 488|41.88473| -87.64949|FALSE|FALSE|TRUE|TRUE
5695243|JW Marriott Chicago|Chicago, IL| 562|41.87907| -87.63301|FALSE|TRUE|TRUE|TRUE
5695243|Hotel BnB-2|Chicago, IL|  92|41.89585| -87.63797|TRUE|FALSE|FALSE|TRUE
5695243|Congress Plaza Hotel|Chicago, IL| 189|41.87491| -87.62482|FALSE|TRUE|FALSE|TRUE
5695243|Selina Chicago|Chicago, IL| 102|41.89848| -87.62562|TRUE|FALSE|FALSE|TRUE
5695243|Four Seasons Hotel Chicago|Chicago, IL| 575|41.89961| -87.62488|FALSE|FALSE|TRUE|TRUE
5695255|The Langham, Chicago|Chicago, IL| 518|41.88842| -87.62751|FALSE|FALSE|TRUE|TRUE
5695255|Best Western River North Hotel|Chicago, IL| 115|41.89211| -87.63208|TRUE|FALSE|FALSE|TRUE
5695255|The Majestic Hotel|Chicago, IL| 104|41.94752| -87.64420|TRUE|FALSE|FALSE|TRUE
5695255|Residence Inn Chicago Downtown/Loop|Chicago, IL| 410|41.88159| -87.63210|FALSE|TRUE|FALSE|TRUE
5695255|Four Seasons Hotel Chicago|Chicago, IL| 575|41.89961| -87.62488|FALSE|FALSE|TRUE|TRUE
5695255|The Ritz-Carlton, Chicago|Chicago, IL| 574|41.89782| -87.62228|FALSE|FALSE|TRUE|TRUE
5695255|Selina Chicago|Chicago, IL| 102|41.89848| -87.62562|TRUE|FALSE|FALSE|TRUE
5695255|Waldorf Astoria Chicago|Chicago, IL| 683|41.89974| -87.62748|FALSE|FALSE|TRUE|TRUE
5695255|CitizenM Chicago Downtown|Chicago, IL| 187|41.88696| -87.62505|FALSE|TRUE|FALSE|TRUE
5695255|Hampton Inn Chicago Downtown West Loop|Chicago, IL| 589|41.88384| -87.64307|FALSE|FALSE|TRUE|TRUE
5695255|Sleep Inn Midway Airport Bedford Park|Chicago, IL| 109|41.77166| -87.74262|TRUE|FALSE|FALSE|TRUE
5695255|Hampton Inn Chicago Downtown/Magnificent Mile|Chicago, IL| 112|41.89519| -87.62305|TRUE|FALSE|FALSE|TRUE
5695255|The Whitehall Hotel|Chicago, IL|  99|41.89891| -87.62571|TRUE|FALSE|FALSE|TRUE
5695255|Club Quarters Hotel, Central Loop, Chicago|Chicago, IL| 167|41.87927| -87.63119|FALSE|TRUE|FALSE|TRUE
5695255|JW Marriott Chicago|Chicago, IL| 562|41.87907| -87.63301|FALSE|TRUE|TRUE|TRUE
5695255|Found Hotel Chicago River North|Chicago, IL| 104|41.89287| -87.63377|TRUE|FALSE|FALSE|TRUE
5695255|The Peninsula Chicago|Chicago, IL| 675|41.89620| -87.62515|FALSE|FALSE|TRUE|TRUE
5695255|Park Hyatt Chicago|Chicago, IL| 523|41.89724| -87.62527|FALSE|FALSE|TRUE|TRUE
5695255|Nobu Hotel Chicago|Chicago, IL| 488|41.88473| -87.64949|FALSE|FALSE|TRUE|TRUE
5695255|Congress Plaza Hotel|Chicago, IL| 189|41.87491| -87.62482|FALSE|TRUE|FALSE|TRUE
5695255|Canopy by Hilton Chicago Central Loop|Chicago, IL| 370|41.87821| -87.63427|FALSE|TRUE|FALSE|TRUE
5695255|Homewood Suites by Hilton Chicago Downtown West Loop|Chicago, IL| 600|41.88386| -87.64314|FALSE|FALSE|TRUE|TRUE
5695255|Hotel Versey Days Inn by Wyndham Chicago|Chicago, IL|  99|41.93294| -87.64557|TRUE|FALSE|FALSE|TRUE
5695255|Hotel BnB-2|Chicago, IL|  92|41.89585| -87.63797|TRUE|FALSE|FALSE|TRUE
5695255|Hilton Garden Inn Chicago McCormick Place|Chicago, IL| 433|41.85270| -87.62268|FALSE|TRUE|FALSE|TRUE
5695255|Homewood Suites by Hilton Chicago Downtown South Loop|Chicago, IL| 141|41.86915| -87.62561|FALSE|TRUE|FALSE|TRUE
5695255|Heart O' Chicago|Chicago, IL| 115|41.99042| -87.67239|TRUE|FALSE|FALSE|TRUE
5695255|Hyatt Regency Chicago|Chicago, IL| 202|41.88745| -87.62284|FALSE|TRUE|FALSE|TRUE
5695255|The LaSalle Chicago, Autograph Collection|Chicago, IL| 443|41.87915| -87.63247|FALSE|TRUE|FALSE|TRUE
5695257|Congress Plaza Hotel|Chicago, IL| 189|41.87491| -87.62482|FALSE|TRUE|FALSE|TRUE
5695257|Hotel BnB-2|Chicago, IL|  92|41.89585| -87.63797|TRUE|FALSE|FALSE|TRUE
5695257|Residence Inn Chicago Downtown/Loop|Chicago, IL| 410|41.88159| -87.63210|FALSE|TRUE|FALSE|TRUE
5695257|Selina Chicago|Chicago, IL| 102|41.89848| -87.62562|TRUE|FALSE|FALSE|TRUE
5695257|Canopy by Hilton Chicago Central Loop|Chicago, IL| 370|41.87821| -87.63427|FALSE|TRUE|FALSE|TRUE
5695257|Homewood Suites by Hilton Chicago Downtown West Loop|Chicago, IL| 600|41.88386| -87.64314|FALSE|FALSE|TRUE|TRUE
5695257|Nobu Hotel Chicago|Chicago, IL| 488|41.88473| -87.64949|FALSE|FALSE|TRUE|TRUE
5695257|Hampton Inn Chicago Downtown/Magnificent Mile|Chicago, IL| 112|41.89519| -87.62305|TRUE|FALSE|FALSE|TRUE
5695257|Four Seasons Hotel Chicago|Chicago, IL| 575|41.89961| -87.62488|FALSE|FALSE|TRUE|TRUE
5695257|Found Hotel Chicago River North|Chicago, IL| 104|41.89287| -87.63377|TRUE|FALSE|FALSE|TRUE
5695257|Homewood Suites by Hilton Chicago Downtown South Loop|Chicago, IL| 141|41.86915| -87.62561|FALSE|TRUE|FALSE|TRUE
5695257|Club Quarters Hotel, Central Loop, Chicago|Chicago, IL| 167|41.87927| -87.63119|FALSE|TRUE|FALSE|TRUE
5695257|The Majestic Hotel|Chicago, IL| 104|41.94752| -87.64420|TRUE|FALSE|FALSE|TRUE
5695257|Best Western River North Hotel|Chicago, IL| 115|41.89211| -87.63208|TRUE|FALSE|FALSE|TRUE
5695257|The Ritz-Carlton, Chicago|Chicago, IL| 574|41.89782| -87.62228|FALSE|FALSE|TRUE|TRUE
5695257|Park Hyatt Chicago|Chicago, IL| 523|41.89724| -87.62527|FALSE|FALSE|TRUE|TRUE
5695257|Hyatt Regency Chicago|Chicago, IL| 202|41.88745| -87.62284|FALSE|TRUE|FALSE|TRUE
5695257|Hampton Inn Chicago Downtown West Loop|Chicago, IL| 589|41.88384| -87.64307|FALSE|FALSE|TRUE|TRUE
5695257|Hotel Versey Days Inn by Wyndham Chicago|Chicago, IL|  99|41.93294| -87.64557|TRUE|FALSE|FALSE|TRUE
5695257|The Whitehall Hotel|Chicago, IL|  99|41.89891| -87.62571|TRUE|FALSE|FALSE|TRUE
5695257|Heart O' Chicago|Chicago, IL| 115|41.99042| -87.67239|TRUE|FALSE|FALSE|TRUE
5695257|JW Marriott Chicago|Chicago, IL| 562|41.87907| -87.63301|FALSE|TRUE|TRUE|TRUE
5695257|Waldorf Astoria Chicago|Chicago, IL| 683|41.89974| -87.62748|FALSE|FALSE|TRUE|TRUE
5695257|Sleep Inn Midway Airport Bedford Park|Chicago, IL| 109|41.77166| -87.74262|TRUE|FALSE|FALSE|TRUE
5695257|CitizenM Chicago Downtown|Chicago, IL| 187|41.88696| -87.62505|FALSE|TRUE|FALSE|TRUE
5695257|The LaSalle Chicago, Autograph Collection|Chicago, IL| 443|41.87915| -87.63247|FALSE|TRUE|FALSE|TRUE
5695257|The Peninsula Chicago|Chicago, IL| 675|41.89620| -87.62515|FALSE|FALSE|TRUE|TRUE
