id|name|city|price|lat|long|p|t|l|fresh
5655669|La Quinta Inn & Suites by Wyndham Sunrise Sawgrass Mills|Sunrise, FL| 232|26.12446| -80.33143|FALSE|TRUE|TRUE|TRUE
5655669|Extended Stay America Suites Fort Lauderdale Tamarac|Sunrise, FL| 177|26.20169| -80.15288|TRUE|FALSE|FALSE|TRUE
5655669|Hampton Inn Weston Ft. Lauderdale|Sunrise, FL| 243|26.09278| -80.36766|FALSE|TRUE|TRUE|TRUE
5655669|Staybridge Suites Fort Lauderdale Airport - West, an IHG Hotel|Sunrise, FL| 348|26.06453| -80.21240|FALSE|FALSE|TRUE|TRUE
5655669|La Quinta Inn by Wyndham Ft. Lauderdale Tamarac East|Sunrise, FL| 165|26.18564| -80.19984|TRUE|FALSE|FALSE|TRUE
5655669|Courtyard by Marriott Fort Lauderdale Weston|Sunrise, FL| 219|26.09226| -80.36518|TRUE|TRUE|TRUE|TRUE
5655669|DoubleTree by Hilton Hotel Sunrise - Sawgrass Mills|Sunrise, FL| 270|26.14457| -80.32544|FALSE|TRUE|TRUE|TRUE
5655669|Sheraton Suites Fort Lauderdale Plantation|Sunrise, FL| 213|26.12410| -80.25664|TRUE|TRUE|TRUE|TRUE
5655669|Renaissance Fort Lauderdale West Hotel|Sunrise, FL| 233|26.10388| -80.26272|FALSE|TRUE|TRUE|TRUE
5655669|WoodSpring Suites Tamarac|Sunrise, FL| 209|26.19447| -80.29301|TRUE|TRUE|FALSE|TRUE
5655669|Chateau Mar Golf Resort, Trademark Collection by Wyndham|Sunrise, FL| 197|26.16978| -80.23631|TRUE|FALSE|FALSE|TRUE
5655669|Hampton Inn Ft Lauderdale-Plantation|Sunrise, FL| 223|26.11410| -80.25601|FALSE|TRUE|TRUE|TRUE
5655669|Courtyard By Marriott Fort Lauderdale Coral Springs|Sunrise, FL| 212|26.23842| -80.25681|TRUE|FALSE|FALSE|TRUE
5655669|AC Hotel Fort Lauderdale Sawgrass Mills / Sunrise|Sunrise, FL| 272|26.15016| -80.31874|FALSE|TRUE|TRUE|TRUE
5655669|HomeTowne Studios by Red Roof Fort Lauderdale|Sunrise, FL| 113|26.18739| -80.18639|TRUE|FALSE|FALSE|TRUE
5655669|Plaza Hotel Fort Lauderdale|Sunrise, FL| 148|26.18931| -80.20270|TRUE|FALSE|FALSE|TRUE
5655669|La Quinta Inn & Suites by Wyndham Sunrise|Sunrise, FL| 232|26.12339| -80.33189|FALSE|TRUE|TRUE|TRUE
5655669|Extended Stay America Suites Fort Lauderdale Plantation|Sunrise, FL| 193|26.20169| -80.15288|TRUE|FALSE|FALSE|TRUE
5655671|HomeTowne Studios by Red Roof Fort Lauderdale|Sunrise, FL| 113|26.18739| -80.18639|TRUE|FALSE|FALSE|TRUE
5655671|Extended Stay America Suites Fort Lauderdale Plantation|Sunrise, FL| 193|26.20169| -80.15288|TRUE|FALSE|FALSE|TRUE
5655671|Staybridge Suites Fort Lauderdale Airport - West, an IHG Hotel|Sunrise, FL| 348|26.06453| -80.21240|FALSE|FALSE|TRUE|TRUE
5655671|Extended Stay America Suites Fort Lauderdale Tamarac|Sunrise, FL| 177|26.20169| -80.15288|TRUE|FALSE|FALSE|TRUE
5655671|DoubleTree by Hilton Hotel Sunrise - Sawgrass Mills|Sunrise, FL| 270|26.14457| -80.32544|FALSE|TRUE|TRUE|TRUE
5655671|La Quinta Inn by Wyndham Ft. Lauderdale Tamarac East|Sunrise, FL| 165|26.18564| -80.19984|TRUE|FALSE|FALSE|TRUE
5655671|Sheraton Suites Fort Lauderdale Plantation|Sunrise, FL| 213|26.12410| -80.25664|TRUE|TRUE|TRUE|TRUE
5655671|La Quinta Inn & Suites by Wyndham Sunrise Sawgrass Mills|Sunrise, FL| 232|26.12446| -80.33143|FALSE|TRUE|TRUE|TRUE
5655671|AC Hotel Fort Lauderdale Sawgrass Mills / Sunrise|Sunrise, FL| 272|26.15016| -80.31874|FALSE|TRUE|TRUE|TRUE
5655671|Courtyard by Marriott Fort Lauderdale Weston|Sunrise, FL| 219|26.09226| -80.36518|TRUE|TRUE|TRUE|TRUE
5655671|WoodSpring Suites Tamarac|Sunrise, FL| 209|26.19447| -80.29301|TRUE|TRUE|FALSE|TRUE
5655671|Renaissance Fort Lauderdale West Hotel|Sunrise, FL| 233|26.10388| -80.26272|FALSE|TRUE|TRUE|TRUE
5655671|Chateau Mar Golf Resort, Trademark Collection by Wyndham|Sunrise, FL| 197|26.16978| -80.23631|TRUE|FALSE|FALSE|TRUE
5655671|La Quinta Inn & Suites by Wyndham Sunrise|Sunrise, FL| 232|26.12339| -80.33189|FALSE|TRUE|TRUE|TRUE
5655671|Hampton Inn Ft Lauderdale-Plantation|Sunrise, FL| 223|26.11410| -80.25601|FALSE|TRUE|TRUE|TRUE
5655671|Plaza Hotel Fort Lauderdale|Sunrise, FL| 148|26.18931| -80.20270|TRUE|FALSE|FALSE|TRUE
5655671|Courtyard By Marriott Fort Lauderdale Coral Springs|Sunrise, FL| 212|26.23842| -80.25681|TRUE|FALSE|FALSE|TRUE
5655671|Hampton Inn Weston Ft. Lauderdale|Sunrise, FL| 243|26.09278| -80.36766|FALSE|TRUE|TRUE|TRUE
5685266|The Roosevelt New Orleans, A Waldorf Astoria Hotel|New Orleans, LA| 414|29.95434| -90.07230|FALSE|TRUE|TRUE|TRUE
5685266|Royal Frenchmen Hotel and Bar|New Orleans, LA| 768|29.96463| -90.05796|FALSE|FALSE|TRUE|TRUE
5685266|The Natchez|New Orleans, LA|1080|29.94974| -90.06870|FALSE|TRUE|TRUE|TRUE
5685266|Maison Saint Charles by Hotel RL|New Orleans, LA| 149|29.94029| -90.07522|TRUE|FALSE|FALSE|TRUE
5685266|Courtyard by Marriott New Orleans French Quarter/Iberville|New Orleans, LA| 257|29.95543| -90.07071|FALSE|TRUE|FALSE|TRUE
5685266|Blake Hotel New Orleans, BW Premier Collection|New Orleans, LA| 168|29.94925| -90.07060|FALSE|TRUE|FALSE|TRUE
5685266|Comfort Inn Marrero - New Orleans West|New Orleans, LA| 121|29.89219| -90.12282|TRUE|FALSE|FALSE|TRUE
5685266|The Ritz-Carlton, New Orleans|New Orleans, LA| 482|29.95496| -90.07097|FALSE|TRUE|TRUE|TRUE
5685266|Sonesta ES Suites New Orleans|New Orleans, LA| 209|29.95409| -90.07462|FALSE|TRUE|FALSE|TRUE
5685266|Midtown Hotel - Downtown New Orleans|New Orleans, LA| 105|29.94978| -90.06771|TRUE|FALSE|FALSE|TRUE
5685266|Four Seasons Hotel New Orleans|New Orleans, LA| 519|29.94888| -90.06389|FALSE|FALSE|TRUE|TRUE
5685266|The Troubadour Hotel New Orleans, Tapestry Collection by Hilton|New Orleans, LA| 194|29.95336| -90.07444|FALSE|TRUE|FALSE|TRUE
5685266|Bourbon Orleans Hotel|New Orleans, LA| 418|29.95873| -90.06472|FALSE|FALSE|TRUE|TRUE
5685266|Canopy by Hilton New Orleans Downtown|New Orleans, LA| 203|29.95404| -90.07420|FALSE|TRUE|FALSE|TRUE
5685266|Four Points By Sheraton French Quarter|New Orleans, LA| 389|29.95765| -90.06675|FALSE|FALSE|TRUE|TRUE
5685266|La Quinta Inn by Wyndham New Orleans Veterans / Metairie|New Orleans, LA| 133|30.00483| -90.20567|TRUE|FALSE|FALSE|TRUE
5685266|Brent House Hotel|New Orleans, LA| 159|29.96137| -90.14585|TRUE|FALSE|FALSE|TRUE
5685266|Hotel Monteleone, New Orleans|New Orleans, LA| 419|29.95422| -90.06776|FALSE|FALSE|TRUE|TRUE
5685266|Quality Inn New Orleans I-10 East|New Orleans, LA|  78|30.03715| -89.97409|TRUE|FALSE|FALSE|TRUE
5685266|Comfort Suites Harvey - New Orleans West|New Orleans, LA| 143|29.87871| -90.04946|TRUE|FALSE|FALSE|TRUE
5685266|Days Inn by Wyndham New Orleans Pontchartrain|New Orleans, LA| 118|30.00213| -90.03978|TRUE|FALSE|FALSE|TRUE
5685266|Federal City Inn & Suites|New Orleans, LA| 149|29.94753| -90.03280|TRUE|FALSE|FALSE|TRUE
5685266|Hyatt Regency New Orleans|New Orleans, LA| 289|29.94955| -90.07727|FALSE|TRUE|FALSE|TRUE
5685266|Holiday Inn New Orleans - Downtown Superdome, an IHG Hotel|New Orleans, LA| 217|29.95299| -90.07497|FALSE|TRUE|FALSE|TRUE
5685266|Suburban Studios|New Orleans, LA| 124|29.90910| -90.20646|TRUE|FALSE|FALSE|TRUE
5685266|One11 Hotel|New Orleans, LA| 385|29.95196| -90.06481|FALSE|FALSE|TRUE|TRUE
5685266|Sheraton New Orleans Hotel|New Orleans, LA| 443|29.95186| -90.06802|FALSE|FALSE|TRUE|TRUE
5695225|Hyde Beach House|Miami Gardens, FL| 723|25.98685| -80.12071|FALSE|FALSE|TRUE|TRUE
5695225|Shell Motel|Miami Gardens, FL| 151|26.00112| -80.14249|TRUE|FALSE|FALSE|TRUE
5695225|AC Hotel by Marriott Miami Aventura|Miami Gardens, FL| 477|25.96770| -80.14225|FALSE|TRUE|FALSE|TRUE
5695225|The St. Regis Bal Harbour Resort|Miami Gardens, FL|1154|25.88909| -80.12241|FALSE|FALSE|TRUE|TRUE
5695225|Red Carpet Inn Airport/Cruiseport|Miami Gardens, FL| 164|26.08635| -80.17466|TRUE|FALSE|FALSE|TRUE
5695225|Margaritaville Hollywood Beach Resort|Miami Gardens, FL| 604|26.01878| -80.11674|FALSE|FALSE|TRUE|TRUE
5695225|Miami Lakes Hotel|Miami Gardens, FL| 202|25.91206| -80.31126|FALSE|TRUE|FALSE|TRUE
5695225|Broadmore Miami Beach|Miami Gardens, FL| 139|25.86055| -80.12022|TRUE|FALSE|FALSE|TRUE
5695225|Stadium Hotel|Miami Gardens, FL| 203|25.95790| -80.23885|FALSE|TRUE|FALSE|TRUE
5695225|Pousada Suites|Miami Gardens, FL| 186|26.02938| -80.11573|TRUE|FALSE|FALSE|TRUE
5695225|Hollywood Beach Hotels|Miami Gardens, FL| 187|25.94204| -80.24560|TRUE|TRUE|FALSE|TRUE
5695225|Sonesta Select Miami Lakes|Miami Gardens, FL| 199|25.91614| -80.32612|FALSE|TRUE|FALSE|TRUE
5695225|Hotolos Hollywood|Miami Gardens, FL| 180|26.04703| -80.15850|TRUE|FALSE|FALSE|TRUE
5695225|Trump International Beach Resort|Miami Gardens, FL| 768|25.94320| -80.12061|FALSE|FALSE|TRUE|TRUE
5695225|SpringHill Suites by Marriott Fort Lauderdale Miramar|Miami Gardens, FL| 247|25.97424| -80.29263|FALSE|TRUE|FALSE|TRUE
5695225|Four Seasons Hotel at The Surf Club|Miami Gardens, FL|1893|25.87772| -80.12142|FALSE|FALSE|TRUE|TRUE
5695225|Baltic Boutique|Miami Gardens, FL| 302|25.94204| -80.24560|FALSE|TRUE|FALSE|TRUE
5695225|Home2 Suites by Hilton Miramar FT. Lauderdale|Miami Gardens, FL| 192|25.98326| -80.34737|TRUE|FALSE|FALSE|TRUE
5695225|Travelodge by Wyndham Miami Biscayne Bay|Miami Gardens, FL| 161|25.82499| -80.18661|TRUE|FALSE|FALSE|TRUE
5695225|Seminole Hard Rock Hotel and Casino|Miami Gardens, FL| 734|26.05082| -80.21155|FALSE|FALSE|TRUE|TRUE
5695225|The Harrison Hotel Downtown Hollywood|Miami Gardens, FL| 154|26.01073| -80.14622|TRUE|FALSE|FALSE|TRUE
5695225|Grand Beach Hotel Surfside|Miami Gardens, FL| 728|25.88445| -80.12222|FALSE|FALSE|TRUE|TRUE
5695225|The Oasis Tower at Seminole Hard Rock|Miami Gardens, FL| 750|26.05187| -80.21052|FALSE|FALSE|TRUE|TRUE
5695225|The Ritz-Carlton Bal Harbour, Miami|Miami Gardens, FL| 987|25.89900| -80.12330|FALSE|FALSE|TRUE|TRUE
5695225|Costa Hollywood Beach Resort|Miami Gardens, FL| 657|26.01615| -80.11626|FALSE|FALSE|TRUE|TRUE
5695225|Miami Gardens Inn & Suites|Miami Gardens, FL| 256|25.94204| -80.24560|FALSE|TRUE|FALSE|TRUE
5695225|Hilton Garden Inn Ft. Lauderdale SW/Miramar|Miami Gardens, FL| 210|25.98293| -80.34113|FALSE|TRUE|FALSE|TRUE
5695225|Courtyard by Marriott Fort Lauderdale SW/Miramar|Miami Gardens, FL| 270|25.98182| -80.34129|FALSE|TRUE|FALSE|TRUE
5695225|Grand Palms Spa & Golf Resort|Miami Gardens, FL| 134|26.00016| -80.35079|TRUE|FALSE|FALSE|TRUE
5695243|Congress Plaza Hotel|Chicago, IL| 126|41.87491| -87.62482|FALSE|TRUE|FALSE|TRUE
5695243|Palmer House a Hilton Hotel|Chicago, IL| 185|41.88031| -87.62674|FALSE|TRUE|FALSE|TRUE
5695243|Best Western River North Hotel|Chicago, IL| 106|41.89211| -87.63208|TRUE|FALSE|FALSE|TRUE
5695243|The Peninsula Chicago|Chicago, IL| 587|41.89620| -87.62515|FALSE|FALSE|TRUE|TRUE
5695243|Fairmont Chicago at Millennium Park|Chicago, IL| 194|41.88609| -87.62089|FALSE|TRUE|FALSE|TRUE
5695243|Hotel Versey Days Inn by Wyndham Chicago|Chicago, IL| 109|41.93294| -87.64557|TRUE|FALSE|FALSE|TRUE
5695243|Hampton Inn Chicago Downtown/Magnificent Mile|Chicago, IL| 102|41.89519| -87.62305|TRUE|FALSE|FALSE|TRUE
5695243|Nobu Hotel Chicago|Chicago, IL| 440|41.88473| -87.64949|FALSE|FALSE|TRUE|TRUE
5695243|Club Quarters Hotel, Central Loop, Chicago|Chicago, IL| 141|41.87927| -87.63119|FALSE|TRUE|FALSE|TRUE
5695243|Trump International Hotel & Tower Chicago|Chicago, IL| 464|41.88890| -87.62643|FALSE|FALSE|TRUE|TRUE
5695243|Four Seasons Hotel Chicago|Chicago, IL| 458|41.89961| -87.62488|FALSE|FALSE|TRUE|TRUE
5695243|Hyatt Regency Chicago|Chicago, IL| 199|41.88745| -87.62284|FALSE|TRUE|TRUE|TRUE
5695243|The Whitehall Hotel|Chicago, IL|  95|41.89891| -87.62571|TRUE|FALSE|FALSE|TRUE
5695243|Swissotel - Chicago|Chicago, IL| 175|41.88717| -87.61949|FALSE|TRUE|FALSE|TRUE
5695243|Club Quarters Hotel Wacker at Michigan, Chicago|Chicago, IL| 108|41.88761| -87.62544|TRUE|FALSE|FALSE|TRUE
5695243|Best Western Grant Park Hotel|Chicago, IL|  99|41.86909| -87.62468|TRUE|TRUE|FALSE|TRUE
5695243|Warwick Allerton - Chicago|Chicago, IL| 109|41.89509| -87.62375|TRUE|FALSE|FALSE|TRUE
5695243|Millennium Knickerbocker Chicago|Chicago, IL| 104|41.89977| -87.62270|TRUE|FALSE|FALSE|TRUE
5695243|Home2 Suites by Hilton Chicago McCormick Place|Chicago, IL| 102|41.85269| -87.62282|TRUE|TRUE|FALSE|TRUE
5695243|CitizenM Chicago Downtown|Chicago, IL| 119|41.88696| -87.62505|FALSE|TRUE|FALSE|TRUE
5695243|Omni Chicago Hotel|Chicago, IL| 210|41.89474| -87.62492|FALSE|FALSE|TRUE|TRUE
5695243|Found Hotel Chicago River North|Chicago, IL| 106|41.89287| -87.63377|TRUE|FALSE|FALSE|TRUE
5695243|Waldorf Astoria Chicago|Chicago, IL| 486|41.89974| -87.62748|FALSE|FALSE|TRUE|TRUE
5695243|The Langham, Chicago|Chicago, IL| 528|41.88842| -87.62751|FALSE|FALSE|TRUE|TRUE
5695243|Hotel BnB-2|Chicago, IL|  92|41.89585| -87.63797|TRUE|FALSE|FALSE|TRUE
5695243|Travelodge by Wyndham Downtown Chicago|Chicago, IL| 116|41.87429| -87.62539|FALSE|TRUE|FALSE|TRUE
5695243|Park Hyatt Chicago|Chicago, IL| 534|41.89724| -87.62527|FALSE|FALSE|TRUE|TRUE
5695243|The Ritz-Carlton, Chicago|Chicago, IL| 527|41.89782| -87.62228|FALSE|FALSE|TRUE|TRUE
5695281|Hampton Inn Bowie|Landover, MD|  82|38.95076| -76.73825|TRUE|FALSE|FALSE|TRUE
5695281|WoodSpring Suites Washington DC East Arena Drive|Landover, MD| 101|38.90793| -76.85133|TRUE|TRUE|FALSE|TRUE
5695281|Super 8 by Wyndham Camp Springs/Andrews AFB DC Area|Landover, MD|  91|38.81399| -76.89603|TRUE|FALSE|FALSE|TRUE
5695281|The Hay-Adams|Landover, MD| 459|38.90040| -77.03693|FALSE|FALSE|TRUE|TRUE
5695281|Homewood Suites by Hilton Largo/Washington, D.C.|Landover, MD| 169|38.91444| -76.84935|FALSE|TRUE|TRUE|TRUE
5695281|DoubleTree by Hilton Largo/Washington DC|Landover, MD| 137|38.91566| -76.84879|FALSE|TRUE|TRUE|TRUE
5695281|Holiday Inn Express I-95 Capitol Beltway-Largo, an IHG Hotel|Landover, MD| 122|38.91377| -76.84897|FALSE|TRUE|FALSE|TRUE
5695281|Quality Inn Near Joint Base Andrews - Washington Area|Landover, MD| 101|38.82076| -76.88784|TRUE|FALSE|FALSE|TRUE
5695281|Metro Points Hotel|Landover, MD| 101|38.95892| -76.86889|TRUE|FALSE|FALSE|TRUE
5695281|Pendry Washington DC - The Wharf|Landover, MD| 454|38.87756| -77.02241|FALSE|FALSE|TRUE|TRUE
5695281|Staybridge Suites Washington DC East - Largo, an IHG Hotel|Landover, MD| 149|38.90699| -76.84066|FALSE|TRUE|TRUE|TRUE
5695281|Courtyard Largo Medical Center Drive|Landover, MD| 123|38.90692| -76.84692|FALSE|TRUE|FALSE|TRUE
5695281|Residence Inn Largo Medical Center Drive|Landover, MD| 163|38.90744| -76.84777|FALSE|TRUE|TRUE|TRUE
5695281|Holiday Inn Express Washington DC - BW Parkway, an IHG Hotel|Landover, MD| 134|38.93820| -76.91022|FALSE|FALSE|TRUE|TRUE
5695281|Comfort Inn Largo-Washington DC East|Landover, MD| 105|38.89449| -76.84227|FALSE|TRUE|FALSE|TRUE
5695281|Salamander Washington DC|Landover, MD| 405|38.88366| -77.03032|FALSE|FALSE|TRUE|TRUE
5695281|Conrad Washington, DC|Landover, MD| 458|38.90137| -77.02528|FALSE|FALSE|TRUE|TRUE
5695281|Red Roof Inn Washington DC - Lanham|Landover, MD|  94|38.96478| -76.85962|TRUE|FALSE|FALSE|TRUE
5695281|Days Inn by Wyndham College Park|Landover, MD| 101|39.00442| -76.93000|TRUE|FALSE|FALSE|TRUE
5695281|Days Inn by Wyndham Lanham Washington D.C|Landover, MD|  91|38.96226| -76.86088|TRUE|FALSE|FALSE|TRUE
5695281|Waldorf Astoria Washington DC|Landover, MD| 625|38.89411| -77.02758|FALSE|FALSE|TRUE|TRUE
5695281|Generator Hotel Washington DC|Landover, MD| 120|38.92562| -76.88939|FALSE|TRUE|FALSE|TRUE
5695281|Howard Johnson by Wyndham College Park|Landover, MD| 101|39.00397| -76.92999|TRUE|FALSE|FALSE|TRUE
5695281|Econo Lodge Andrews Air Force Base|Landover, MD|  77|38.78201| -76.89081|TRUE|FALSE|FALSE|TRUE
5695281|Days Inn by Wyndham Camp Springs/Andrews AFB DC Area|Landover, MD|  77|38.81392| -76.89562|TRUE|FALSE|FALSE|TRUE
5695281|Best Western Capital Beltway|Landover, MD| 101|38.96184| -76.86511|TRUE|FALSE|FALSE|TRUE
5695281|Extended Stay America Suites Washington DC Landover|Landover, MD| 107|38.93400| -76.89664|FALSE|TRUE|FALSE|TRUE
5695333|The Rittenhouse Philadelphia|Philadelphia, PA| 845|39.94966| -75.16482|FALSE|TRUE|TRUE|TRUE
5695333|The Westin Philadelphia|Philadelphia, PA| 392|39.95211| -75.16849|FALSE|FALSE|TRUE|TRUE
5695333|The Ritz-Carlton, Philadelphia|Philadelphia, PA| 534|39.95128| -75.16427|FALSE|FALSE|TRUE|TRUE
5695333|Hyatt Centric Center City Philadelphia|Philadelphia, PA| 243|39.94931| -75.16894|FALSE|TRUE|FALSE|TRUE
5695333|Red Roof Inn PLUS+ Philadelphia Airport|Philadelphia, PA| 123|39.86820| -75.30609|TRUE|FALSE|FALSE|TRUE
5695333|Philadelphia Marriott Old City|Philadelphia, PA| 216|39.94621| -75.14342|FALSE|TRUE|FALSE|TRUE
5695333|Hilton Philadelphia at Penn's Landing|Philadelphia, PA| 205|39.94536| -75.14137|FALSE|TRUE|FALSE|TRUE
5695333|Best Western Plus Philadelphia-Pennsauken Hotel|Philadelphia, PA| 130|39.93363| -75.07762|TRUE|FALSE|FALSE|TRUE
5695333|Extended Stay America Suites Philadelphia Cherry Hill|Philadelphia, PA| 131|39.88385| -75.24823|TRUE|FALSE|FALSE|TRUE
5695333|Guild House Hotel|Philadelphia, PA| 530|39.94819| -75.16268|FALSE|TRUE|TRUE|TRUE
5695333|Days Inn by Wyndham Runnemede Philadelphia Area|Philadelphia, PA| 120|39.85779| -75.07254|TRUE|FALSE|FALSE|TRUE
5695333|1715 on Rittenhouse A Boutique Hotel|Philadelphia, PA| 403|39.94835| -75.17013|FALSE|TRUE|TRUE|TRUE
5695333|Four Seasons Hotel Philadelphia at Comcast Center|Philadelphia, PA|1565|39.95509| -75.17090|FALSE|FALSE|TRUE|TRUE
5695333|Loews Philadelphia Hotel|Philadelphia, PA| 581|39.95143| -75.16032|FALSE|FALSE|TRUE|TRUE
5695333|Element Philadelphia Downtown, a Marriott Hotel|Philadelphia, PA| 198|39.95112| -75.16520|FALSE|TRUE|FALSE|TRUE
5695333|Club Quarters Hotel Rittenhouse Square, Philadelphia|Philadelphia, PA| 184|39.95122| -75.16840|FALSE|TRUE|FALSE|TRUE
5695333|Days Inn by Wyndham Springfield/Phil.Intl Airport|Philadelphia, PA|  90|39.91948| -75.32802|TRUE|FALSE|FALSE|TRUE
5695333|Parkway Inn|Philadelphia, PA|  62|39.91875| -75.32845|TRUE|FALSE|FALSE|TRUE
5695333|BnB Philadelphia - Boutique Hotel|Philadelphia, PA| 621|39.97993| -75.12262|FALSE|FALSE|TRUE|TRUE
5695333|Wyndham Garden Philadelphia Airport|Philadelphia, PA| 101|39.86764| -75.30377|TRUE|FALSE|FALSE|TRUE
5695333|Travelodge by Wyndham Bellmawr|Philadelphia, PA| 114|39.86208| -75.07705|TRUE|FALSE|FALSE|TRUE
5695333|Philly Inn & Suites|Philadelphia, PA| 131|39.95258| -75.16522|TRUE|FALSE|FALSE|TRUE
5695333|Wm. Mulherin's Sons Hotel|Philadelphia, PA| 549|39.97171| -75.13506|FALSE|FALSE|TRUE|TRUE
5695333|Red Carpet Inn Philadelphia Airport|Philadelphia, PA|  93|39.87242| -75.28119|TRUE|FALSE|FALSE|TRUE
5695333|Fitler Club|Philadelphia, PA| 404|39.95349| -75.17914|FALSE|FALSE|TRUE|TRUE
5695333|Radisson Hotel Philadelphia, PA|Philadelphia, PA| 236|39.94917| -75.16954|FALSE|TRUE|FALSE|TRUE
5695333|DoubleTree by Hilton Philadelphia Center City|Philadelphia, PA| 230|39.94792| -75.16413|FALSE|TRUE|FALSE|TRUE
5695351|Lotte Hotel Seattle|Seattle, WA| 492|47.60525|-122.33084|FALSE|TRUE|TRUE|TRUE
5695351|citizenM Seattle Pioneer Square|Seattle, WA| 121|47.60196|-122.33582|FALSE|TRUE|FALSE|TRUE
5695351|Hilton Seattle|Seattle, WA| 141|47.60917|-122.33314|FALSE|TRUE|FALSE|TRUE
5695351|The Westin Seattle|Seattle, WA| 215|47.61369|-122.33827|FALSE|FALSE|TRUE|TRUE
5695351|Ramada by Wyndham SeaTac Airport|Seattle, WA|  92|47.45269|-122.29469|TRUE|FALSE|FALSE|TRUE
5695351|Hyatt Regency Seattle|Seattle, WA| 180|47.61482|-122.33458|FALSE|FALSE|TRUE|TRUE
5695351|Courtyard Seattle Downtown Pioneer Square|Seattle, WA| 151|47.60289|-122.33277|FALSE|TRUE|FALSE|TRUE
5695351|Executive Hotel Pacific|Seattle, WA| 130|47.60702|-122.33344|FALSE|TRUE|FALSE|TRUE
5695351|Hotel Ballard|Seattle, WA| 448|47.66623|-122.38256|FALSE|FALSE|TRUE|TRUE
5695351|Travelodge by Wyndham Seattle By The Space Needle|Seattle, WA| 115|47.62041|-122.34467|TRUE|FALSE|FALSE|TRUE
5695351|Sheraton Grand Seattle|Seattle, WA| 180|47.61083|-122.33400|FALSE|FALSE|TRUE|TRUE
5695351|Extended Stay America Suites Seattle Bellevue Factoria|Seattle, WA|  98|47.63458|-122.13137|TRUE|FALSE|FALSE|TRUE
5695351|Extended Stay America Premier Suites Seattle Bellevue Downtown|Seattle, WA| 114|47.61071|-122.18764|TRUE|FALSE|FALSE|TRUE
5695351|Crowne Plaza Seattle - Downtown, an IHG Hotel|Seattle, WA| 179|47.60821|-122.33211|FALSE|TRUE|TRUE|TRUE
5695351|Extended Stay America Suites Seattle Tukwila|Seattle, WA| 104|47.47484|-122.27262|TRUE|FALSE|FALSE|TRUE
5695351|Quality Inn Bellevue|Seattle, WA|  97|47.58134|-122.13688|TRUE|FALSE|FALSE|TRUE
5695351|Renaissance Seattle Hotel|Seattle, WA| 176|47.60667|-122.33068|FALSE|TRUE|FALSE|TRUE
5695351|Ramada by Wyndham SeaTac Airport North|Seattle, WA|  80|47.47926|-122.28351|TRUE|FALSE|FALSE|TRUE
5695351|Super 8 by Wyndham SeaTac Airport|Seattle, WA| 109|47.45934|-122.28822|TRUE|FALSE|FALSE|TRUE
5695351|Hotel 1000, LXR Hotels & Resorts|Seattle, WA| 416|47.60505|-122.33612|FALSE|TRUE|TRUE|TRUE
5695351|Fairmont Olympic Hotel|Seattle, WA| 328|47.60806|-122.33393|FALSE|TRUE|TRUE|TRUE
5695351|Extended Stay America Suites Seattle Redmond|Seattle, WA| 109|47.63458|-122.13137|TRUE|FALSE|FALSE|TRUE
5695351|Ramada by Wyndham Seatac Airport North|Seattle, WA|  86|47.47926|-122.28351|TRUE|FALSE|FALSE|TRUE
5695351|W Seattle|Seattle, WA| 201|47.57093|-122.38652|FALSE|FALSE|TRUE|TRUE
5695351|Four Seasons Hotel Seattle|Seattle, WA| 814|47.60738|-122.33916|FALSE|TRUE|TRUE|TRUE
5695382|Nobu Hotel at Caesars Palace|Las Vegas, NV| 448|36.11671|-115.17519|FALSE|FALSE|TRUE|TRUE
5695382|Silver Sevens Hotel & Casino|Las Vegas, NV| 104|36.11376|-115.15265|TRUE|FALSE|FALSE|TRUE
5695382|Tropicana Las Vegas - a DoubleTree by Hilton Hotel|Las Vegas, NV| 226|36.09963|-115.17136|FALSE|TRUE|FALSE|TRUE
5695382|Siegel Select Convention Center|Las Vegas, NV| 143|36.13328|-115.16089|TRUE|FALSE|FALSE|TRUE
5695382|Super 8 by Wyndham Las Vegas North Strip/Fremont St. Area|Las Vegas, NV| 106|36.15606|-115.14829|TRUE|FALSE|FALSE|TRUE
5695382|Sunrise Inn Hotel|Las Vegas, NV| 107|36.21813|-115.12921|TRUE|FALSE|FALSE|TRUE
5695382|Arizona Charlie's Boulder|Las Vegas, NV|  96|36.12406|-115.07554|TRUE|FALSE|FALSE|TRUE
5695382|Hampton Inn Tropicana|Las Vegas, NV| 565|36.09967|-115.18338|FALSE|TRUE|TRUE|TRUE
5695382|Oasis at Gold Spike - Adults Only|Las Vegas, NV| 143|36.17095|-115.13982|TRUE|FALSE|FALSE|TRUE
5695382|Crockfords Las Vegas, LXR Hotels & Resorts at Resorts World|Las Vegas, NV| 467|36.13492|-115.16582|FALSE|FALSE|TRUE|TRUE
5695382|Palms Casino Resort|Las Vegas, NV| 205|36.11444|-115.19482|FALSE|TRUE|FALSE|TRUE
5695382|Bellagio|Las Vegas, NV| 503|36.11311|-115.17701|FALSE|TRUE|TRUE|TRUE
5695382|Extended Stay America Suites Las Vegas Midtown|Las Vegas, NV| 140|36.13514|-115.13787|TRUE|FALSE|FALSE|TRUE
5695382|Longhorn Casino & Hotel|Las Vegas, NV| 121|36.10704|-115.05916|TRUE|FALSE|FALSE|TRUE
5695382|The Palazzo Prestige Club Lounge|Las Vegas, NV| 551|36.12400|-115.16796|FALSE|FALSE|TRUE|TRUE
5695382|Howard Johnson by Wyndham Las Vegas near the Strip|Las Vegas, NV|  86|36.09948|-115.16580|TRUE|TRUE|FALSE|TRUE
5695382|Towne and Country Motel|Las Vegas, NV| 445|36.16118|-115.12146|FALSE|FALSE|TRUE|TRUE
5695382|ARIA Sky Suites|Las Vegas, NV|2086|36.10765|-115.17577|FALSE|TRUE|TRUE|TRUE
5695382|The Venetian Prestige Club Lounge|Las Vegas, NV| 515|36.12117|-115.16965|FALSE|FALSE|TRUE|TRUE
5695382|Mardi Gras Hotel & Casino|Las Vegas, NV|  86|36.12549|-115.15446|TRUE|FALSE|FALSE|TRUE
5695382|Holiday Inn Express Las Vegas South, an IHG Hotel|Las Vegas, NV| 214|36.08478|-115.18478|FALSE|TRUE|FALSE|TRUE
5695382|OYO Hotel and Casino Las Vegas|Las Vegas, NV| 163|36.10039|-115.16772|FALSE|TRUE|FALSE|TRUE
5695382|The Signature at MGM Grand (All Suites)|Las Vegas, NV| 179|36.10607|-115.16678|FALSE|TRUE|FALSE|TRUE
5695382|Ahern Hotel and Event Center|Las Vegas, NV| 140|36.14415|-115.16015|TRUE|FALSE|FALSE|TRUE
5695382|Circa Resort & Casino – Adults Only|Las Vegas, NV| 400|36.17183|-115.14569|FALSE|FALSE|TRUE|TRUE
5695382|Fairfield Inn and Suites by Marriott Las Vegas South|Las Vegas, NV| 214|36.08451|-115.18330|FALSE|TRUE|FALSE|TRUE
5695382|Holiday Inn Club Vacations at Desert Club Resort, an IHG Hotel|Las Vegas, NV| 462|36.11820|-115.16331|FALSE|FALSE|TRUE|TRUE
5695436|Rodeway Inn At Six Flags|Atlanta, GA| 100|33.77213| -84.55608|TRUE|FALSE|FALSE|TRUE
5695436|AC Hotel by Marriott Atlanta Downtown|Atlanta, GA| 179|33.75994| -84.39102|FALSE|TRUE|FALSE|TRUE
5695436|Thompson Buckhead|Atlanta, GA| 375|33.83833| -84.37435|FALSE|FALSE|TRUE|TRUE
5695436|Rodeway Inn|Atlanta, GA|  72|33.74900| -84.38798|TRUE|TRUE|FALSE|TRUE
5695436|Omni Hotel At The Battery Atlanta|Atlanta, GA| 469|33.88944| -84.46768|FALSE|FALSE|TRUE|TRUE
5695436|SpringHill Suites by Marriott Atlanta Downtown|Atlanta, GA| 191|33.76497| -84.39502|FALSE|TRUE|FALSE|TRUE
5695436|Econo Lodge At Six Flags|Atlanta, GA|  94|33.77361| -84.55028|TRUE|FALSE|FALSE|TRUE
5695436|Microtel Inn by Wyndham Atlanta Airport|Atlanta, GA|  97|33.62339| -84.45537|TRUE|FALSE|FALSE|TRUE
5695436|Quality Suites Atlanta Airport East|Atlanta, GA|  99|33.61301| -84.40140|TRUE|FALSE|FALSE|TRUE
5695436|Stonehurst Place Bed & Breakfast|Atlanta, GA| 537|33.77986| -84.38057|FALSE|FALSE|TRUE|TRUE
5695436|Days Inn by Wyndham Hartsfield Jackson Atlanta Airport West|Atlanta, GA|  84|33.63341| -84.49180|TRUE|FALSE|FALSE|TRUE
5695436|The Westin Peachtree Plaza, Atlanta|Atlanta, GA| 203|33.75941| -84.38836|FALSE|TRUE|TRUE|TRUE
5695436|Nobu Hotel Atlanta|Atlanta, GA| 420|33.85439| -84.36349|FALSE|FALSE|TRUE|TRUE
5695436|Clarion Inn & Suites Atlanta Downtown|Atlanta, GA| 143|33.74900| -84.40337|FALSE|TRUE|FALSE|TRUE
5695436|OYO Hotel Decatur I-285 The Perimeter|Atlanta, GA|  99|33.73786| -84.23582|TRUE|FALSE|FALSE|TRUE
5695436|Reverb by Hard Rock Atlanta Downtown|Atlanta, GA| 226|33.75348| -84.39925|FALSE|TRUE|TRUE|TRUE
5695436|Hilton Garden Inn Atlanta Airport/Millenium Center|Atlanta, GA| 439|33.62612| -84.46272|FALSE|FALSE|TRUE|TRUE
5695436|Hyatt Place Atlanta Centennial Park|Atlanta, GA| 198|33.76254| -84.39597|FALSE|TRUE|FALSE|TRUE
5695436|W Atlanta Downtown|Atlanta, GA| 282|33.76491| -84.38954|FALSE|FALSE|TRUE|TRUE
5695436|Wingate by Wyndham - Atlanta at Six Flags|Atlanta, GA|  82|33.84257| -84.31486|TRUE|FALSE|FALSE|TRUE
5695436|Residence Inn by Marriott Atlanta Cumberland/Galleria|Atlanta, GA|1144|33.88601| -84.47603|FALSE|FALSE|TRUE|TRUE
5695436|Econo Lodge Conley|Atlanta, GA|  84|33.66714| -84.33847|TRUE|FALSE|FALSE|TRUE
5695436|Aloft Atlanta Downtown, a Marriott Hotel|Atlanta, GA| 183|33.76263| -84.38961|FALSE|TRUE|FALSE|TRUE
5695436|The American Hotel Atlanta Downtown - a DoubleTree by Hilton|Atlanta, GA| 173|33.75931| -84.38992|FALSE|TRUE|FALSE|TRUE
5695436|Howard Johnson by Wyndham Atlanta Airport/College Park|Atlanta, GA|  94|33.61529| -84.43967|TRUE|FALSE|FALSE|TRUE
5695436|Omni Atlanta Hotel at CNN Center|Atlanta, GA| 257|33.75915| -84.39494|FALSE|TRUE|TRUE|TRUE
5695474|Courtyard by Marriott Sunnyvale Mountain View|Santa Clara, CA| 105|37.36941|-122.03957|TRUE|FALSE|FALSE|TRUE
5695474|Days Inn by Wyndham Fremont|Santa Clara, CA| 108|37.49370|-121.93218|TRUE|FALSE|FALSE|TRUE
5695474|Quality Inn & Suites Silicon Valley|Santa Clara, CA| 105|37.35174|-121.97989|TRUE|FALSE|FALSE|TRUE
5695474|San Jose Marriott|Santa Clara, CA| 381|37.33038|-121.88829|FALSE|FALSE|TRUE|TRUE
5695474|Hotel Zico|Santa Clara, CA|  86|37.37969|-122.06857|TRUE|FALSE|FALSE|TRUE
5695474|Larkspur Landing Milpitas - An All-Suite Hotel|Santa Clara, CA| 109|37.42507|-121.92183|FALSE|TRUE|FALSE|TRUE
5695474|Signature Inn Santa Clara|Santa Clara, CA| 100|37.34493|-121.93227|TRUE|FALSE|FALSE|TRUE
5695474|Santa Clara Marriott|Santa Clara, CA| 294|37.39068|-121.97426|FALSE|TRUE|TRUE|TRUE
5695474|Radisson Hotel Sunnyvale – Silicon Valley|Santa Clara, CA| 114|37.40954|-122.00224|FALSE|TRUE|FALSE|TRUE
5695474|AC Hotel by Marriott San Jose Santa Clara|Santa Clara, CA| 176|37.38548|-121.98044|FALSE|TRUE|FALSE|TRUE
5695474|Extended Stay America Suites San Jose Santa Clara|Santa Clara, CA| 158|37.41959|-121.97570|FALSE|TRUE|FALSE|TRUE
5695474|AC Hotel by Marriott Sunnyvale Moffett Park|Santa Clara, CA| 133|37.41244|-122.02295|FALSE|TRUE|FALSE|TRUE
5695474|Element San Jose Airport, a Marriott Hotel|Santa Clara, CA| 184|37.35146|-121.92668|FALSE|FALSE|TRUE|TRUE
5695474|Hilton San Jose|Santa Clara, CA| 557|37.32930|-121.89058|FALSE|FALSE|TRUE|TRUE
5695474|The Westin San Jose|Santa Clara, CA| 367|37.33102|-121.88736|FALSE|FALSE|TRUE|TRUE
5695474|Comfort Suites San Jose Airport|Santa Clara, CA| 104|37.36352|-121.91064|TRUE|FALSE|FALSE|TRUE
5695474|Hilton Garden Inn Cupertino|Santa Clara, CA| 104|37.33344|-122.01487|TRUE|FALSE|FALSE|TRUE
5695474|Avante, a JDV by Hyatt Hotel|Santa Clara, CA| 108|37.37620|-122.06102|TRUE|FALSE|FALSE|TRUE
5695474|Comfort Inn Sunnyvale - Silicon Valley|Santa Clara, CA| 105|37.39973|-122.02596|TRUE|FALSE|FALSE|TRUE
5695474|Ramada by Wyndham Sunnyvale/Silicon Valley|Santa Clara, CA| 124|37.39124|-121.99159|FALSE|TRUE|FALSE|TRUE
5695474|Enchanté Boutique Hotel|Santa Clara, CA| 409|37.38078|-122.11443|FALSE|FALSE|TRUE|TRUE
5695474|Hotel Valencia Santana Row|Santa Clara, CA| 366|37.32084|-121.94809|FALSE|FALSE|TRUE|TRUE
5695474|Signia by Hilton San Jose|Santa Clara, CA| 448|37.33316|-121.88876|FALSE|FALSE|TRUE|TRUE
5695474|Hilton Garden Inn San Jose/Milpitas|Santa Clara, CA| 113|37.42503|-121.92314|FALSE|TRUE|FALSE|TRUE
5695474|Extended Studio Suites|Santa Clara, CA|  98|37.37558|-121.91870|TRUE|FALSE|FALSE|TRUE
5695474|Aloft Santa Clara, a Marriott Hotel|Santa Clara, CA| 185|37.41785|-121.97645|FALSE|TRUE|TRUE|TRUE
5695474|Hyatt Regency Santa Clara|Santa Clara, CA| 477|37.40513|-121.97692|FALSE|TRUE|TRUE|TRUE
5695474|Hotel Fairchild|Santa Clara, CA| 101|37.40647|-122.06442|TRUE|FALSE|FALSE|TRUE
5695491|Quality Inn & Suites|Jacksonville, FL|  83|30.21781| -81.57070|TRUE|FALSE|FALSE|TRUE
5695491|SpringHill Suites by Marriott Jacksonville|Jacksonville, FL| 141|30.26692| -81.55672|FALSE|FALSE|TRUE|TRUE
5695491|Econo Lodge|Jacksonville, FL|  87|30.48362| -81.64882|TRUE|FALSE|FALSE|TRUE
5695491|Extended Stay America Suites Jacksonville Riverwalk Conv Ctr|Jacksonville, FL| 124|30.31668| -81.65557|FALSE|TRUE|FALSE|TRUE
5695491|Residence Inn by Marriott Jacksonville Downtown|Jacksonville, FL| 276|30.32225| -81.67529|FALSE|TRUE|TRUE|TRUE
5695491|Extended Stay America Suites Jacksonville St Johns Towne Ctr|Jacksonville, FL| 108|30.33218| -81.65565|FALSE|TRUE|FALSE|TRUE
5695491|Metro Inn & Suites|Jacksonville, FL|  81|30.36553| -81.67090|TRUE|TRUE|FALSE|TRUE
5695491|Red Roof Inn Jacksonville - Cruise Port|Jacksonville, FL|  96|30.43278| -81.65759|TRUE|FALSE|FALSE|TRUE
5695491|Fairfield Inn & Suites by Marriott Jacksonville Butler Blvd|Jacksonville, FL| 142|30.24879| -81.59952|FALSE|FALSE|TRUE|TRUE
5695491|La Quinta Inn & Suites by Wyndham Jacksonville Butler Blvd|Jacksonville, FL|  89|30.24798| -81.59747|TRUE|FALSE|FALSE|TRUE
5695491|Hyatt Regency Jacksonville|Jacksonville, FL| 240|30.32438| -81.65595|FALSE|TRUE|TRUE|TRUE
5695491|DoubleTree by Hilton Hotel Jacksonville Riverfront|Jacksonville, FL| 202|30.32011| -81.65795|FALSE|TRUE|TRUE|TRUE
5695491|Hampton Inn Jacksonville-Downtown-I-95|Jacksonville, FL| 182|30.31661| -81.65675|FALSE|TRUE|TRUE|TRUE
5695491|Marriott Jacksonville Downtown|Jacksonville, FL| 793|30.32594| -81.66196|FALSE|TRUE|TRUE|TRUE
5695491|Southbank Hotel by Marriott Jacksonville Riverwalk|Jacksonville, FL| 173|30.24760| -81.58965|FALSE|FALSE|TRUE|TRUE
5695491|Wyndham Garden Jacksonville|Jacksonville, FL|  96|30.24914| -81.58999|TRUE|FALSE|FALSE|TRUE
5695491|Studio 6 Jacksonville, FL - South|Jacksonville, FL|  96|30.21827| -81.58333|TRUE|FALSE|FALSE|TRUE
5695491|Stayable Suites Jacksonville West|Jacksonville, FL|  81|30.33473| -81.75988|TRUE|FALSE|FALSE|TRUE
5695491|Courtyard by Marriott Jacksonville Butler Boulevard|Jacksonville, FL| 141|30.24897| -81.59701|FALSE|FALSE|TRUE|TRUE
5695491|Baymont by Wyndham Jacksonville/Butler Blvd|Jacksonville, FL|  95|30.24634| -81.59905|TRUE|FALSE|FALSE|TRUE
5695491|WoodSpring Suites Jacksonville I-295 East|Jacksonville, FL|  84|30.35487| -81.55643|TRUE|TRUE|FALSE|TRUE
5695491|Hilton Garden Inn Jacksonville Downtown Southbank|Jacksonville, FL| 182|30.31250| -81.65355|FALSE|TRUE|TRUE|TRUE
5695547|Hampton Inn Buffalo-Hamburg|Orchard Park, NY| 367|42.73895| -78.84579|FALSE|TRUE|TRUE|TRUE
5695547|Quality Inn Near Walden Galleria Mall|Orchard Park, NY| 337|42.87728| -78.79820|FALSE|TRUE|FALSE|TRUE
5695547|Aloft Buffalo Downtown, a Marriott Hotel|Orchard Park, NY| 454|42.89337| -78.87391|FALSE|FALSE|TRUE|TRUE
5695547|Residence Inn by Marriott Buffalo Galleria Mall|Orchard Park, NY| 250|42.90729| -78.77037|TRUE|FALSE|FALSE|TRUE
5695547|Baymont by Wyndham Buffalo|Orchard Park, NY| 193|42.90827| -78.75244|TRUE|FALSE|FALSE|TRUE
5695547|Staybridge Suites West Seneca, an IHG Hotel|Orchard Park, NY| 377|42.83590| -78.75389|FALSE|TRUE|TRUE|TRUE
5695547|Home2 Suites by Hilton Buffalo Airport / Galleria Mall|Orchard Park, NY| 250|42.90555| -78.76556|TRUE|FALSE|FALSE|TRUE
5695547|Comfort Inn And Suites Hamburg|Orchard Park, NY| 613|42.73984| -78.85089|FALSE|TRUE|TRUE|TRUE
5695547|Best Western on the Avenue|Orchard Park, NY| 299|42.89826| -78.87487|TRUE|FALSE|FALSE|TRUE
5695547|Econo Lodge South|Orchard Park, NY| 142|42.79112| -78.81852|TRUE|TRUE|FALSE|TRUE
5695547|The Westin Buffalo|Orchard Park, NY| 931|42.89122| -78.87687|FALSE|FALSE|TRUE|TRUE
5695547|Super 8 by Wyndham Hamburg|Orchard Park, NY| 312|42.73834| -78.84703|TRUE|TRUE|FALSE|TRUE
5695547|Best Western Plus Galleria Inn & Suites|Orchard Park, NY| 329|42.87699| -78.79392|TRUE|TRUE|FALSE|TRUE
5695547|Hampton Inn East Aurora|Orchard Park, NY| 482|42.76626| -78.60822|FALSE|FALSE|TRUE|TRUE
5695547|Residence Inn by Marriott Buffalo Downtown|Orchard Park, NY| 828|42.90112| -78.87365|FALSE|FALSE|TRUE|TRUE
5695547|Quality Inn Hamburg|Orchard Park, NY| 301|42.73895| -78.84579|TRUE|TRUE|FALSE|TRUE
5695547|Hampton Inn Buffalo-Airport / Galleria Mall|Orchard Park, NY| 372|42.90747| -78.77238|FALSE|FALSE|TRUE|TRUE
5695547|Hilton Garden Inn Buffalo Downtown|Orchard Park, NY| 360|42.88611| -78.87400|FALSE|TRUE|TRUE|TRUE
5695547|Wyndham Garden Buffalo Downtown|Orchard Park, NY| 327|42.90011| -78.86452|TRUE|FALSE|FALSE|TRUE
5695547|Courtyard Buffalo Downtown / Canalside|Orchard Park, NY| 828|42.87817| -78.87631|FALSE|TRUE|TRUE|TRUE
5695547|Holiday Inn Express Cheektowaga North East, an IHG Hotel|Orchard Park, NY| 153|42.90663| -78.77103|TRUE|FALSE|FALSE|TRUE
5695568|The Ramble Hotel|Denver, CO| 358|39.75735|-104.98659|FALSE|FALSE|TRUE|TRUE
5695568|The Westin Denver Downtown|Denver, CO| 156|39.74877|-104.99566|FALSE|TRUE|FALSE|TRUE
5695568|La Quinta Inn by Wyndham Denver Westminster|Denver, CO|  94|39.85300|-105.05179|TRUE|FALSE|FALSE|TRUE
5695568|The Slate Denver, Tapestry Collection By Hilton|Denver, CO| 122|39.74091|-104.99477|FALSE|TRUE|FALSE|TRUE
5695568|The Oxford Hotel|Denver, CO| 410|39.75226|-104.99923|FALSE|TRUE|TRUE|TRUE
5695568|Days Inn by Wyndham Denver Downtown|Denver, CO|  93|39.73973|-104.97571|TRUE|FALSE|FALSE|TRUE
5695568|Hilton Garden Inn Denver Downtown|Denver, CO| 169|39.74277|-104.99322|FALSE|FALSE|TRUE|TRUE
5695568|Quality Inn Denver Westminster|Denver, CO|  83|39.85124|-105.04978|TRUE|FALSE|FALSE|TRUE
5695568|The Curtis Denver - a DoubleTree by Hilton Hotel|Denver, CO| 137|39.74573|-104.99707|FALSE|TRUE|FALSE|TRUE
5695568|HomeTowne Studios by Red Roof Denver - Thornton|Denver, CO|  84|39.91235|-104.98863|TRUE|FALSE|FALSE|TRUE
5695568|Super 8 by Wyndham Denver Central|Denver, CO|  78|39.80329|-104.98653|TRUE|FALSE|FALSE|TRUE
5695568|Super 8 by Wyndham Wheat Ridge/Denver West|Denver, CO|  85|39.78234|-105.10855|TRUE|FALSE|FALSE|TRUE
5695568|Super 8 by Wyndham Henderson North East Denver|Denver, CO|  70|39.86165|-104.91073|TRUE|FALSE|FALSE|TRUE
5695568|Americas Best Value Inn Denver|Denver, CO|  89|39.77242|-104.84902|TRUE|FALSE|FALSE|TRUE
5695568|Kimpton Hotel Born, an IHG Hotel|Denver, CO| 383|39.75327|-105.00203|FALSE|TRUE|TRUE|TRUE
5695568|Rodeway Inn Denver Downtown|Denver, CO|  97|39.75575|-105.01639|FALSE|TRUE|FALSE|TRUE
5695568|Four Seasons Hotel Denver|Denver, CO| 776|39.74648|-104.99819|FALSE|TRUE|TRUE|TRUE
5695568|La Quinta Inn by Wyndham Denver Golden|Denver, CO|  90|39.76414|-105.14435|TRUE|FALSE|FALSE|TRUE
5695568|The Ritz-Carlton, Denver|Denver, CO| 531|39.75014|-104.99188|FALSE|FALSE|TRUE|TRUE
5695568|Embassy Suites Denver-Downtown/Convention Center|Denver, CO| 162|39.74410|-104.99482|FALSE|TRUE|FALSE|TRUE
5695568|HomeTowne Studios by Red Roof Denver - Glendale/Cherry Creek|Denver, CO|  80|39.70810|-104.93090|TRUE|FALSE|FALSE|TRUE
5695568|Le Meridien Denver Downtown|Denver, CO| 196|39.74412|-104.99392|FALSE|TRUE|TRUE|TRUE
5695568|Grand Hyatt Denver|Denver, CO| 219|39.74582|-104.98920|FALSE|FALSE|TRUE|TRUE
5695568|Warwick Denver|Denver, CO| 171|39.74440|-104.98326|FALSE|FALSE|TRUE|TRUE
5695568|Hotel Indigo Denver Downtown, an IHG Hotel|Denver, CO| 198|39.75556|-105.00010|FALSE|TRUE|TRUE|TRUE
5695586|Super 8 by Wyndham Indianapolis South|Indianapolis, IN|  71|39.69757| -86.15026|TRUE|FALSE|FALSE|TRUE
5695586|La Quinta Inn by Wyndham Indianapolis Airport Executive Dr|Indianapolis, IN|  85|39.72704| -86.25821|TRUE|FALSE|FALSE|TRUE
5695586|The Westin Indianapolis|Indianapolis, IN| 410|39.76647| -86.16359|FALSE|TRUE|FALSE|TRUE
5695586|Rodeway Inn|Indianapolis, IN|  68|39.82140| -86.04500|TRUE|FALSE|FALSE|TRUE
5695586|Extended Stay America Suites Indianapolis Airport|Indianapolis, IN|  73|39.72538| -86.26306|TRUE|FALSE|FALSE|TRUE
5695586|Hilton Indianapolis Hotel & Suites|Indianapolis, IN| 353|39.76893| -86.16062|FALSE|TRUE|FALSE|TRUE
5695586|Days Inn by Wyndham Indianapolis East Post Road|Indianapolis, IN|  82|39.79823| -86.01011|TRUE|FALSE|FALSE|TRUE
5695586|JW Marriott Indianapolis|Indianapolis, IN| 432|39.76659| -86.16769|FALSE|TRUE|TRUE|TRUE
5695586|Extended Stay America Suites Indianapolis Airport W Southern|Indianapolis, IN|  83|39.72960| -86.25363|TRUE|FALSE|FALSE|TRUE
5695586|La Quinta Inn by Wyndham Indianapolis Airport Lynhurst|Indianapolis, IN|  88|39.72898| -86.25133|TRUE|FALSE|FALSE|TRUE
5695586|Quality Inn & Suites|Indianapolis, IN|  80|39.84322| -86.25248|TRUE|FALSE|FALSE|TRUE
5695586|Baymont by Wyndham Indianapolis West|Indianapolis, IN|  90|39.82521| -86.27816|TRUE|FALSE|FALSE|TRUE
5695586|Royal Inn|Indianapolis, IN|  52|39.76840| -86.15807|TRUE|FALSE|FALSE|TRUE
5695586|Hampton Inn Indianapolis Downtown Across from Circle Centre|Indianapolis, IN| 560|39.76541| -86.15764|FALSE|TRUE|TRUE|TRUE
5695586|Omni Severin Hotel|Indianapolis, IN| 466|39.76381| -86.15980|FALSE|TRUE|TRUE|TRUE
5695586|Home2 Suites by Hilton Indianapolis Downtown|Indianapolis, IN| 564|39.76897| -86.15590|FALSE|FALSE|TRUE|TRUE
5695586|Crowne Plaza Indianapolis - Downtown Union Station, an IHG Hotel|Indianapolis, IN| 525|39.76840| -86.15807|FALSE|FALSE|TRUE|TRUE
5695586|Le Méridien Indianapolis|Indianapolis, IN| 479|39.76514| -86.15965|FALSE|TRUE|TRUE|TRUE
5695586|Tru By Hilton Indianapolis Downtown, IN|Indianapolis, IN| 440|39.75889| -86.15967|FALSE|TRUE|TRUE|TRUE
5695586|Courtyard by Marriott Indianapolis Downtown|Indianapolis, IN| 432|39.76683| -86.16909|FALSE|TRUE|TRUE|TRUE
5695586|Marriott Indianapolis Downtown|Indianapolis, IN| 408|39.76663| -86.16481|FALSE|TRUE|FALSE|TRUE
5695586|Conrad Indianapolis|Indianapolis, IN| 502|39.76743| -86.15920|FALSE|TRUE|TRUE|TRUE
5695586|Bottleworks Hotel|Indianapolis, IN| 587|39.77909| -86.14340|FALSE|FALSE|TRUE|TRUE
5695586|Courtyard by Marriott Indianapolis at the Capitol|Indianapolis, IN| 455|39.77196| -86.16372|FALSE|FALSE|TRUE|TRUE
5695637|Extended Stay Airport|Green Bay, WI|  92|44.49157| -88.10388|TRUE|FALSE|FALSE|TRUE
5695637|AmericInn by Wyndham Green Bay Near Stadium|Green Bay, WI| 134|44.47346| -88.07673|FALSE|TRUE|FALSE|TRUE
5695637|Wingate by Wyndham Green Bay/Airport|Green Bay, WI| 103|44.49453| -88.12332|TRUE|FALSE|FALSE|TRUE
5695637|AmericInn by Wyndham Green Bay East|Green Bay, WI| 162|44.47000| -87.95382|FALSE|FALSE|TRUE|TRUE
5695637|Radisson Conference Center Green Bay|Green Bay, WI| 156|44.49726| -88.12233|FALSE|FALSE|TRUE|TRUE
5695637|Hotel J Green Bay|Green Bay, WI| 114|44.49177| -88.10755|TRUE|FALSE|FALSE|TRUE
5695637|Lodge Kohler|Green Bay, WI| 322|44.50229| -88.06497|FALSE|TRUE|TRUE|TRUE
5695637|Comfort Inn Green Bay|Green Bay, WI|  98|44.47263| -88.07697|TRUE|TRUE|FALSE|TRUE
5695637|Delta Hotels by Marriott Green Bay|Green Bay, WI| 146|44.47603| -88.07774|FALSE|TRUE|TRUE|TRUE
5695637|My Place Hotel - Green Bay|Green Bay, WI| 113|44.49021| -88.05939|TRUE|TRUE|FALSE|TRUE
5695637|Hotel Northland, Autograph Collection|Green Bay, WI| 186|44.51578| -88.01287|FALSE|FALSE|TRUE|TRUE
5695637|Baymont by Wyndham Green Bay|Green Bay, WI|  78|44.47234| -88.07631|TRUE|TRUE|FALSE|TRUE
5695637|Hyatt Regency Green Bay|Green Bay, WI| 126|44.51758| -88.01064|TRUE|FALSE|FALSE|TRUE
5695637|Nuks Executive Suites|Green Bay, WI| 126|44.45023| -88.06188|TRUE|FALSE|FALSE|TRUE
5695637|Best Western Green Bay Inn Conference Center|Green Bay, WI| 163|44.49878| -88.05316|FALSE|TRUE|TRUE|TRUE
5695637|SpringHill Suites Green Bay|Green Bay, WI| 186|44.49633| -88.05121|FALSE|TRUE|TRUE|TRUE
5695637|St. Brendan's Inn|Green Bay, WI| 149|44.51239| -88.01794|FALSE|FALSE|TRUE|TRUE
5695637|Aloft Green Bay, a Marriott Hotel|Green Bay, WI| 136|44.47844| -88.05245|FALSE|TRUE|FALSE|TRUE
5695637|Kress Inn, Ascend Hotel Collection|Green Bay, WI| 101|44.44574| -88.06906|TRUE|FALSE|FALSE|TRUE
5695637|Hampton Inn Green Bay|Green Bay, WI| 126|44.47250| -88.07842|TRUE|FALSE|FALSE|TRUE
5695637|Hawthorn Suites by Wyndham Green Bay|Green Bay, WI| 143|44.48523| -88.02414|FALSE|FALSE|TRUE|TRUE
5695637|Residence Inn by Marriott Green Bay Downtown|Green Bay, WI| 172|44.48014| -88.05150|FALSE|TRUE|TRUE|TRUE
5695654|Hyatt Regency Cincinnati|Cincinnati, OH| 425|39.10027| -84.51561|FALSE|TRUE|TRUE|TRUE
5695654|Wingate by Wyndham Erlanger/Cincinnati|Cincinnati, OH|  85|39.02865| -84.61225|TRUE|FALSE|FALSE|TRUE
5695654|The Cincinnatian Hotel Curio Collection by Hilton|Cincinnati, OH| 200|39.10258| -84.51382|FALSE|TRUE|TRUE|TRUE
5695654|Super 8 by Wyndham Fort Mitchell Cincinnati Area|Cincinnati, OH|  77|39.04846| -84.57065|TRUE|FALSE|FALSE|TRUE
5695654|Aloft Newport On The Levee, a Marriott Hotel|Cincinnati, OH| 224|39.09563| -84.49398|FALSE|FALSE|TRUE|TRUE
5695654|Red Roof Inn Cincinnati Airport–Florence/ Erlanger|Cincinnati, OH|  79|39.02683| -84.61616|TRUE|FALSE|FALSE|TRUE
5695654|Best Western Inn Florence|Cincinnati, OH|  82|39.00272| -84.64350|TRUE|FALSE|FALSE|TRUE
5695654|AC Hotel by Marriott Cincinnati at The Banks|Cincinnati, OH| 260|39.09686| -84.50870|FALSE|TRUE|TRUE|TRUE
5695654|Holiday Inn Cincinnati-Riverfront, an IHG Hotel|Cincinnati, OH| 133|39.08798| -84.52047|FALSE|TRUE|FALSE|TRUE
5695654|The Westin Cincinnati|Cincinnati, OH| 298|39.10075| -84.51230|FALSE|TRUE|TRUE|TRUE
5695654|Quality Inn & Suites|Cincinnati, OH|  88|39.10357| -84.52874|TRUE|FALSE|FALSE|TRUE
5695654|Comfort Suites Cincinnati Airport|Cincinnati, OH| 100|39.07720| -84.66093|TRUE|FALSE|FALSE|TRUE
5695654|The Lytle Park Hotel, Autograph Collection|Cincinnati, OH| 437|39.10119| -84.50339|FALSE|FALSE|TRUE|TRUE
5695654|Homewood Suites by Hilton Cincinnati-Downtown|Cincinnati, OH| 220|39.10302| -84.51357|FALSE|TRUE|TRUE|TRUE
5695654|Comfort Inn Airport Turfway Road|Cincinnati, OH|  99|39.01822| -84.63518|TRUE|FALSE|FALSE|TRUE
5695654|Renaissance Cincinnati Downtown Hotel|Cincinnati, OH| 502|39.10030| -84.51153|FALSE|TRUE|TRUE|TRUE
5695654|Embassy Suites by Hilton Cincinnati RiverCenter|Cincinnati, OH| 142|39.08998| -84.51117|FALSE|TRUE|FALSE|TRUE
5695654|Days Inn by Wyndham Florence Cincinnati Area|Cincinnati, OH|  76|39.00929| -84.63429|TRUE|FALSE|FALSE|TRUE
5695654|Rodeway Inn Florence - Cincinnati South|Cincinnati, OH|  52|38.98984| -84.64132|TRUE|FALSE|FALSE|TRUE
5695654|TownePlace Suites by Marriott Cincinnati Downtown|Cincinnati, OH| 201|39.10361| -84.51569|FALSE|TRUE|TRUE|TRUE
5695654|Days Inn by Wyndham Fort Wright Cincinnati Area|Cincinnati, OH|  67|39.05662| -84.54476|TRUE|FALSE|FALSE|TRUE
5695654|Hotel Covington Cincinnati Riverfront|Cincinnati, OH| 257|39.08364| -84.50997|FALSE|FALSE|TRUE|TRUE
5695654|Courtyard by Marriott Cincinnati Downtown|Cincinnati, OH| 200|39.10018| -84.51251|FALSE|TRUE|TRUE|TRUE
5695730|Wyndham Pittsburgh University Center|Pittsburgh, PA| 175|40.44619| -79.95485|FALSE|FALSE|TRUE|TRUE
5695730|The Westin Pittsburgh, a Marriott Hotel|Pittsburgh, PA| 241|40.44409| -79.99506|FALSE|TRUE|TRUE|TRUE
5695730|Days Inn by Wyndham Pittsburgh|Pittsburgh, PA|  96|40.41923| -80.03035|TRUE|FALSE|FALSE|TRUE
5695730|Comfort Suites|Pittsburgh, PA|  98|40.41991| -80.03026|TRUE|FALSE|FALSE|TRUE
5695730|Omni William Penn Hotel|Pittsburgh, PA| 213|40.44060| -79.99659|FALSE|TRUE|TRUE|TRUE
5695730|Econo Lodge Pittsburgh I-79|Pittsburgh, PA|  97|40.44931| -80.10605|TRUE|FALSE|FALSE|TRUE
5695730|Red Roof Inn Pittsburgh - McKnight Rd|Pittsburgh, PA|  87|40.50569| -80.00892|TRUE|FALSE|FALSE|TRUE
5695730|The Industrialist Hotel, Pittsburgh, Autograph Collection|Pittsburgh, PA| 222|40.43960| -80.00141|FALSE|TRUE|TRUE|TRUE
5695730|Hyatt Place Pittsburgh-North Shore|Pittsburgh, PA| 176|40.44669| -80.00909|FALSE|TRUE|TRUE|TRUE
5695730|Embassy Suites By Hilton Pittsburgh Downtown|Pittsburgh, PA| 173|40.44123| -79.99799|FALSE|TRUE|TRUE|TRUE
5695730|Residence Inn by Marriott Pittsburgh North Shore|Pittsburgh, PA| 154|40.44791| -80.00721|FALSE|TRUE|FALSE|TRUE
5695730|Baywood Conference Center|Pittsburgh, PA| 402|40.50701| -80.18725|FALSE|FALSE|TRUE|TRUE
5695730|Hilton Garden Inn Pittsburgh Downtown|Pittsburgh, PA| 203|40.44027| -80.00158|FALSE|TRUE|TRUE|TRUE
5695730|Quality Inn Pittsburgh Airport|Pittsburgh, PA| 102|40.44527| -80.17221|TRUE|FALSE|FALSE|TRUE
5695730|Sheraton Pittsburgh Hotel at Station Square|Pittsburgh, PA| 212|40.43473| -80.00598|FALSE|TRUE|TRUE|TRUE
5695730|Extended Stay America Suites Pittsburgh Airport|Pittsburgh, PA|  92|40.44345| -80.15972|TRUE|FALSE|FALSE|TRUE
5695730|Wyndham Garden Pittsburgh Airport|Pittsburgh, PA| 101|40.46570| -80.19865|TRUE|FALSE|FALSE|TRUE
5695730|Wyndham Grand Pittsburgh Downtown|Pittsburgh, PA| 172|40.44167| -80.00642|FALSE|TRUE|FALSE|TRUE
5695730|Homewood Suites by Hilton Pittsburgh Downtown|Pittsburgh, PA| 177|40.44797| -79.98988|FALSE|FALSE|TRUE|TRUE
5695730|Extended Stay America Suites Pittsburgh Carnegie|Pittsburgh, PA| 103|40.44062| -79.99589|TRUE|FALSE|FALSE|TRUE
5695730|Extended Stay America Suites Pittsburgh West Mifflin|Pittsburgh, PA|  87|40.36340| -79.86644|TRUE|FALSE|FALSE|TRUE
5695730|Red Roof Inn PLUS+ Pittsburgh South - Airport|Pittsburgh, PA|  91|40.44969| -80.15721|TRUE|FALSE|FALSE|TRUE
5695730|Springhill Suites by Marriott Pittsburgh North Shore|Pittsburgh, PA| 136|40.44859| -80.00462|FALSE|TRUE|FALSE|TRUE
5735777|Lexington Marriott City Center|Lexington, KY| 233|38.04636| -84.49804|FALSE|TRUE|TRUE|TRUE
5735777|Embassy Suites by Hilton Lexington/UK Coldstream|Lexington, KY| 196|38.09506| -84.48893|FALSE|FALSE|TRUE|TRUE
5735777|Super 8 by Wyndham Lexington/Hamburg Area|Lexington, KY|  64|38.04218| -84.42149|TRUE|FALSE|FALSE|TRUE
5735777|Comfort Inn Lexington Southeast|Lexington, KY|  77|37.96313| -84.38569|TRUE|FALSE|FALSE|TRUE
5735777|Extended Stay America Suites Lexington Nicholasville Road|Lexington, KY|  84|37.99367| -84.52255|TRUE|FALSE|FALSE|TRUE
5735777|Origin Lexington a Wyndham Hotel|Lexington, KY| 152|37.97629| -84.52592|FALSE|FALSE|TRUE|TRUE
5735777|The Sire Hotel Lexington, Tapestry Collection by Hilton|Lexington, KY| 192|38.04858| -84.49508|FALSE|TRUE|TRUE|TRUE
5735777|Mainstay Suites|Lexington, KY|  88|38.10173| -84.48329|TRUE|FALSE|FALSE|TRUE
5735777|Extended Stay America Suites Lexington Tates Creek|Lexington, KY|  78|37.98404| -84.49517|TRUE|FALSE|FALSE|TRUE
5735777|Elwood Hotel & Suites|Lexington, KY| 127|38.03500| -84.52312|FALSE|TRUE|FALSE|TRUE
5735777|The Campbell House Lexington, Curio Collection by Hilton|Lexington, KY| 147|38.03482| -84.52506|FALSE|TRUE|FALSE|TRUE
5735777|Hilton Lexington/Downtown|Lexington, KY| 277|38.04842| -84.50009|FALSE|TRUE|TRUE|TRUE
5735777|Quality Inn Lexington East/Hamburg Area|Lexington, KY|  68|38.04410| -84.42134|TRUE|FALSE|FALSE|TRUE
5735777|Quality Inn Lexington|Lexington, KY|  88|38.04407| -84.42158|TRUE|FALSE|FALSE|TRUE
5735777|Microtel Inn by Wyndham Lexington|Lexington, KY|  69|38.04227| -84.42691|TRUE|FALSE|FALSE|TRUE
5735777|Red Roof Inn Lexington - Hamburg|Lexington, KY|  72|38.04416| -84.42344|TRUE|FALSE|FALSE|TRUE
5735777|Courtyard by Marriott Lexington North|Lexington, KY| 127|38.07578| -84.49074|FALSE|TRUE|FALSE|TRUE
5735777|21c Museum Hotel Lexington|Lexington, KY| 253|38.04715| -84.49761|FALSE|TRUE|TRUE|TRUE
5735777|Residence Inn by Marriott Lexington City Center|Lexington, KY| 196|38.04689| -84.49792|FALSE|TRUE|TRUE|TRUE
5735777|Sleep Inn Lexington|Lexington, KY|  78|38.01913| -84.41471|TRUE|FALSE|FALSE|TRUE
5735777|Embassy Suites by Hilton Lexington Green|Lexington, KY| 186|37.99566| -84.52500|FALSE|FALSE|TRUE|TRUE
5735777|GuestHouse Lexington|Lexington, KY|  86|38.04296| -84.42383|TRUE|FALSE|FALSE|TRUE
5735777|Lexington Griffin Gate Marriott Golf Resort & Spa|Lexington, KY| 172|38.09317| -84.48504|FALSE|TRUE|TRUE|TRUE
5735777|Staybridge Suites Lexington S Medical Ctr Area, an IHG Hotel|Lexington, KY| 150|38.06673| -84.52880|FALSE|TRUE|TRUE|TRUE
5735811|Courtyard by Marriott Waco|Waco, TX| 189|31.56069| -97.13021|FALSE|TRUE|TRUE|TRUE
5735811|Residence Inn by Marriott Waco South|Waco, TX| 231|31.50119| -97.15756|FALSE|FALSE|TRUE|TRUE
5735811|Hotel Indigo WACO - BAYLOR, an IHG Hotel|Waco, TX| 248|31.55547| -97.12509|FALSE|TRUE|TRUE|TRUE
5735811|OYO Hotel Waco University Area/ I-35|Waco, TX|  61|31.56152| -97.11770|TRUE|TRUE|FALSE|TRUE
5735811|Ramada by Wyndham South Waco|Waco, TX|  97|31.45888| -97.17508|TRUE|FALSE|FALSE|TRUE
5735811|Staybridge Suites Waco South Woodway, an IHG hotel|Waco, TX| 182|31.50353| -97.19909|FALSE|FALSE|TRUE|TRUE
5735811|Hilton Waco|Waco, TX| 263|31.55959| -97.12826|FALSE|TRUE|TRUE|TRUE
5735811|Quality Inn & Suites|Waco, TX|  90|31.50935| -97.14411|TRUE|FALSE|FALSE|TRUE
5735811|Element Waco|Waco, TX| 183|31.52295| -97.13114|FALSE|TRUE|TRUE|TRUE
5735811|Residence Inn Waco|Waco, TX| 198|31.50136| -97.15763|FALSE|FALSE|TRUE|TRUE
5735811|Days Inn by Wyndham Waco University Area|Waco, TX|  80|31.51939| -97.13451|TRUE|FALSE|FALSE|TRUE
5735811|Americas Best Value Inn Waco|Waco, TX|  98|31.52699| -97.16542|TRUE|FALSE|FALSE|TRUE
5735811|Days Inn by Wyndham Waco|Waco, TX|  92|31.59837| -97.11001|TRUE|FALSE|FALSE|TRUE
5735811|1700 South 2nd|Waco, TX| 307|31.54609| -97.11277|FALSE|TRUE|TRUE|TRUE
5735811|Home2 Suites by Hilton Waco|Waco, TX| 169|31.52749| -97.13434|FALSE|TRUE|FALSE|TRUE
5735811|Knights Inn Franklin Ave Waco|Waco, TX|  86|31.52858| -97.16264|TRUE|FALSE|FALSE|TRUE
5735811|TownePlace Suites by Marriott Waco South|Waco, TX| 258|31.49368| -97.16109|FALSE|FALSE|TRUE|TRUE
5735811|Red Roof Inn Waco|Waco, TX| 114|31.56108| -97.11830|TRUE|TRUE|FALSE|TRUE
5735811|Studio 6 Waco, TX - Downtown - Baylor|Waco, TX|  75|31.53810| -97.12757|TRUE|TRUE|FALSE|TRUE
5735811|Extended Stay America Suites Waco Woodway|Waco, TX|  90|31.54933| -97.14667|TRUE|FALSE|FALSE|TRUE
5735811|Aloft Waco Baylor, a Marriott Hotel|Waco, TX| 242|31.54554| -97.12912|FALSE|TRUE|TRUE|TRUE
5735812|voco The Tiger Hotel, an IHG Hotel|Columbia, MO| 305|38.95087| -92.32880|FALSE|TRUE|TRUE|TRUE
5735812|Candlewood Suites Columbia East, an IHG Hotel|Columbia, MO| 128|38.96531| -92.28666|TRUE|FALSE|FALSE|TRUE
5735812|Staybridge Suites Columbia, an IHG Hotel|Columbia, MO| 149|38.95885| -92.29115|FALSE|TRUE|TRUE|TRUE
5735812|Holiday Inn Columbia East, an IHG Hotel|Columbia, MO| 137|38.95811| -92.25256|FALSE|FALSE|TRUE|TRUE
5735812|Stoney Creek Hotel Columbia|Columbia, MO| 134|38.92172| -92.33819|FALSE|TRUE|TRUE|TRUE
5735812|La Quinta Inn & Suites by Wyndham Columbia|Columbia, MO|  58|38.96803| -92.37609|TRUE|FALSE|FALSE|TRUE
5735812|Courtyard by Marriott Columbia Missouri|Columbia, MO| 146|38.91432| -92.29258|FALSE|TRUE|TRUE|TRUE
5735812|Residence Inn by Marriott Columbia|Columbia, MO| 172|38.96227| -92.28418|FALSE|FALSE|TRUE|TRUE
5735812|SpringHill Suites by Marriott Columbia|Columbia, MO| 150|38.96508| -92.28535|FALSE|FALSE|TRUE|TRUE
5735812|Holiday Inn Executive Center-Columbia Mall, an IHG Hotel|Columbia, MO| 123|38.96700| -92.37362|TRUE|FALSE|FALSE|TRUE
5735812|Extended Stay America Suites Columbia Stadium Blvd|Columbia, MO|  86|38.93925| -92.35196|TRUE|TRUE|FALSE|TRUE
5735812|Hilton Garden Inn Columbia|Columbia, MO| 115|38.97470| -92.28922|TRUE|FALSE|FALSE|TRUE
5735812|Super 8 by Wyndham Columbia East|Columbia, MO|  78|38.96089| -92.25079|TRUE|FALSE|FALSE|TRUE
5735812|TownePlace Suites by Marriott Columbia|Columbia, MO| 173|38.90058| -92.28693|FALSE|FALSE|TRUE|TRUE
5735812|Ramada by Wyndham Columbia|Columbia, MO|  72|38.96032| -92.29371|TRUE|TRUE|FALSE|TRUE
5735812|Hampton Inn Columbia|Columbia, MO| 133|38.96294| -92.28750|FALSE|FALSE|TRUE|TRUE
5735812|Country Inn & Suites by Radisson, Columbia, MO|Columbia, MO| 106|38.95968| -92.28967|TRUE|TRUE|FALSE|TRUE
5735812|Wingate by Wyndham - Columbia|Columbia, MO| 128|38.95827| -92.29132|TRUE|TRUE|FALSE|TRUE
5735812|Drury Plaza Hotel Columbia East|Columbia, MO| 144|38.96065| -92.28959|FALSE|FALSE|TRUE|TRUE
5735812|Comfort Suites Columbia - University Area|Columbia, MO|  95|38.96602| -92.35411|TRUE|TRUE|FALSE|TRUE
5735812|Red Roof Inn Columbia, MO|Columbia, MO|  64|38.97044| -92.33521|TRUE|TRUE|FALSE|TRUE
5735815|Hilton Garden Inn Manhattan|Manhattan, KS| 168|39.17522| -96.56066|TRUE|TRUE|TRUE|TRUE
5735815|Holiday Inn Manhattan at the Campus, an IHG Hotel|Manhattan, KS| 208|39.18551| -96.58258|TRUE|TRUE|TRUE|TRUE
5735815|Courtyard by Marriott Manhattan Aggieville|Manhattan, KS| 172|39.18634| -96.57501|TRUE|TRUE|TRUE|TRUE
5735815|Super 8 by Wyndham Manhattan KS|Manhattan, KS|  83|39.18120| -96.55578|TRUE|TRUE|TRUE|TRUE
5735815|Four Points by Sheraton Manhattan|Manhattan, KS| 138|39.17028| -96.59746|TRUE|TRUE|TRUE|TRUE
5735815|Quality Inn & Suites|Manhattan, KS|  93|39.18052| -96.55399|TRUE|TRUE|TRUE|TRUE
5735815|Best Western Manhattan Inn|Manhattan, KS| 115|39.18655| -96.54925|TRUE|TRUE|TRUE|TRUE
5735815|Comfort Suites Manhattan|Manhattan, KS| 157|39.19068| -96.55642|TRUE|TRUE|TRUE|TRUE
5735815|Parkwood Inn & Suites|Manhattan, KS| 127|39.17513| -96.58270|TRUE|TRUE|TRUE|TRUE
5735816|Fairfield Inn & Suites Norman|Norman, OK| 105|35.21614| -97.48856|TRUE|TRUE|TRUE|TRUE
5735816|NCED Conference Center & Hotel|Norman, OK| 147|35.19124| -97.39799|TRUE|TRUE|TRUE|TRUE
5735816|Hilton Garden Inn Norman|Norman, OK| 115|35.22621| -97.48796|TRUE|TRUE|TRUE|TRUE
5735816|Courtyard by Marriott Norman|Norman, OK| 115|35.22802| -97.48761|TRUE|TRUE|TRUE|TRUE
5735816|SureStay Plus Hotel by Best Western Norman|Norman, OK|  76|35.21569| -97.48871|TRUE|TRUE|TRUE|TRUE
5735816|Extended Stay America Select Suites - Oklahoma City - Norman|Norman, OK|  86|35.28389| -97.48361|TRUE|FALSE|TRUE|TRUE
5735816|Super 8 by Wyndham Norman|Norman, OK|  75|35.21752| -97.48221|TRUE|TRUE|TRUE|TRUE
5735816|Embassy Suites by Hilton Norman Hotel & Conference Center|Norman, OK| 145|35.24348| -97.47864|TRUE|TRUE|TRUE|TRUE
5735816|The Whispering Pines Inn Bed & Breakfast|Norman, OK| 156|35.18784| -97.32579|FALSE|TRUE|TRUE|TRUE
5735816|Americas Best Value Inn Norman at Univ of Oklahoma|Norman, OK|  74|35.21756| -97.48158|TRUE|TRUE|FALSE|TRUE
5735816|Stone Hill Norman, Trademark Collection by Wyndham|Norman, OK| 132|35.25714| -97.48725|TRUE|TRUE|TRUE|TRUE
5735819|Executive Inn Stillwater|Stillwater, OK|  62|36.11739| -97.12639|TRUE|TRUE|TRUE|TRUE
5735819|SpringHill Suites by Marriott Stillwater|Stillwater, OK| 127|36.11909| -97.11713|TRUE|TRUE|TRUE|TRUE
5735819|Home2 Suites by Hilton Stillwater|Stillwater, OK| 108|36.12741| -97.05581|TRUE|TRUE|TRUE|TRUE
5735819|Holiday Inn Stillwater - University West, an IHG Hotel|Stillwater, OK| 127|36.11363| -97.12223|TRUE|TRUE|TRUE|TRUE
5735819|Residence Inn by Marriott Stillwater|Stillwater, OK| 156|36.11253| -97.11693|TRUE|TRUE|TRUE|TRUE
5735819|Hampton Inn & Suites Stillwater|Stillwater, OK| 108|36.11461| -97.12177|TRUE|TRUE|TRUE|TRUE
5735819|Microtel Inn & Suites by Wyndham Stillwater|Stillwater, OK|  78|36.12557| -97.05305|TRUE|TRUE|TRUE|TRUE
5735819|Best Western Plus Cimarron Hotel & Suites|Stillwater, OK| 115|36.12580| -97.06004|TRUE|TRUE|TRUE|TRUE
5735819|Americas Best Value Inn Stillwater|Stillwater, OK|  58|36.11700| -97.12849|TRUE|TRUE|TRUE|TRUE
5735819|The Atherton Hotel At OSU|Stillwater, OK| 203|36.12045| -97.06880|TRUE|TRUE|TRUE|TRUE
5735821|Hotel Chester|Starkville, MS| 125|33.46408| -88.81416|TRUE|TRUE|TRUE|TRUE
5735821|Comfort Suites Starkville|Starkville, MS| 164|33.45860| -88.80038|TRUE|TRUE|TRUE|TRUE
5735821|Hilton Garden Inn Starkville|Starkville, MS| 161|33.48105| -88.79710|TRUE|TRUE|TRUE|TRUE
5735821|Courtyard Starkville MSU at The Mill Conference Center|Starkville, MS| 266|33.45666| -88.80229|TRUE|TRUE|TRUE|TRUE
5735821|Hampton Inn Starkville|Starkville, MS| 163|33.45375| -88.80542|TRUE|TRUE|TRUE|TRUE
5735822|Hilton Knoxville|Knoxville, TN| 185|35.96257| -83.92007|FALSE|TRUE|TRUE|TRUE
5735822|Red Roof Inn Knoxville Central - Papermill Road|Knoxville, TN|  87|35.94602| -84.00024|TRUE|TRUE|FALSE|TRUE
5735822|Embassy Suites by Hilton Knoxville Downtown|Knoxville, TN| 251|35.96485| -83.91821|FALSE|TRUE|TRUE|TRUE
5735822|Quality Inn Merchants Drive|Knoxville, TN|  84|36.01350| -83.97058|TRUE|FALSE|FALSE|TRUE
5735822|MainStay Suites Knoxville North I-75|Knoxville, TN|  99|36.00991| -83.96933|TRUE|FALSE|FALSE|TRUE
5735822|Hampton Inn Knoxville - Airport|Knoxville, TN|  97|35.81538| -83.97977|TRUE|FALSE|FALSE|TRUE
5735822|Microtel Inn by Wyndham Knoxville|Knoxville, TN|  70|35.91442| -84.09075|TRUE|FALSE|FALSE|TRUE
5735822|Rodeway Inn|Knoxville, TN|  70|36.00621| -83.77502|TRUE|FALSE|FALSE|TRUE
5735822|Graduate Knoxville|Knoxville, TN| 310|35.95563| -83.93261|FALSE|TRUE|TRUE|TRUE
5735822|OYO Hotel Knoxville TN Cedar Bluff I-40|Knoxville, TN|  70|35.92047| -84.09378|TRUE|FALSE|FALSE|TRUE
5735822|USA Inn|Knoxville, TN|  67|35.82326| -83.97602|TRUE|FALSE|FALSE|TRUE
5735822|Crowne Plaza Hotel Knoxville Downtown University, an IHG Hotel|Knoxville, TN| 210|35.96729| -83.92058|FALSE|TRUE|TRUE|TRUE
5735822|The Tennessean Personal Luxury Hotel|Knoxville, TN| 304|35.96245| -83.92308|FALSE|TRUE|TRUE|TRUE
5735822|Super 8 by Wyndham Knoxville Downtown Area|Knoxville, TN|  64|36.00870| -83.97670|TRUE|FALSE|FALSE|TRUE
5735822|Cumberland House Knoxville, Tapestry Collection by Hilton|Knoxville, TN| 203|35.96053| -83.92577|FALSE|TRUE|TRUE|TRUE
5735822|The Oliver Hotel|Knoxville, TN| 315|35.96470| -83.91975|FALSE|TRUE|TRUE|TRUE
5735822|Hilton Garden Inn Knoxville West/Cedar Bluff|Knoxville, TN| 170|35.91538| -84.09433|FALSE|FALSE|TRUE|TRUE
5735822|Marriott Knoxville Downtown|Knoxville, TN| 189|35.96270| -83.92267|FALSE|TRUE|TRUE|TRUE
5735822|Baymont by Wyndham Knoxville I-75|Knoxville, TN|  98|36.02673| -83.99088|TRUE|FALSE|FALSE|TRUE
5735822|Days Inn by Wyndham Knoxville East|Knoxville, TN|  99|36.01047| -83.84407|TRUE|FALSE|FALSE|TRUE
5735822|Hyatt Place Knoxville Downtown|Knoxville, TN| 222|35.96449| -83.91764|FALSE|TRUE|TRUE|TRUE
5735825|Sonesta ES Suites Baton Rouge University at Southgate|Baton Rouge, LA| 145|30.40017| -91.17942|FALSE|TRUE|TRUE|TRUE
5735825|Hilton Baton Rouge Capitol Center|Baton Rouge, LA| 330|30.44874| -91.18973|FALSE|TRUE|TRUE|TRUE
5735825|Quality Inn Baton Rouge East I-12|Baton Rouge, LA|  70|30.42678| -91.07831|TRUE|FALSE|FALSE|TRUE
5735825|The Cook Hotel & Conference Center|Baton Rouge, LA| 173|30.41351| -91.16985|FALSE|TRUE|TRUE|TRUE
5735825|Siegen Inn|Baton Rouge, LA|  65|30.38810| -91.06093|TRUE|FALSE|FALSE|TRUE
5735825|Red Roof Inn Port Allen|Baton Rouge, LA|  62|30.44880| -91.24538|TRUE|FALSE|FALSE|TRUE
5735825|OYO Hotel Baton Rouge Mid City|Baton Rouge, LA|  64|30.42707| -91.07601|TRUE|FALSE|FALSE|TRUE
5735825|Audubon Inn|Baton Rouge, LA|  59|30.44550| -91.24499|TRUE|FALSE|FALSE|TRUE
5735825|Crowne Plaza Baton Rouge, an IHG Hotel|Baton Rouge, LA| 160|30.42128| -91.13613|FALSE|TRUE|TRUE|TRUE
5735825|Marriott Baton Rouge|Baton Rouge, LA| 187|30.38026| -91.06476|FALSE|FALSE|TRUE|TRUE
5735825|Courtyard by Marriott Baton Rouge Acadian Centre/LSU Area|Baton Rouge, LA| 129|30.42312| -91.14982|FALSE|TRUE|FALSE|TRUE
5735825|OYO Hotel Port Allen LA|Baton Rouge, LA|  58|30.42500| -91.21572|TRUE|TRUE|FALSE|TRUE
5735825|DoubleTree by Hilton Hotel Baton Rouge|Baton Rouge, LA| 137|30.42150| -91.13151|FALSE|TRUE|TRUE|TRUE
5735825|Quality Inn & Suites Baton Rouge West – Port Allen|Baton Rouge, LA|  57|30.45058| -91.24385|TRUE|FALSE|FALSE|TRUE
5735825|Home2 Suites by Hilton Baton Rouge Citiplace|Baton Rouge, LA| 147|30.42304| -91.13053|FALSE|FALSE|TRUE|TRUE
5735825|OYO Hotel Baton Rouge East I-12|Baton Rouge, LA|  58|30.42815| -91.07616|TRUE|FALSE|FALSE|TRUE
5735825|Embassy Suites Hotel Baton Rouge|Baton Rouge, LA| 167|30.42102| -91.13313|FALSE|TRUE|TRUE|TRUE
5735825|OYO Hotel Baton Rouge - Mead Rd|Baton Rouge, LA|  52|30.42747| -91.05926|TRUE|FALSE|FALSE|TRUE
5735825|WATERMARK Baton Rouge, Autograph Collection|Baton Rouge, LA| 629|30.44809| -91.18794|FALSE|TRUE|TRUE|TRUE
5735825|Comfort Inn University Area|Baton Rouge, LA| 118|30.42144| -91.13230|FALSE|TRUE|FALSE|TRUE
5735825|FairBridge Inn Express Baton Rouge|Baton Rouge, LA|  58|30.43100| -91.05860|TRUE|FALSE|FALSE|TRUE
5735825|Homewood Suites by Hilton Baton Rouge|Baton Rouge, LA| 132|30.42444| -91.13058|FALSE|FALSE|TRUE|TRUE
5735826|Suburban Studios|Morgantown, WV|  96|39.62797| -79.92684|TRUE|FALSE|FALSE|TRUE
5735826|Quality Inn|Morgantown, WV|  95|39.58631| -79.95282|TRUE|FALSE|FALSE|TRUE
5735826|Super 8 by Wyndham Morgantown|Morgantown, WV|  85|39.64894| -79.89710|TRUE|FALSE|FALSE|TRUE
5735826|Hampton Inn Morgantown|Morgantown, WV| 150|39.65351| -79.96428|FALSE|TRUE|TRUE|TRUE
5735826|Holiday Inn Express Morgantown, an IHG Hotel|Morgantown, WV| 148|39.64914| -79.89809|FALSE|FALSE|TRUE|TRUE
5735826|Lakeview Golf Resort, Trademark Collection by Wyndham|Morgantown, WV|  85|39.66646| -79.85385|TRUE|FALSE|FALSE|TRUE
5735826|The Cranberry, Ascend Hotel Collection|Morgantown, WV| 168|39.67114| -79.85656|FALSE|FALSE|TRUE|TRUE
5735826|Fairfield Inn & Suites by Marriott Morgantown|Morgantown, WV| 178|39.65333| -80.00727|FALSE|TRUE|TRUE|TRUE
5735826|Springhill Suites by Marriott Morgantown|Morgantown, WV| 118|39.61881| -79.92391|TRUE|FALSE|TRUE|TRUE
5735826|Euro Suites Hotel|Morgantown, WV| 144|39.65841| -79.96225|TRUE|TRUE|TRUE|TRUE
5735826|Hilton Garden Inn Morgantown|Morgantown, WV| 150|39.65385| -79.94443|FALSE|FALSE|TRUE|TRUE
5735826|SureStay Plus Hotel by Best Western Morgantown|Morgantown, WV| 104|39.62673| -79.99184|TRUE|TRUE|FALSE|TRUE
5735826|Econo Lodge|Morgantown, WV|  53|39.65574| -79.98542|TRUE|TRUE|FALSE|TRUE
5735826|Candlewood Suites Morgantown-Univ West Virginia, an IHG Hotel|Morgantown, WV| 117|39.65852| -80.01466|TRUE|TRUE|FALSE|TRUE
5735826|Holiday Inn Morgantown - University Area, an IHG Hotel|Morgantown, WV| 146|39.65920| -79.95375|FALSE|TRUE|TRUE|TRUE
5735826|Morgantown Marriott at Waterfront Place|Morgantown, WV| 225|39.62397| -79.96379|FALSE|TRUE|TRUE|TRUE
5735826|Residence Inn by Marriott Morgantown Medical Center Area|Morgantown, WV| 171|39.65378| -79.95244|FALSE|TRUE|TRUE|TRUE
5735826|Hotel M Morgantown - WVU Area|Morgantown, WV|  66|39.65435| -79.98575|TRUE|TRUE|FALSE|TRUE
5739593|Pendry Manhattan West|Newark, NJ| 682|40.75339| -73.99859|FALSE|FALSE|TRUE|TRUE
5739593|Americana Inn|Newark, NJ| 113|40.75229| -73.98555|TRUE|FALSE|FALSE|TRUE
5739593|The Dominick|Newark, NJ| 543|40.72547| -74.00533|FALSE|FALSE|TRUE|TRUE
5739593|Howard Johnson by Wyndham North Bergen|Newark, NJ| 110|40.76433| -74.04720|TRUE|FALSE|FALSE|TRUE
5739593|Robert Treat Hotel, BW Premier Collection|Newark, NJ| 117|40.73920| -74.16831|TRUE|TRUE|FALSE|TRUE
5739593|1 Hotel Brooklyn Bridge|Newark, NJ| 727|40.70241| -73.99553|FALSE|FALSE|TRUE|TRUE
5739593|The Ritz-Carlton New York, NoMad|Newark, NJ| 916|40.74554| -73.98884|FALSE|FALSE|TRUE|TRUE
5739593|The Jane Hotel|Newark, NJ| 118|40.73830| -74.00942|TRUE|FALSE|FALSE|TRUE
5739593|Midtown Convention Center Hotel|Newark, NJ| 115|40.75746| -73.99860|TRUE|FALSE|FALSE|TRUE
5739593|Days Inn by Wyndham Jersey City / NYC Area|Newark, NJ| 119|40.75580| -74.05475|TRUE|FALSE|FALSE|TRUE
5739593|The Knickerbocker Hotel|Newark, NJ| 508|40.73566| -74.17237|FALSE|TRUE|FALSE|TRUE
5739593|11 Howard|Newark, NJ| 398|40.73759| -74.18292|FALSE|TRUE|FALSE|TRUE
5739593|Holiday Inn Newark International Airport, an IHG Hotel|Newark, NJ| 137|40.71291| -74.16644|FALSE|TRUE|FALSE|TRUE
5739593|The Langham, New York, Fifth Avenue|Newark, NJ| 723|40.75014| -73.98353|FALSE|FALSE|TRUE|TRUE
5739593|Casa Cipriani New York|Newark, NJ| 979|40.70110| -74.01188|FALSE|FALSE|TRUE|TRUE
5739593|Red Carpet Inn Newark Irvington, NJ|Newark, NJ|  98|40.72317| -74.23132|TRUE|FALSE|FALSE|TRUE
5739593|Courtyard by Marriott Newark Downtown|Newark, NJ| 165|40.73352| -74.17293|FALSE|TRUE|FALSE|TRUE
5739593|DoubleTree by Hilton Newark Penn Station|Newark, NJ| 175|40.73542| -74.16537|FALSE|TRUE|FALSE|TRUE
5739593|Windsor Hotel|Newark, NJ| 119|40.73566| -74.17237|TRUE|TRUE|FALSE|TRUE
5739593|St Marks Hotel|Newark, NJ| 100|40.72928| -73.98965|TRUE|FALSE|FALSE|TRUE
5739593|Rodeway Inn Meadowlands|Newark, NJ|  94|40.79292| -74.05712|TRUE|FALSE|FALSE|TRUE
5739593|The New York EDITION|Newark, NJ| 808|40.74129| -73.98736|FALSE|FALSE|TRUE|TRUE
5739593|Four Seasons Hotel New York Downtown|Newark, NJ| 887|40.71263| -74.00919|FALSE|FALSE|TRUE|TRUE
5739593|Extended Stay America Suites Elizabeth Newark Airport|Newark, NJ| 111|40.66395| -74.17663|TRUE|FALSE|FALSE|TRUE
5739593|Hotel Barriere Fouquets New York|Newark, NJ| 896|40.72362| -74.00975|FALSE|FALSE|TRUE|TRUE
5739593|Equinox Hotel New York|Newark, NJ| 773|40.75465| -74.00221|FALSE|FALSE|TRUE|TRUE
5739593|TRYP by Wyndham Newark Downtown|Newark, NJ| 134|40.73831| -74.16799|FALSE|TRUE|FALSE|TRUE
5739593|DoubleTree by Hilton Hotel Newark Airport|Newark, NJ| 214|40.71284| -74.16429|FALSE|TRUE|FALSE|TRUE
5739593|Element Harrison - Newark, a Marriott Hotel|Newark, NJ| 185|40.74045| -74.15638|FALSE|TRUE|FALSE|TRUE
5739595|Four Seasons Hotel New York Downtown|Newark, NJ| 887|40.71263| -74.00919|FALSE|FALSE|TRUE|TRUE
5739595|DoubleTree by Hilton Newark Penn Station|Newark, NJ| 175|40.73542| -74.16537|FALSE|TRUE|FALSE|TRUE
5739595|Red Carpet Inn Newark Irvington, NJ|Newark, NJ|  98|40.72317| -74.23132|TRUE|FALSE|FALSE|TRUE
5739595|1 Hotel Brooklyn Bridge|Newark, NJ| 727|40.70241| -73.99553|FALSE|FALSE|TRUE|TRUE
5739595|St Marks Hotel|Newark, NJ| 100|40.72928| -73.98965|TRUE|FALSE|FALSE|TRUE
5739595|Courtyard by Marriott Newark Downtown|Newark, NJ| 165|40.73352| -74.17293|FALSE|TRUE|FALSE|TRUE
5739595|Windsor Hotel|Newark, NJ| 119|40.73566| -74.17237|TRUE|TRUE|FALSE|TRUE
5739595|The Jane Hotel|Newark, NJ| 118|40.73830| -74.00942|TRUE|FALSE|FALSE|TRUE
5739595|The Langham, New York, Fifth Avenue|Newark, NJ| 723|40.75014| -73.98353|FALSE|FALSE|TRUE|TRUE
5739595|Extended Stay America Suites Elizabeth Newark Airport|Newark, NJ| 111|40.66395| -74.17663|TRUE|FALSE|FALSE|TRUE
5739595|Rodeway Inn Meadowlands|Newark, NJ|  94|40.79292| -74.05712|TRUE|FALSE|FALSE|TRUE
5739595|Casa Cipriani New York|Newark, NJ| 979|40.70110| -74.01188|FALSE|FALSE|TRUE|TRUE
5739595|11 Howard|Newark, NJ| 398|40.73759| -74.18292|FALSE|TRUE|FALSE|TRUE
5739595|Howard Johnson by Wyndham North Bergen|Newark, NJ| 110|40.76433| -74.04720|TRUE|FALSE|FALSE|TRUE
5739595|DoubleTree by Hilton Hotel Newark Airport|Newark, NJ| 214|40.71284| -74.16429|FALSE|TRUE|FALSE|TRUE
5739595|Midtown Convention Center Hotel|Newark, NJ| 115|40.75746| -73.99860|TRUE|FALSE|FALSE|TRUE
5739595|Days Inn by Wyndham Jersey City / NYC Area|Newark, NJ| 119|40.75580| -74.05475|TRUE|FALSE|FALSE|TRUE
5739595|TRYP by Wyndham Newark Downtown|Newark, NJ| 134|40.73831| -74.16799|FALSE|TRUE|FALSE|TRUE
5739595|The Ritz-Carlton New York, NoMad|Newark, NJ| 916|40.74554| -73.98884|FALSE|FALSE|TRUE|TRUE
5739595|The Dominick|Newark, NJ| 543|40.72547| -74.00533|FALSE|FALSE|TRUE|TRUE
5739595|Holiday Inn Newark International Airport, an IHG Hotel|Newark, NJ| 137|40.71291| -74.16644|FALSE|TRUE|FALSE|TRUE
5739595|The New York EDITION|Newark, NJ| 808|40.74129| -73.98736|FALSE|FALSE|TRUE|TRUE
5739595|Hotel Barriere Fouquets New York|Newark, NJ| 896|40.72362| -74.00975|FALSE|FALSE|TRUE|TRUE
5739595|Pendry Manhattan West|Newark, NJ| 682|40.75339| -73.99859|FALSE|FALSE|TRUE|TRUE
5739595|Americana Inn|Newark, NJ| 113|40.75229| -73.98555|TRUE|FALSE|FALSE|TRUE
5739595|Robert Treat Hotel, BW Premier Collection|Newark, NJ| 117|40.73920| -74.16831|TRUE|TRUE|FALSE|TRUE
5739595|Element Harrison - Newark, a Marriott Hotel|Newark, NJ| 185|40.74045| -74.15638|FALSE|TRUE|FALSE|TRUE
5739595|Equinox Hotel New York|Newark, NJ| 773|40.75465| -74.00221|FALSE|FALSE|TRUE|TRUE
5739595|The Knickerbocker Hotel|Newark, NJ| 508|40.73566| -74.17237|FALSE|TRUE|FALSE|TRUE
5739598|Holiday Inn Newark International Airport, an IHG Hotel|Newark, NJ| 137|40.71291| -74.16644|FALSE|TRUE|FALSE|TRUE
5739598|Element Harrison - Newark, a Marriott Hotel|Newark, NJ| 185|40.74045| -74.15638|FALSE|TRUE|FALSE|TRUE
5739598|The Ritz-Carlton New York, NoMad|Newark, NJ| 916|40.74554| -73.98884|FALSE|FALSE|TRUE|TRUE
5739598|11 Howard|Newark, NJ| 398|40.73759| -74.18292|FALSE|TRUE|FALSE|TRUE
5739598|Courtyard by Marriott Newark Downtown|Newark, NJ| 165|40.73352| -74.17293|FALSE|TRUE|FALSE|TRUE
5739598|Red Carpet Inn Newark Irvington, NJ|Newark, NJ|  98|40.72317| -74.23132|TRUE|FALSE|FALSE|TRUE
5739598|St Marks Hotel|Newark, NJ| 100|40.72928| -73.98965|TRUE|FALSE|FALSE|TRUE
5739598|DoubleTree by Hilton Newark Penn Station|Newark, NJ| 175|40.73542| -74.16537|FALSE|TRUE|FALSE|TRUE
5739598|Robert Treat Hotel, BW Premier Collection|Newark, NJ| 117|40.73920| -74.16831|TRUE|TRUE|FALSE|TRUE
5739598|Days Inn by Wyndham Jersey City / NYC Area|Newark, NJ| 119|40.75580| -74.05475|TRUE|FALSE|FALSE|TRUE
5739598|DoubleTree by Hilton Hotel Newark Airport|Newark, NJ| 214|40.71284| -74.16429|FALSE|TRUE|FALSE|TRUE
5739598|Windsor Hotel|Newark, NJ| 119|40.73566| -74.17237|TRUE|TRUE|FALSE|TRUE
5739598|The Dominick|Newark, NJ| 543|40.72547| -74.00533|FALSE|FALSE|TRUE|TRUE
5739598|Casa Cipriani New York|Newark, NJ| 979|40.70110| -74.01188|FALSE|FALSE|TRUE|TRUE
5739598|Hotel Barriere Fouquets New York|Newark, NJ| 896|40.72362| -74.00975|FALSE|FALSE|TRUE|TRUE
5739598|The Jane Hotel|Newark, NJ| 118|40.73830| -74.00942|TRUE|FALSE|FALSE|TRUE
5739598|Four Seasons Hotel New York Downtown|Newark, NJ| 887|40.71263| -74.00919|FALSE|FALSE|TRUE|TRUE
5739598|The Knickerbocker Hotel|Newark, NJ| 508|40.73566| -74.17237|FALSE|TRUE|FALSE|TRUE
5739598|Midtown Convention Center Hotel|Newark, NJ| 115|40.75746| -73.99860|TRUE|FALSE|FALSE|TRUE
5739598|The Langham, New York, Fifth Avenue|Newark, NJ| 723|40.75014| -73.98353|FALSE|FALSE|TRUE|TRUE
5739598|Howard Johnson by Wyndham North Bergen|Newark, NJ| 110|40.76433| -74.04720|TRUE|FALSE|FALSE|TRUE
5739598|Pendry Manhattan West|Newark, NJ| 682|40.75339| -73.99859|FALSE|FALSE|TRUE|TRUE
5739598|Americana Inn|Newark, NJ| 113|40.75229| -73.98555|TRUE|FALSE|FALSE|TRUE
5739598|Equinox Hotel New York|Newark, NJ| 773|40.75465| -74.00221|FALSE|FALSE|TRUE|TRUE
5739598|Rodeway Inn Meadowlands|Newark, NJ|  94|40.79292| -74.05712|TRUE|FALSE|FALSE|TRUE
5739598|TRYP by Wyndham Newark Downtown|Newark, NJ| 134|40.73831| -74.16799|FALSE|TRUE|FALSE|TRUE
5739598|The New York EDITION|Newark, NJ| 808|40.74129| -73.98736|FALSE|FALSE|TRUE|TRUE
5739598|Extended Stay America Suites Elizabeth Newark Airport|Newark, NJ| 111|40.66395| -74.17663|TRUE|FALSE|FALSE|TRUE
5739598|1 Hotel Brooklyn Bridge|Newark, NJ| 727|40.70241| -73.99553|FALSE|FALSE|TRUE|TRUE
5739599|1 Hotel Brooklyn Bridge|Newark, NJ| 727|40.70241| -73.99553|FALSE|FALSE|TRUE|TRUE
5739599|Red Carpet Inn Newark Irvington, NJ|Newark, NJ|  98|40.72317| -74.23132|TRUE|FALSE|FALSE|TRUE
5739599|Days Inn by Wyndham Jersey City / NYC Area|Newark, NJ| 119|40.75580| -74.05475|TRUE|FALSE|FALSE|TRUE
5739599|Courtyard by Marriott Newark Downtown|Newark, NJ| 165|40.73352| -74.17293|FALSE|TRUE|FALSE|TRUE
5739599|The Jane Hotel|Newark, NJ| 118|40.73830| -74.00942|TRUE|FALSE|FALSE|TRUE
5739599|Equinox Hotel New York|Newark, NJ| 773|40.75465| -74.00221|FALSE|FALSE|TRUE|TRUE
5739599|Extended Stay America Suites Elizabeth Newark Airport|Newark, NJ| 111|40.66395| -74.17663|TRUE|FALSE|FALSE|TRUE
5739599|Element Harrison - Newark, a Marriott Hotel|Newark, NJ| 185|40.74045| -74.15638|FALSE|TRUE|FALSE|TRUE
5739599|The Langham, New York, Fifth Avenue|Newark, NJ| 723|40.75014| -73.98353|FALSE|FALSE|TRUE|TRUE
5739599|The Dominick|Newark, NJ| 543|40.72547| -74.00533|FALSE|FALSE|TRUE|TRUE
5739599|Holiday Inn Newark International Airport, an IHG Hotel|Newark, NJ| 137|40.71291| -74.16644|FALSE|TRUE|FALSE|TRUE
5739599|DoubleTree by Hilton Newark Penn Station|Newark, NJ| 175|40.73542| -74.16537|FALSE|TRUE|FALSE|TRUE
5739599|St Marks Hotel|Newark, NJ| 100|40.72928| -73.98965|TRUE|FALSE|FALSE|TRUE
5739599|Robert Treat Hotel, BW Premier Collection|Newark, NJ| 117|40.73920| -74.16831|TRUE|TRUE|FALSE|TRUE
5739599|DoubleTree by Hilton Hotel Newark Airport|Newark, NJ| 214|40.71284| -74.16429|FALSE|TRUE|FALSE|TRUE
5739599|Howard Johnson by Wyndham North Bergen|Newark, NJ| 110|40.76433| -74.04720|TRUE|FALSE|FALSE|TRUE
5739599|11 Howard|Newark, NJ| 398|40.73759| -74.18292|FALSE|TRUE|FALSE|TRUE
5739599|Americana Inn|Newark, NJ| 113|40.75229| -73.98555|TRUE|FALSE|FALSE|TRUE
5739599|Hotel Barriere Fouquets New York|Newark, NJ| 896|40.72362| -74.00975|FALSE|FALSE|TRUE|TRUE
5739599|The New York EDITION|Newark, NJ| 808|40.74129| -73.98736|FALSE|FALSE|TRUE|TRUE
5739599|TRYP by Wyndham Newark Downtown|Newark, NJ| 134|40.73831| -74.16799|FALSE|TRUE|FALSE|TRUE
5739599|Midtown Convention Center Hotel|Newark, NJ| 115|40.75746| -73.99860|TRUE|FALSE|FALSE|TRUE
5739599|Windsor Hotel|Newark, NJ| 119|40.73566| -74.17237|TRUE|TRUE|FALSE|TRUE
5739599|The Knickerbocker Hotel|Newark, NJ| 508|40.73566| -74.17237|FALSE|TRUE|FALSE|TRUE
5739599|Four Seasons Hotel New York Downtown|Newark, NJ| 887|40.71263| -74.00919|FALSE|FALSE|TRUE|TRUE
5739599|Pendry Manhattan West|Newark, NJ| 682|40.75339| -73.99859|FALSE|FALSE|TRUE|TRUE
5739599|The Ritz-Carlton New York, NoMad|Newark, NJ| 916|40.74554| -73.98884|FALSE|FALSE|TRUE|TRUE
5739599|Casa Cipriani New York|Newark, NJ| 979|40.70110| -74.01188|FALSE|FALSE|TRUE|TRUE
5739599|Rodeway Inn Meadowlands|Newark, NJ|  94|40.79292| -74.05712|TRUE|FALSE|FALSE|TRUE
5739602|DoubleTree by Hilton Newark Penn Station|Newark, NJ| 175|40.73542| -74.16537|FALSE|TRUE|FALSE|TRUE
5739602|Element Harrison - Newark, a Marriott Hotel|Newark, NJ| 185|40.74045| -74.15638|FALSE|TRUE|FALSE|TRUE
5739602|Rodeway Inn Meadowlands|Newark, NJ|  94|40.79292| -74.05712|TRUE|FALSE|FALSE|TRUE
5739602|The Dominick|Newark, NJ| 543|40.72547| -74.00533|FALSE|FALSE|TRUE|TRUE
5739602|The Knickerbocker Hotel|Newark, NJ| 508|40.73566| -74.17237|FALSE|TRUE|FALSE|TRUE
5739602|Robert Treat Hotel, BW Premier Collection|Newark, NJ| 117|40.73920| -74.16831|TRUE|TRUE|FALSE|TRUE
5739602|Extended Stay America Suites Elizabeth Newark Airport|Newark, NJ| 111|40.66395| -74.17663|TRUE|FALSE|FALSE|TRUE
5739602|Courtyard by Marriott Newark Downtown|Newark, NJ| 165|40.73352| -74.17293|FALSE|TRUE|FALSE|TRUE
5739602|Days Inn by Wyndham Jersey City / NYC Area|Newark, NJ| 119|40.75580| -74.05475|TRUE|FALSE|FALSE|TRUE
5739602|Holiday Inn Newark International Airport, an IHG Hotel|Newark, NJ| 137|40.71291| -74.16644|FALSE|TRUE|FALSE|TRUE
5739602|Howard Johnson by Wyndham North Bergen|Newark, NJ| 110|40.76433| -74.04720|TRUE|FALSE|FALSE|TRUE
5739602|The Langham, New York, Fifth Avenue|Newark, NJ| 723|40.75014| -73.98353|FALSE|FALSE|TRUE|TRUE
5739602|Midtown Convention Center Hotel|Newark, NJ| 115|40.75746| -73.99860|TRUE|FALSE|FALSE|TRUE
5739602|Red Carpet Inn Newark Irvington, NJ|Newark, NJ|  98|40.72317| -74.23132|TRUE|FALSE|FALSE|TRUE
5739602|1 Hotel Brooklyn Bridge|Newark, NJ| 727|40.70241| -73.99553|FALSE|FALSE|TRUE|TRUE
5739602|St Marks Hotel|Newark, NJ| 100|40.72928| -73.98965|TRUE|FALSE|FALSE|TRUE
5739602|The Jane Hotel|Newark, NJ| 118|40.73830| -74.00942|TRUE|FALSE|FALSE|TRUE
5739602|Windsor Hotel|Newark, NJ| 119|40.73566| -74.17237|TRUE|TRUE|FALSE|TRUE
5739602|Pendry Manhattan West|Newark, NJ| 682|40.75339| -73.99859|FALSE|FALSE|TRUE|TRUE
5739602|Equinox Hotel New York|Newark, NJ| 773|40.75465| -74.00221|FALSE|FALSE|TRUE|TRUE
5739602|The Ritz-Carlton New York, NoMad|Newark, NJ| 916|40.74554| -73.98884|FALSE|FALSE|TRUE|TRUE
5739602|DoubleTree by Hilton Hotel Newark Airport|Newark, NJ| 214|40.71284| -74.16429|FALSE|TRUE|FALSE|TRUE
5739602|TRYP by Wyndham Newark Downtown|Newark, NJ| 134|40.73831| -74.16799|FALSE|TRUE|FALSE|TRUE
5739602|The New York EDITION|Newark, NJ| 808|40.74129| -73.98736|FALSE|FALSE|TRUE|TRUE
5739602|Hotel Barriere Fouquets New York|Newark, NJ| 896|40.72362| -74.00975|FALSE|FALSE|TRUE|TRUE
5739602|Casa Cipriani New York|Newark, NJ| 979|40.70110| -74.01188|FALSE|FALSE|TRUE|TRUE
5739602|11 Howard|Newark, NJ| 398|40.73759| -74.18292|FALSE|TRUE|FALSE|TRUE
5739602|Americana Inn|Newark, NJ| 113|40.75229| -73.98555|TRUE|FALSE|FALSE|TRUE
5739602|Four Seasons Hotel New York Downtown|Newark, NJ| 887|40.71263| -74.00919|FALSE|FALSE|TRUE|TRUE
5739778|The Bostonian Boston|Boston, MA| 189|42.36106| -71.05591|FALSE|TRUE|FALSE|TRUE
5739778|The Boxer|Boston, MA| 172|42.36388| -71.06252|FALSE|TRUE|FALSE|TRUE
5739778|The Whitney Hotel|Boston, MA| 385|42.36064| -71.07107|FALSE|TRUE|FALSE|TRUE
5739778|Hampton Inn Boston Logan Airport Chelsea|Boston, MA| 106|42.39411| -71.04454|TRUE|FALSE|FALSE|TRUE
5739778|The Langham, Boston|Boston, MA| 519|42.35648| -71.05450|FALSE|FALSE|TRUE|TRUE
5739778|Onyx Boston Downtown|Boston, MA| 167|42.36420| -71.06145|FALSE|TRUE|FALSE|TRUE
5739778|Encore Boston Harbor|Boston, MA| 669|42.39553| -71.06933|FALSE|FALSE|TRUE|TRUE
5739778|Best Western Plus New Englander|Boston, MA| 110|42.48082| -71.11883|TRUE|FALSE|FALSE|TRUE
5739778|XV Beacon|Boston, MA| 693|42.35832| -71.06193|FALSE|TRUE|TRUE|TRUE
5739778|Four Points by Sheraton Boston Logan Airport Revere|Boston, MA| 106|42.42940| -71.01504|TRUE|FALSE|FALSE|TRUE
5739778|Extended Stay America Suites - Boston - Saugus|Boston, MA| 111|42.46514| -71.01105|TRUE|FALSE|FALSE|TRUE
5739778|Comfort Inn Woburn - Boston|Boston, MA|  94|42.47895| -71.11530|TRUE|FALSE|FALSE|TRUE
5739778|Boston Omni Parker House Hotel|Boston, MA| 204|42.35776| -71.06011|FALSE|TRUE|FALSE|TRUE
5739778|Freepoint Hotel Cambridge, Tapestry Collection by Hilton|Boston, MA| 121|42.38872| -71.14234|TRUE|FALSE|FALSE|TRUE
5739778|Boston Harbor Hotel|Boston, MA| 664|42.35666| -71.05032|FALSE|FALSE|TRUE|TRUE
5739778|The Newbury Boston|Boston, MA| 660|42.35293| -71.07149|FALSE|FALSE|TRUE|TRUE
5739778|Wyndham Boston Beacon Hill|Boston, MA| 197|42.36172| -71.06670|FALSE|TRUE|FALSE|TRUE
5739778|Aloft Boston Seaport District, a Marriott Hotel|Boston, MA| 743|42.34346| -71.04492|FALSE|FALSE|TRUE|TRUE
5739778|Four Seasons Hotel One Dalton Street, Boston|Boston, MA| 786|42.34571| -71.08394|FALSE|FALSE|TRUE|TRUE
5739778|Harborside Inn Of Boston|Boston, MA| 208|42.35927| -71.05283|FALSE|TRUE|FALSE|TRUE
5739778|The Farrington Inn|Boston, MA| 104|42.35426| -71.13089|TRUE|FALSE|FALSE|TRUE
5739778|Four Points by Sheraton Boston Newton|Boston, MA| 111|42.35677| -71.18701|TRUE|FALSE|FALSE|TRUE
5739778|Sheraton Boston Needham Hotel|Boston, MA| 120|42.30306| -71.21998|TRUE|FALSE|FALSE|TRUE
5739778|Mandarin Oriental Boston|Boston, MA| 751|42.34869| -71.08160|FALSE|FALSE|TRUE|TRUE
5739778|citizenM Boston North Station|Boston, MA| 179|42.36556| -71.06185|FALSE|TRUE|FALSE|TRUE
5739778|The Ritz-Carlton, Boston|Boston, MA| 751|42.35317| -71.06369|FALSE|FALSE|TRUE|TRUE
5739778|Courtyard by Marriott Boston Downtown/North Station|Boston, MA| 261|42.36587| -71.05964|FALSE|TRUE|FALSE|TRUE
5739778|The Charles Hotel|Boston, MA| 435|42.37229| -71.12298|FALSE|FALSE|TRUE|TRUE
5739778|Courtyard by Marriott Woburn/Boston North|Boston, MA| 113|42.48808| -71.11657|TRUE|FALSE|FALSE|TRUE
5739782|Mandarin Oriental Boston|Boston, MA| 751|42.34869| -71.08160|FALSE|FALSE|TRUE|TRUE
5739782|Best Western Plus New Englander|Boston, MA| 110|42.48082| -71.11883|TRUE|FALSE|FALSE|TRUE
5739782|The Boxer|Boston, MA| 172|42.36388| -71.06252|FALSE|TRUE|FALSE|TRUE
5739782|Encore Boston Harbor|Boston, MA| 669|42.39553| -71.06933|FALSE|FALSE|TRUE|TRUE
5739782|Harborside Inn Of Boston|Boston, MA| 208|42.35927| -71.05283|FALSE|TRUE|FALSE|TRUE
5739782|Courtyard by Marriott Boston Downtown/North Station|Boston, MA| 261|42.36587| -71.05964|FALSE|TRUE|FALSE|TRUE
5739782|Comfort Inn Woburn - Boston|Boston, MA|  94|42.47895| -71.11530|TRUE|FALSE|FALSE|TRUE
5739782|Four Points by Sheraton Boston Logan Airport Revere|Boston, MA| 106|42.42940| -71.01504|TRUE|FALSE|FALSE|TRUE
5739782|Aloft Boston Seaport District, a Marriott Hotel|Boston, MA| 743|42.34346| -71.04492|FALSE|FALSE|TRUE|TRUE
5739782|citizenM Boston North Station|Boston, MA| 179|42.36556| -71.06185|FALSE|TRUE|FALSE|TRUE
5739782|The Ritz-Carlton, Boston|Boston, MA| 751|42.35317| -71.06369|FALSE|FALSE|TRUE|TRUE
5739782|Freepoint Hotel Cambridge, Tapestry Collection by Hilton|Boston, MA| 121|42.38872| -71.14234|TRUE|FALSE|FALSE|TRUE
5739782|Boston Harbor Hotel|Boston, MA| 664|42.35666| -71.05032|FALSE|FALSE|TRUE|TRUE
5739782|Boston Omni Parker House Hotel|Boston, MA| 204|42.35776| -71.06011|FALSE|TRUE|FALSE|TRUE
5739782|Hampton Inn Boston Logan Airport Chelsea|Boston, MA| 106|42.39411| -71.04454|TRUE|FALSE|FALSE|TRUE
5739782|XV Beacon|Boston, MA| 693|42.35832| -71.06193|FALSE|TRUE|TRUE|TRUE
5739782|Four Points by Sheraton Boston Newton|Boston, MA| 111|42.35677| -71.18701|TRUE|FALSE|FALSE|TRUE
5739782|The Farrington Inn|Boston, MA| 104|42.35426| -71.13089|TRUE|FALSE|FALSE|TRUE
5739782|The Langham, Boston|Boston, MA| 519|42.35648| -71.05450|FALSE|FALSE|TRUE|TRUE
5739782|The Charles Hotel|Boston, MA| 435|42.37229| -71.12298|FALSE|FALSE|TRUE|TRUE
5739782|Courtyard by Marriott Woburn/Boston North|Boston, MA| 113|42.48808| -71.11657|TRUE|FALSE|FALSE|TRUE
5739782|Sheraton Boston Needham Hotel|Boston, MA| 120|42.30306| -71.21998|TRUE|FALSE|FALSE|TRUE
5739782|The Whitney Hotel|Boston, MA| 385|42.36064| -71.07107|FALSE|TRUE|FALSE|TRUE
5739782|The Newbury Boston|Boston, MA| 660|42.35293| -71.07149|FALSE|FALSE|TRUE|TRUE
5739782|Wyndham Boston Beacon Hill|Boston, MA| 197|42.36172| -71.06670|FALSE|TRUE|FALSE|TRUE
5739782|Four Seasons Hotel One Dalton Street, Boston|Boston, MA| 786|42.34571| -71.08394|FALSE|FALSE|TRUE|TRUE
5739782|Onyx Boston Downtown|Boston, MA| 167|42.36420| -71.06145|FALSE|TRUE|FALSE|TRUE
5739782|The Bostonian Boston|Boston, MA| 189|42.36106| -71.05591|FALSE|TRUE|FALSE|TRUE
5739782|Extended Stay America Suites - Boston - Saugus|Boston, MA| 111|42.46514| -71.01105|TRUE|FALSE|FALSE|TRUE
5739789|The Farrington Inn|Boston, MA| 104|42.35426| -71.13089|TRUE|FALSE|FALSE|TRUE
5739789|Encore Boston Harbor|Boston, MA| 669|42.39553| -71.06933|FALSE|FALSE|TRUE|TRUE
5739789|Mandarin Oriental Boston|Boston, MA| 751|42.34869| -71.08160|FALSE|FALSE|TRUE|TRUE
5739789|Hampton Inn Boston Logan Airport Chelsea|Boston, MA| 106|42.39411| -71.04454|TRUE|FALSE|FALSE|TRUE
5739789|The Bostonian Boston|Boston, MA| 189|42.36106| -71.05591|FALSE|TRUE|FALSE|TRUE
5739789|Best Western Plus New Englander|Boston, MA| 110|42.48082| -71.11883|TRUE|FALSE|FALSE|TRUE
5739789|The Newbury Boston|Boston, MA| 660|42.35293| -71.07149|FALSE|FALSE|TRUE|TRUE
5739789|Four Seasons Hotel One Dalton Street, Boston|Boston, MA| 786|42.34571| -71.08394|FALSE|FALSE|TRUE|TRUE
5739789|The Whitney Hotel|Boston, MA| 385|42.36064| -71.07107|FALSE|TRUE|FALSE|TRUE
5739789|Harborside Inn Of Boston|Boston, MA| 208|42.35927| -71.05283|FALSE|TRUE|FALSE|TRUE
5739789|Boston Omni Parker House Hotel|Boston, MA| 204|42.35776| -71.06011|FALSE|TRUE|FALSE|TRUE
5739789|Four Points by Sheraton Boston Newton|Boston, MA| 111|42.35677| -71.18701|TRUE|FALSE|FALSE|TRUE
5739789|The Boxer|Boston, MA| 172|42.36388| -71.06252|FALSE|TRUE|FALSE|TRUE
5739789|citizenM Boston North Station|Boston, MA| 191|42.36556| -71.06185|FALSE|TRUE|FALSE|TRUE
5739789|Wyndham Boston Beacon Hill|Boston, MA| 197|42.36172| -71.06670|FALSE|TRUE|FALSE|TRUE
5739789|XV Beacon|Boston, MA| 693|42.35832| -71.06193|FALSE|TRUE|TRUE|TRUE
5739789|Four Points by Sheraton Boston Logan Airport Revere|Boston, MA| 106|42.42940| -71.01504|TRUE|FALSE|FALSE|TRUE
5739789|The Charles Hotel|Boston, MA| 435|42.37229| -71.12298|FALSE|FALSE|TRUE|TRUE
5739789|Courtyard by Marriott Woburn/Boston North|Boston, MA| 113|42.48808| -71.11657|TRUE|FALSE|FALSE|TRUE
5739789|Freepoint Hotel Cambridge, Tapestry Collection by Hilton|Boston, MA| 121|42.38872| -71.14234|TRUE|FALSE|FALSE|TRUE
5739789|Extended Stay America Suites - Boston - Saugus|Boston, MA| 111|42.46514| -71.01105|TRUE|FALSE|FALSE|TRUE
5739789|Boston Harbor Hotel|Boston, MA| 664|42.35666| -71.05032|FALSE|FALSE|TRUE|TRUE
5739789|Onyx Boston Downtown|Boston, MA| 167|42.36420| -71.06145|FALSE|TRUE|FALSE|TRUE
5739789|The Langham, Boston|Boston, MA| 519|42.35648| -71.05450|FALSE|FALSE|TRUE|TRUE
5739789|Courtyard by Marriott Boston Downtown/North Station|Boston, MA| 261|42.36587| -71.05964|FALSE|TRUE|FALSE|TRUE
5739789|The Ritz-Carlton, Boston|Boston, MA| 751|42.35317| -71.06369|FALSE|FALSE|TRUE|TRUE
5739789|Sheraton Boston Needham Hotel|Boston, MA| 120|42.30306| -71.21998|TRUE|FALSE|FALSE|TRUE
5739789|Comfort Inn Woburn - Boston|Boston, MA|  94|42.47895| -71.11530|TRUE|FALSE|FALSE|TRUE
5739789|Aloft Boston Seaport District, a Marriott Hotel|Boston, MA| 743|42.34346| -71.04492|FALSE|FALSE|TRUE|TRUE
5739799|The Whitney Hotel|Boston, MA| 385|42.36064| -71.07107|FALSE|TRUE|FALSE|TRUE
5739799|Freepoint Hotel Cambridge, Tapestry Collection by Hilton|Boston, MA| 121|42.38872| -71.14234|TRUE|FALSE|FALSE|TRUE
5739799|Courtyard by Marriott Woburn/Boston North|Boston, MA| 113|42.48808| -71.11657|TRUE|FALSE|FALSE|TRUE
5739799|Harborside Inn Of Boston|Boston, MA| 208|42.35927| -71.05283|FALSE|TRUE|FALSE|TRUE
5739799|citizenM Boston North Station|Boston, MA| 179|42.36556| -71.06185|FALSE|TRUE|FALSE|TRUE
5739799|Boston Omni Parker House Hotel|Boston, MA| 204|42.35776| -71.06011|FALSE|TRUE|FALSE|TRUE
5739799|Boston Harbor Hotel|Boston, MA| 664|42.35666| -71.05032|FALSE|FALSE|TRUE|TRUE
5739799|The Farrington Inn|Boston, MA| 104|42.35426| -71.13089|TRUE|FALSE|FALSE|TRUE
5739799|Hampton Inn Boston Logan Airport Chelsea|Boston, MA| 106|42.39411| -71.04454|TRUE|FALSE|FALSE|TRUE
5739799|Comfort Inn Woburn - Boston|Boston, MA|  94|42.47895| -71.11530|TRUE|FALSE|FALSE|TRUE
5739799|The Boxer|Boston, MA| 172|42.36388| -71.06252|FALSE|TRUE|FALSE|TRUE
5739799|The Ritz-Carlton, Boston|Boston, MA| 751|42.35317| -71.06369|FALSE|FALSE|TRUE|TRUE
5739799|Sheraton Boston Needham Hotel|Boston, MA| 120|42.30306| -71.21998|TRUE|FALSE|FALSE|TRUE
5739799|Onyx Boston Downtown|Boston, MA| 167|42.36420| -71.06145|FALSE|TRUE|FALSE|TRUE
5739799|The Bostonian Boston|Boston, MA| 189|42.36106| -71.05591|FALSE|TRUE|FALSE|TRUE
5739799|XV Beacon|Boston, MA| 693|42.35832| -71.06193|FALSE|TRUE|TRUE|TRUE
5739799|The Charles Hotel|Boston, MA| 435|42.37229| -71.12298|FALSE|FALSE|TRUE|TRUE
5739799|Four Points by Sheraton Boston Logan Airport Revere|Boston, MA| 106|42.42940| -71.01504|TRUE|FALSE|FALSE|TRUE
5739799|Extended Stay America Suites - Boston - Saugus|Boston, MA| 111|42.46514| -71.01105|TRUE|FALSE|FALSE|TRUE
5739799|Best Western Plus New Englander|Boston, MA| 110|42.48082| -71.11883|TRUE|FALSE|FALSE|TRUE
5739799|The Langham, Boston|Boston, MA| 519|42.35648| -71.05450|FALSE|FALSE|TRUE|TRUE
5739799|Wyndham Boston Beacon Hill|Boston, MA| 197|42.36172| -71.06670|FALSE|TRUE|FALSE|TRUE
5739799|Courtyard by Marriott Boston Downtown/North Station|Boston, MA| 261|42.36587| -71.05964|FALSE|TRUE|FALSE|TRUE
5739799|Four Seasons Hotel One Dalton Street, Boston|Boston, MA| 786|42.34571| -71.08394|FALSE|FALSE|TRUE|TRUE
5739799|Four Points by Sheraton Boston Newton|Boston, MA| 111|42.35677| -71.18701|TRUE|FALSE|FALSE|TRUE
5739799|Encore Boston Harbor|Boston, MA| 669|42.39553| -71.06933|FALSE|FALSE|TRUE|TRUE
5739799|The Newbury Boston|Boston, MA| 660|42.35293| -71.07149|FALSE|FALSE|TRUE|TRUE
5739799|Mandarin Oriental Boston|Boston, MA| 751|42.34869| -71.08160|FALSE|FALSE|TRUE|TRUE
5739799|Aloft Boston Seaport District, a Marriott Hotel|Boston, MA| 743|42.34346| -71.04492|FALSE|FALSE|TRUE|TRUE
5739809|Freepoint Hotel Cambridge, Tapestry Collection by Hilton|Boston, MA| 121|42.38872| -71.14234|TRUE|FALSE|FALSE|TRUE
5739809|The Whitney Hotel|Boston, MA| 385|42.36064| -71.07107|FALSE|TRUE|FALSE|TRUE
5739809|The Farrington Inn|Boston, MA| 104|42.35426| -71.13089|TRUE|FALSE|FALSE|TRUE
5739809|Courtyard by Marriott Woburn/Boston North|Boston, MA| 113|42.48808| -71.11657|TRUE|FALSE|FALSE|TRUE
5739809|The Newbury Boston|Boston, MA| 660|42.35293| -71.07149|FALSE|FALSE|TRUE|TRUE
5739809|Boston Omni Parker House Hotel|Boston, MA| 204|42.35776| -71.06011|FALSE|TRUE|FALSE|TRUE
5739809|Sheraton Boston Needham Hotel|Boston, MA| 120|42.30306| -71.21998|TRUE|FALSE|FALSE|TRUE
5739809|Four Seasons Hotel One Dalton Street, Boston|Boston, MA| 786|42.34571| -71.08394|FALSE|FALSE|TRUE|TRUE
5739809|The Langham, Boston|Boston, MA| 519|42.35648| -71.05450|FALSE|FALSE|TRUE|TRUE
5739809|The Bostonian Boston|Boston, MA| 189|42.36106| -71.05591|FALSE|TRUE|FALSE|TRUE
5739809|Four Points by Sheraton Boston Newton|Boston, MA| 111|42.35677| -71.18701|TRUE|FALSE|FALSE|TRUE
5739809|Wyndham Boston Beacon Hill|Boston, MA| 197|42.36172| -71.06670|FALSE|TRUE|FALSE|TRUE
5739809|XV Beacon|Boston, MA| 693|42.35832| -71.06193|FALSE|TRUE|TRUE|TRUE
5739809|Onyx Boston Downtown|Boston, MA| 167|42.36420| -71.06145|FALSE|TRUE|FALSE|TRUE
5739809|The Charles Hotel|Boston, MA| 435|42.37229| -71.12298|FALSE|FALSE|TRUE|TRUE
5739809|Harborside Inn Of Boston|Boston, MA| 208|42.35927| -71.05283|FALSE|TRUE|FALSE|TRUE
5739809|The Ritz-Carlton, Boston|Boston, MA| 751|42.35317| -71.06369|FALSE|FALSE|TRUE|TRUE
5739809|Hampton Inn Boston Logan Airport Chelsea|Boston, MA| 106|42.39411| -71.04454|TRUE|FALSE|FALSE|TRUE
5739809|Courtyard by Marriott Boston Downtown/North Station|Boston, MA| 261|42.36587| -71.05964|FALSE|TRUE|FALSE|TRUE
5739809|Four Points by Sheraton Boston Logan Airport Revere|Boston, MA| 106|42.42940| -71.01504|TRUE|FALSE|FALSE|TRUE
5739809|Encore Boston Harbor|Boston, MA| 669|42.39553| -71.06933|FALSE|FALSE|TRUE|TRUE
5739809|Boston Harbor Hotel|Boston, MA| 664|42.35666| -71.05032|FALSE|FALSE|TRUE|TRUE
5739809|The Boxer|Boston, MA| 172|42.36388| -71.06252|FALSE|TRUE|FALSE|TRUE
5739809|citizenM Boston North Station|Boston, MA| 179|42.36556| -71.06185|FALSE|TRUE|FALSE|TRUE
5739809|Aloft Boston Seaport District, a Marriott Hotel|Boston, MA| 743|42.34346| -71.04492|FALSE|FALSE|TRUE|TRUE
5739809|Extended Stay America Suites - Boston - Saugus|Boston, MA| 111|42.46514| -71.01105|TRUE|FALSE|FALSE|TRUE
5739809|Comfort Inn Woburn - Boston|Boston, MA|  94|42.47895| -71.11530|TRUE|FALSE|FALSE|TRUE
5739809|Best Western Plus New Englander|Boston, MA| 110|42.48082| -71.11883|TRUE|FALSE|FALSE|TRUE
5739809|Mandarin Oriental Boston|Boston, MA| 751|42.34869| -71.08160|FALSE|FALSE|TRUE|TRUE
5739851|The William Vale|New York, NY| 520|40.72232| -73.95668|FALSE|FALSE|TRUE|TRUE
5739851|Truss Hotel Times Square |New York, NY| 144|40.75650| -73.99449|FALSE|TRUE|FALSE|TRUE
5739851|Neptune Hotel|New York, NY| 100|40.68786| -73.91880|TRUE|FALSE|FALSE|TRUE
5739851|The Langham, New York, Fifth Avenue|New York, NY| 723|40.75014| -73.98353|FALSE|FALSE|TRUE|TRUE
5739851|1 Hotel Central Park|New York, NY| 530|40.76471| -73.97651|FALSE|FALSE|TRUE|TRUE
5739851|Quality Inn near Sunset Park|New York, NY| 100|40.65099| -74.01178|TRUE|FALSE|FALSE|TRUE
5739851|St Marks Hotel|New York, NY| 100|40.72928| -73.98965|TRUE|FALSE|FALSE|TRUE
5739851|The Towers at Lotte New York Palace|New York, NY| 910|40.75797| -73.97487|FALSE|FALSE|TRUE|TRUE
5739851|The Mark|New York, NY|1145|40.77533| -73.96326|FALSE|FALSE|TRUE|TRUE
5739851|Americana Inn|New York, NY| 113|40.75229| -73.98555|FALSE|TRUE|FALSE|TRUE
5739851|Hilton Garden Inn New York/West 35th Street|New York, NY| 168|40.75037| -73.98651|FALSE|TRUE|FALSE|TRUE
5739851|Rodeway Inn Meadowlands|New York, NY|  94|40.79292| -74.05712|TRUE|FALSE|FALSE|TRUE
5739851|Four Points by Sheraton Manhattan - Chelsea|New York, NY| 159|40.74491| -73.99426|FALSE|TRUE|FALSE|TRUE
5739851|Loews Regency New York Hotel|New York, NY| 498|40.76457| -73.96901|FALSE|FALSE|TRUE|TRUE
5739851|The Knickerbocker Hotel|New York, NY| 508|40.75525| -73.98598|FALSE|FALSE|TRUE|TRUE
5739851|The L Hotel, Ascend Hotel Collection|New York, NY|  95|40.65720| -74.00275|TRUE|FALSE|FALSE|TRUE
5739851|The Dominick|New York, NY| 543|40.72532| -74.00550|FALSE|FALSE|TRUE|TRUE
5739851|Steinway Hotel|New York, NY| 106|40.76828| -73.91168|TRUE|FALSE|FALSE|TRUE
5739851|The Paul Hotel NYC|New York, NY| 132|40.74601| -73.98914|FALSE|TRUE|FALSE|TRUE
5739851|Hilton Garden Inn New York Times Square South|New York, NY| 173|40.75448| -73.99360|FALSE|TRUE|FALSE|TRUE
5739851|DoubleTree by Hilton New York Times Square West|New York, NY| 182|40.75664| -73.99307|FALSE|TRUE|FALSE|TRUE
5739851|Flushing Hotel|New York, NY|  90|40.76208| -73.83163|TRUE|FALSE|FALSE|TRUE
5739851|The New Yorker A Wyndham Hotel|New York, NY| 215|40.75267| -73.99356|FALSE|TRUE|FALSE|TRUE
5739851|Hotel Barriere Fouquets New York|New York, NY| 896|40.72362| -74.00975|FALSE|FALSE|TRUE|TRUE
5739851|Equinox Hotel New York|New York, NY| 773|40.75465| -74.00221|FALSE|FALSE|TRUE|TRUE
5739851|Midtown West Hotel|New York, NY| 125|40.74992| -73.99559|FALSE|TRUE|FALSE|TRUE
5739851|Voyage Hotel|New York, NY|  91|40.75973| -73.94108|TRUE|FALSE|FALSE|TRUE
5739851|TRYP by Wyndham New York City Times Square / Midtown|New York, NY| 163|40.75378| -73.99462|FALSE|TRUE|FALSE|TRUE
5739851|Best Western Plus Plaza Hotel|New York, NY| 103|40.75583| -73.94106|TRUE|FALSE|FALSE|TRUE
5739851|Hotel 21 Nyc|New York, NY|  95|40.75367| -73.94228|TRUE|FALSE|FALSE|TRUE
5739858|Midtown West Hotel|New York, NY| 125|40.74992| -73.99559|FALSE|TRUE|FALSE|TRUE
5739858|Voyage Hotel|New York, NY|  91|40.75973| -73.94108|TRUE|FALSE|FALSE|TRUE
5739858|Best Western Plus Plaza Hotel|New York, NY| 103|40.75583| -73.94106|TRUE|FALSE|FALSE|TRUE
5739858|The Mark|New York, NY|1145|40.77533| -73.96326|FALSE|FALSE|TRUE|TRUE
5739858|St Marks Hotel|New York, NY| 100|40.72928| -73.98965|TRUE|FALSE|FALSE|TRUE
5739858|The Knickerbocker Hotel|New York, NY| 508|40.75525| -73.98598|FALSE|FALSE|TRUE|TRUE
5739858|The New Yorker A Wyndham Hotel|New York, NY| 215|40.75267| -73.99356|FALSE|TRUE|FALSE|TRUE
5739858|The Langham, New York, Fifth Avenue|New York, NY| 723|40.75014| -73.98353|FALSE|FALSE|TRUE|TRUE
5739858|1 Hotel Central Park|New York, NY| 530|40.76471| -73.97651|FALSE|FALSE|TRUE|TRUE
5739858|The Paul Hotel NYC|New York, NY| 132|40.74601| -73.98914|FALSE|TRUE|FALSE|TRUE
5739858|Hilton Garden Inn New York Times Square South|New York, NY| 173|40.75448| -73.99360|FALSE|TRUE|FALSE|TRUE
5739858|Hotel 21 Nyc|New York, NY|  95|40.75367| -73.94228|TRUE|FALSE|FALSE|TRUE
5739858|Steinway Hotel|New York, NY| 106|40.76828| -73.91168|TRUE|FALSE|FALSE|TRUE
5739858|The L Hotel, Ascend Hotel Collection|New York, NY|  95|40.65720| -74.00275|TRUE|FALSE|FALSE|TRUE
5739858|TRYP by Wyndham New York City Times Square / Midtown|New York, NY| 163|40.75378| -73.99462|FALSE|TRUE|FALSE|TRUE
5739858|Truss Hotel Times Square |New York, NY| 144|40.75650| -73.99449|FALSE|TRUE|FALSE|TRUE
5739858|Neptune Hotel|New York, NY| 100|40.68786| -73.91880|TRUE|FALSE|FALSE|TRUE
5739858|The William Vale|New York, NY| 520|40.72232| -73.95668|FALSE|FALSE|TRUE|TRUE
5739858|Equinox Hotel New York|New York, NY| 773|40.75465| -74.00221|FALSE|FALSE|TRUE|TRUE
5739858|Americana Inn|New York, NY| 113|40.75229| -73.98555|FALSE|TRUE|FALSE|TRUE
5739858|DoubleTree by Hilton New York Times Square West|New York, NY| 182|40.75664| -73.99307|FALSE|TRUE|FALSE|TRUE
5739858|Four Points by Sheraton Manhattan - Chelsea|New York, NY| 159|40.74491| -73.99426|FALSE|TRUE|FALSE|TRUE
5739858|Loews Regency New York Hotel|New York, NY| 498|40.76457| -73.96901|FALSE|FALSE|TRUE|TRUE
5739858|The Towers at Lotte New York Palace|New York, NY| 910|40.75797| -73.97487|FALSE|FALSE|TRUE|TRUE
5739858|Rodeway Inn Meadowlands|New York, NY|  94|40.79292| -74.05712|TRUE|FALSE|FALSE|TRUE
5739858|Flushing Hotel|New York, NY|  90|40.76208| -73.83163|TRUE|FALSE|FALSE|TRUE
5739858|Hilton Garden Inn New York/West 35th Street|New York, NY| 168|40.75037| -73.98651|FALSE|TRUE|FALSE|TRUE
5739858|Quality Inn near Sunset Park|New York, NY| 100|40.65099| -74.01178|TRUE|FALSE|FALSE|TRUE
5739858|Hotel Barriere Fouquets New York|New York, NY| 896|40.72362| -74.00975|FALSE|FALSE|TRUE|TRUE
5739858|The Dominick|New York, NY| 543|40.72532| -74.00550|FALSE|FALSE|TRUE|TRUE
5739859|HomeTowne Studios by Red Roof Denver - Thornton|Denver, CO|  84|39.91235|-104.98863|TRUE|FALSE|FALSE|TRUE
5739859|Le Meridien Denver Downtown|Denver, CO| 196|39.74412|-104.99392|FALSE|FALSE|TRUE|TRUE
5739859|Four Seasons Hotel Denver|Denver, CO| 781|39.74648|-104.99819|FALSE|TRUE|TRUE|TRUE
5739859|HomeTowne Studios by Red Roof Denver - Glendale/Cherry Creek|Denver, CO|  80|39.70810|-104.93090|TRUE|FALSE|FALSE|TRUE
5739859|Super 8 by Wyndham Denver Central|Denver, CO|  78|39.80329|-104.98653|TRUE|FALSE|FALSE|TRUE
5739859|Days Inn by Wyndham Denver Downtown|Denver, CO|  93|39.73973|-104.97571|TRUE|FALSE|FALSE|TRUE
5739859|The Westin Denver Downtown|Denver, CO| 156|39.74877|-104.99566|FALSE|TRUE|FALSE|TRUE
5739859|The Oxford Hotel|Denver, CO| 410|39.75226|-104.99923|FALSE|TRUE|TRUE|TRUE
5739859|Super 8 by Wyndham Henderson North East Denver|Denver, CO|  70|39.86165|-104.91073|TRUE|FALSE|FALSE|TRUE
5739859|Quality Inn Denver Westminster|Denver, CO|  83|39.85124|-105.04978|TRUE|FALSE|FALSE|TRUE
5739859|Hilton Garden Inn Denver Union Station, CO|Denver, CO| 166|39.75754|-104.99931|FALSE|TRUE|FALSE|TRUE
5739859|The Ramble Hotel|Denver, CO| 358|39.75735|-104.98659|FALSE|FALSE|TRUE|TRUE
5739859|The Curtis Denver - a DoubleTree by Hilton Hotel|Denver, CO| 137|39.74573|-104.99707|FALSE|TRUE|FALSE|TRUE
5739859|La Quinta Inn by Wyndham Denver Golden|Denver, CO|  90|39.76414|-105.14435|TRUE|FALSE|FALSE|TRUE
5739859|Americas Best Value Inn Denver|Denver, CO|  89|39.77242|-104.84902|TRUE|FALSE|FALSE|TRUE
5739859|Embassy Suites Denver-Downtown/Convention Center|Denver, CO| 162|39.74410|-104.99482|FALSE|TRUE|FALSE|TRUE
5739859|Grand Hyatt Denver|Denver, CO| 219|39.74582|-104.98920|FALSE|FALSE|TRUE|TRUE
5739859|Thompson Denver|Denver, CO| 313|39.74987|-104.99779|FALSE|TRUE|TRUE|TRUE
5739859|Warwick Denver|Denver, CO| 171|39.74440|-104.98326|FALSE|FALSE|TRUE|TRUE
5739859|The Ritz-Carlton, Denver|Denver, CO| 531|39.75014|-104.99188|FALSE|FALSE|TRUE|TRUE
5739859|La Quinta Inn by Wyndham Denver Westminster|Denver, CO|  94|39.85300|-105.05179|TRUE|FALSE|FALSE|TRUE
5739859|Rodeway Inn Denver Downtown|Denver, CO|  97|39.75575|-105.01639|FALSE|TRUE|FALSE|TRUE
5739859|Super 8 by Wyndham Wheat Ridge/Denver West|Denver, CO|  85|39.78234|-105.10855|TRUE|FALSE|FALSE|TRUE
5739859|Hotel Indigo Denver Downtown, an IHG Hotel|Denver, CO| 198|39.75556|-105.00010|FALSE|TRUE|TRUE|TRUE
5739859|Kimpton Hotel Born, an IHG Hotel|Denver, CO| 383|39.75327|-105.00203|FALSE|TRUE|TRUE|TRUE
5739864|The Langham, New York, Fifth Avenue|New York, NY| 723|40.75014| -73.98353|FALSE|FALSE|TRUE|TRUE
5739864|TRYP by Wyndham New York City Times Square / Midtown|New York, NY| 163|40.75378| -73.99462|FALSE|TRUE|FALSE|TRUE
5739864|The Knickerbocker Hotel|New York, NY| 508|40.75525| -73.98598|FALSE|FALSE|TRUE|TRUE
5739864|The Dominick|New York, NY| 543|40.72532| -74.00550|FALSE|FALSE|TRUE|TRUE
5739864|Equinox Hotel New York|New York, NY| 773|40.75465| -74.00221|FALSE|FALSE|TRUE|TRUE
5739864|Neptune Hotel|New York, NY| 100|40.68786| -73.91880|TRUE|FALSE|FALSE|TRUE
5739864|The L Hotel, Ascend Hotel Collection|New York, NY|  95|40.65720| -74.00275|TRUE|FALSE|FALSE|TRUE
5739864|Hilton Garden Inn New York/West 35th Street|New York, NY| 168|40.75037| -73.98651|FALSE|TRUE|FALSE|TRUE
5739864|Hotel Barriere Fouquets New York|New York, NY| 896|40.72362| -74.00975|FALSE|FALSE|TRUE|TRUE
