id|name|city|price|lat|long|p|t|l|fresh
5654613|Extended Stay America Suites Raleigh Cary Regency Parkway S|Raleigh, NC|  86|35.73209| -78.78843|TRUE|FALSE|FALSE|TRUE
5654613|Red Roof Inn PLUS+ Raleigh Downtown - NCSU/Conv Center|Raleigh, NC|  81|35.75493| -78.64798|TRUE|FALSE|FALSE|TRUE
5654613|Candlewood Suites Raleigh Crabtree, an IHG Hotel|Raleigh, NC| 123|35.84063| -78.67470|FALSE|FALSE|TRUE|TRUE
5654613|Microtel Inn & Suites by Wyndham Raleigh|Raleigh, NC|  70|35.79687| -78.57681|TRUE|FALSE|FALSE|TRUE
5654613|Ramada by Wyndham Raleigh|Raleigh, NC| 125|35.80131| -78.70648|FALSE|TRUE|TRUE|TRUE
5654613|Extended Stay America Suites Raleigh RDU Airport|Raleigh, NC|  86|35.88008| -78.78800|TRUE|FALSE|FALSE|TRUE
5654613|DoubleTree by Hilton Raleigh Crabtree Valley|Raleigh, NC| 143|35.83707| -78.67071|FALSE|TRUE|TRUE|TRUE
5654613|Extended Stay America Suites Raleigh RTP 4610 Miami Blvd|Raleigh, NC|  86|35.89464| -78.84886|TRUE|FALSE|FALSE|TRUE
5654613|AC Hotel by Marriott Raleigh Downtown|Raleigh, NC| 373|35.78126| -78.64779|FALSE|FALSE|TRUE|TRUE
5654613|Best Western Plus Cary Inn - NC State|Raleigh, NC|  87|35.76228| -78.74752|FALSE|TRUE|FALSE|TRUE
5654613|Quality Inn & Suites Raleigh North|Raleigh, NC|  91|35.81190| -78.60196|FALSE|FALSE|TRUE|TRUE
5654613|Wingate by Wyndham Raleigh Durham Airport RTP|Raleigh, NC|  86|35.87983| -78.84463|TRUE|FALSE|FALSE|TRUE
5654613|La Quinta Inn & Suites by Wyndham Raleigh Crabtree|Raleigh, NC|  91|35.83348| -78.67599|FALSE|TRUE|TRUE|TRUE
5654613|WoodSpring Suites Raleigh Apex|Raleigh, NC|  79|35.71578| -78.83753|TRUE|FALSE|FALSE|TRUE
5654613|Four Points by Sheraton Raleigh Arena|Raleigh, NC| 150|35.79754| -78.72496|FALSE|TRUE|TRUE|TRUE
5654613|Clarion Pointe Raleigh Midtown|Raleigh, NC|  86|35.81846| -78.59479|TRUE|FALSE|FALSE|TRUE
5654613|Comfort Suites Raleigh Durham Airport/Research Triangle Park|Raleigh, NC|  81|35.88026| -78.84364|TRUE|FALSE|FALSE|TRUE
5654613|Quality Inn Raleigh Downtown|Raleigh, NC|  81|35.74988| -78.64826|TRUE|FALSE|FALSE|TRUE
5654613|Super 8 by Wyndham Raleigh North East|Raleigh, NC|  65|35.83271| -78.58494|TRUE|FALSE|FALSE|TRUE
5654613|Wingate by Wyndham State Arena Raleigh/Cary|Raleigh, NC| 136|35.78967| -78.74369|FALSE|TRUE|TRUE|TRUE
5654613|Hampton Inn & Suites Raleigh/Crabtree Valley|Raleigh, NC| 164|35.83625| -78.67286|FALSE|TRUE|TRUE|TRUE
5654613|Sleep Inn Raleigh Durham Airport|Raleigh, NC|  85|35.88189| -78.84214|TRUE|FALSE|FALSE|TRUE
5654613|Hyatt Place Raleigh/Cary|Raleigh, NC| 129|35.79195| -78.73837|FALSE|TRUE|TRUE|TRUE
5654613|Courtyard by Marriott Raleigh Cary Crossroads|Raleigh, NC| 208|35.75687| -78.74642|FALSE|TRUE|TRUE|TRUE
5654613|MainStay Suites Raleigh - Cary|Raleigh, NC|  76|35.77052| -78.74123|TRUE|TRUE|FALSE|TRUE
5655669|Extended Stay America Suites Fort Lauderdale Tamarac|Sunrise, FL| 166|26.20169| -80.15288|TRUE|FALSE|FALSE|TRUE
5655669|Residence Inn By Marriott Fort Lauderdale Weston|Sunrise, FL| 284|26.08613| -80.37267|FALSE|FALSE|TRUE|TRUE
5655669|AC Hotel Fort Lauderdale Sawgrass Mills / Sunrise|Sunrise, FL| 278|26.15016| -80.31874|FALSE|TRUE|TRUE|TRUE
5655669|La Quinta Inn & Suites by Wyndham Sunrise|Sunrise, FL| 168|26.12339| -80.33189|TRUE|TRUE|FALSE|TRUE
5655669|Hyatt Place Ft. Lauderdale/Plantation|Sunrise, FL| 200|26.11894| -80.26284|FALSE|TRUE|FALSE|TRUE
5655669|Sonesta ES Suites Fort Lauderdale Plantation|Sunrise, FL| 189|26.12592| -80.26149|FALSE|TRUE|FALSE|TRUE
5655669|Extended Stay America Suites Fort Lauderdale Davie|Sunrise, FL| 166|26.20169| -80.15288|TRUE|FALSE|FALSE|TRUE
5655669|Chateau Mar Golf Resort, Trademark Collection by Wyndham|Sunrise, FL| 180|26.16978| -80.23631|TRUE|FALSE|FALSE|TRUE
5655669|HomeTowne Studios by Red Roof Fort Lauderdale|Sunrise, FL| 107|26.18739| -80.18639|TRUE|FALSE|FALSE|TRUE
5655669|Plaza Hotel Fort Lauderdale|Sunrise, FL| 114|26.18931| -80.20270|TRUE|FALSE|FALSE|TRUE
5655669|WoodSpring Suites Tamarac|Sunrise, FL| 147|26.19447| -80.29301|TRUE|TRUE|FALSE|TRUE
5655669|Sheraton Suites Fort Lauderdale Plantation|Sunrise, FL| 284|26.12410| -80.25664|FALSE|TRUE|TRUE|TRUE
5655669|Renaissance Fort Lauderdale West Hotel|Sunrise, FL| 263|26.10388| -80.26272|FALSE|FALSE|TRUE|TRUE
5655669|Staybridge Suites Fort Lauderdale Airport - West, an IHG Hotel|Sunrise, FL| 246|26.06453| -80.21240|FALSE|FALSE|TRUE|TRUE
5655669|Hampton Inn Ft Lauderdale-Plantation|Sunrise, FL| 182|26.11410| -80.25601|TRUE|FALSE|FALSE|TRUE
5655669|Courtyard By Marriott Fort Lauderdale Coral Springs|Sunrise, FL| 208|26.23842| -80.25681|FALSE|FALSE|TRUE|TRUE
5655669|Courtyard by Marriott Fort Lauderdale Plantation|Sunrise, FL| 268|26.11289| -80.25478|FALSE|FALSE|TRUE|TRUE
5655669|La Quinta Inn by Wyndham Ft. Lauderdale Tamarac East|Sunrise, FL| 133|26.18564| -80.19984|TRUE|FALSE|FALSE|TRUE
5655669|Comfort Suites Sawgrass|Sunrise, FL| 191|26.19431| -80.26127|FALSE|TRUE|FALSE|TRUE
5655669|Residence Inn By Marriott Fort Lauderdale Plantation|Sunrise, FL| 247|26.12256| -80.25156|FALSE|FALSE|TRUE|TRUE
5655669|La Quinta Inn & Suites by Wyndham Sunrise Sawgrass Mills|Sunrise, FL| 164|26.12446| -80.33143|TRUE|TRUE|FALSE|TRUE
5655669|DoubleTree by Hilton Hotel Sunrise - Sawgrass Mills|Sunrise, FL| 286|26.14457| -80.32544|FALSE|TRUE|TRUE|TRUE
5655669|Courtyard by Marriott Fort Lauderdale Weston|Sunrise, FL| 304|26.09226| -80.36518|FALSE|TRUE|TRUE|TRUE
5655671|La Quinta Inn & Suites by Wyndham Sunrise|Sunrise, FL| 168|26.12339| -80.33189|TRUE|TRUE|FALSE|TRUE
5655671|Renaissance Fort Lauderdale West Hotel|Sunrise, FL| 263|26.10388| -80.26272|FALSE|FALSE|TRUE|TRUE
5655671|Courtyard by Marriott Fort Lauderdale Plantation|Sunrise, FL| 268|26.11289| -80.25478|FALSE|FALSE|TRUE|TRUE
5655671|Extended Stay America Suites Fort Lauderdale Tamarac|Sunrise, FL| 166|26.20169| -80.15288|TRUE|FALSE|FALSE|TRUE
5655671|AC Hotel Fort Lauderdale Sawgrass Mills / Sunrise|Sunrise, FL| 278|26.15016| -80.31874|FALSE|TRUE|TRUE|TRUE
5655671|Extended Stay America Suites Fort Lauderdale Davie|Sunrise, FL| 166|26.20169| -80.15288|TRUE|FALSE|FALSE|TRUE
5655671|Residence Inn By Marriott Fort Lauderdale Weston|Sunrise, FL| 284|26.08613| -80.37267|FALSE|FALSE|TRUE|TRUE
5655671|Hyatt Place Ft. Lauderdale/Plantation|Sunrise, FL| 200|26.11894| -80.26284|FALSE|TRUE|FALSE|TRUE
5655671|Plaza Hotel Fort Lauderdale|Sunrise, FL| 114|26.18931| -80.20270|TRUE|FALSE|FALSE|TRUE
5655671|DoubleTree by Hilton Hotel Sunrise - Sawgrass Mills|Sunrise, FL| 286|26.14457| -80.32544|FALSE|TRUE|TRUE|TRUE
5655671|La Quinta Inn & Suites by Wyndham Sunrise Sawgrass Mills|Sunrise, FL| 164|26.12446| -80.33143|TRUE|TRUE|FALSE|TRUE
5655671|Chateau Mar Golf Resort, Trademark Collection by Wyndham|Sunrise, FL| 180|26.16978| -80.23631|TRUE|FALSE|FALSE|TRUE
5655671|Comfort Suites Sawgrass|Sunrise, FL| 191|26.19431| -80.26127|FALSE|TRUE|FALSE|TRUE
5655671|Hampton Inn Ft Lauderdale-Plantation|Sunrise, FL| 182|26.11410| -80.25601|TRUE|FALSE|FALSE|TRUE
5655671|WoodSpring Suites Tamarac|Sunrise, FL| 147|26.19447| -80.29301|TRUE|TRUE|FALSE|TRUE
5655671|La Quinta Inn by Wyndham Ft. Lauderdale Tamarac East|Sunrise, FL| 133|26.18564| -80.19984|TRUE|FALSE|FALSE|TRUE
5655671|Sonesta ES Suites Fort Lauderdale Plantation|Sunrise, FL| 189|26.12592| -80.26149|FALSE|TRUE|FALSE|TRUE
5655671|Courtyard By Marriott Fort Lauderdale Coral Springs|Sunrise, FL| 208|26.23842| -80.25681|FALSE|FALSE|TRUE|TRUE
5655671|Residence Inn By Marriott Fort Lauderdale Plantation|Sunrise, FL| 247|26.12256| -80.25156|FALSE|FALSE|TRUE|TRUE
5655671|Staybridge Suites Fort Lauderdale Airport - West, an IHG Hotel|Sunrise, FL| 246|26.06453| -80.21240|FALSE|FALSE|TRUE|TRUE
5655671|Sheraton Suites Fort Lauderdale Plantation|Sunrise, FL| 284|26.12410| -80.25664|FALSE|TRUE|TRUE|TRUE
5655671|Courtyard by Marriott Fort Lauderdale Weston|Sunrise, FL| 304|26.09226| -80.36518|FALSE|TRUE|TRUE|TRUE
5655671|HomeTowne Studios by Red Roof Fort Lauderdale|Sunrise, FL| 107|26.18739| -80.18639|TRUE|FALSE|FALSE|TRUE
5691503|Baymont by Wyndham Kansas City KU Medical Center|Kansas City, MO|  85|39.06629| -94.61417|TRUE|FALSE|FALSE|TRUE
5691503|The Westin Kansas City at Crown Center|Kansas City, MO| 273|39.08335| -94.58284|FALSE|FALSE|TRUE|TRUE
5691503|Hotel Kansas City, in The Unbound Collection by Hyatt|Kansas City, MO| 212|39.09891| -94.58458|FALSE|TRUE|TRUE|TRUE
5691503|Econo Lodge Kansas City Downtown North|Kansas City, MO|  69|39.14696| -94.55791|TRUE|FALSE|FALSE|TRUE
5691503|Clarion Pointe|Kansas City, MO|  72|39.04711| -94.41583|TRUE|FALSE|FALSE|TRUE
5691503|Hotel Indigo Kansas City Downtown, an IHG Hotel|Kansas City, MO| 171|39.10076| -94.58464|FALSE|TRUE|FALSE|TRUE
5691503|InterContinental Kansas City at The Plaza, an IHG Hotel|Kansas City, MO| 210|39.03917| -94.59250|FALSE|FALSE|TRUE|TRUE
5691503|Extended Stay America Suites Kansas City Shawnee Mission|Kansas City, MO|  84|38.89952| -94.63930|TRUE|FALSE|FALSE|TRUE
5691503|Crossroads Hotel|Kansas City, MO| 212|39.08795| -94.58722|FALSE|FALSE|TRUE|TRUE
5691503|Days Inn by Wyndham near Kansas Speedway|Kansas City, MO|  74|39.10648| -94.75904|TRUE|FALSE|FALSE|TRUE
5691503|Hilton President Kansas City|Kansas City, MO| 167|39.09814| -94.58378|FALSE|TRUE|FALSE|TRUE
5691503|WoodSpring Suites Kansas City Mission|Kansas City, MO|  63|39.04066| -94.66719|TRUE|FALSE|FALSE|TRUE
5691503|Crowne Plaza Kansas City Downtown, an IHG Hotel|Kansas City, MO| 205|39.09840| -94.58530|FALSE|TRUE|FALSE|TRUE
5691503|Arrowhead Inn|Kansas City, MO|  63|39.06911| -94.51370|TRUE|FALSE|FALSE|TRUE
5691503|Sheraton Kansas City Hotel at Crown Center|Kansas City, MO| 244|39.08530| -94.57963|FALSE|FALSE|TRUE|TRUE
5691503|La Quinta Inn by Wyndham Kansas City North|Kansas City, MO|  72|39.14712| -94.55866|TRUE|FALSE|FALSE|TRUE
5691503|Super 8 by Wyndham Kansas City|Kansas City, MO|  90|39.17290| -94.49450|TRUE|FALSE|FALSE|TRUE
5691503|The Raphael Hotel, Autograph Collection|Kansas City, MO| 254|39.03952| -94.59124|FALSE|FALSE|TRUE|TRUE
5691503|Loews Kansas City Hotel|Kansas City, MO| 249|39.09530| -94.58525|FALSE|TRUE|TRUE|TRUE
5691503|The Fontaine|Kansas City, MO| 210|39.04007| -94.59850|FALSE|FALSE|TRUE|TRUE
5691503|Ambassador Hotel Kansas City, Autograph Collection|Kansas City, MO| 241|39.10063| -94.58048|FALSE|TRUE|TRUE|TRUE
5691503|Kansas City Marriott Downtown|Kansas City, MO| 296|39.10045| -94.58628|FALSE|TRUE|TRUE|TRUE
5691503|Courtyard by Marriott Kansas City Downtown/Convention Center|Kansas City, MO| 145|39.09506| -94.58421|FALSE|TRUE|FALSE|TRUE
5691503|Hampton Inn & Suites Kansas City Downtown Crossroads|Kansas City, MO| 142|39.09487| -94.58312|FALSE|TRUE|FALSE|TRUE
5691503|Quality Inn I-70 Near Kansas Speedway|Kansas City, MO|  89|39.10321| -94.76116|TRUE|FALSE|FALSE|TRUE
5691503|Hotel Phillips Kansas City Curio Collection by Hilton|Kansas City, MO| 172|39.10014| -94.58468|FALSE|TRUE|FALSE|TRUE
5691505|Knights Inn Brooklyn Sunset Park|New York, NY|  89|40.64684| -73.99677|TRUE|FALSE|FALSE|TRUE
5691505|Conrad New York Midtown|New York, NY| 584|40.76347| -73.98060|FALSE|FALSE|TRUE|TRUE
5691505|The Central Park North|New York, NY|  94|40.79975| -73.95360|TRUE|FALSE|FALSE|TRUE
5691505|Best Western Plus Plaza Hotel|New York, NY|  91|40.75583| -73.94106|TRUE|FALSE|FALSE|TRUE
5691505|The Langham, New York, Fifth Avenue|New York, NY| 748|40.75014| -73.98353|FALSE|FALSE|TRUE|TRUE
5691505|Hotel 21 Nyc|New York, NY|  93|40.75367| -73.94228|TRUE|FALSE|FALSE|TRUE
5691505|Flushing Hotel|New York, NY|  72|40.76208| -73.83163|TRUE|FALSE|FALSE|TRUE
5691505|Cambria Hotel New York - Chelsea|New York, NY| 164|40.74670| -73.99161|FALSE|TRUE|FALSE|TRUE
5691505|Hotel Barriere Fouquets New York|New York, NY|1068|40.72362| -74.00975|FALSE|FALSE|TRUE|TRUE
5691505|Four Points By Sheraton Manhattan Midtown West|New York, NY| 164|40.75500| -73.99843|FALSE|TRUE|FALSE|TRUE
5691505|Loews Regency New York Hotel|New York, NY| 697|40.76457| -73.96901|FALSE|FALSE|TRUE|TRUE
5691505|LIC Hotel|New York, NY|  95|40.74468| -73.94854|TRUE|FALSE|FALSE|TRUE
5691505|The Dominick|New York, NY| 623|40.72532| -74.00550|FALSE|FALSE|TRUE|TRUE
5691505|Doubletree by Hilton New York Times Square South|New York, NY| 144|40.75380| -73.99272|FALSE|TRUE|FALSE|TRUE
5691505|The New Yorker A Wyndham Hotel|New York, NY| 180|40.75267| -73.99356|FALSE|TRUE|FALSE|TRUE
5691505|Quality Inn near Sunset Park|New York, NY|  90|40.65099| -74.01178|TRUE|FALSE|FALSE|TRUE
5691505|The Towers at Lotte New York Palace|New York, NY| 910|40.75797| -73.97487|FALSE|FALSE|TRUE|TRUE
5691505|Steinway Hotel|New York, NY|  95|40.76828| -73.91168|TRUE|FALSE|FALSE|TRUE
5691505|DoubleTree by Hilton New York City - Chelsea|New York, NY| 131|40.74699| -73.99138|FALSE|TRUE|FALSE|TRUE
5691505|1 Hotel Central Park|New York, NY| 668|40.76471| -73.97651|FALSE|FALSE|TRUE|TRUE
5691505|voco Times Square South, an IHG Hotel|New York, NY| 159|40.75445| -73.99410|FALSE|TRUE|FALSE|TRUE
5691505|Pendry Manhattan West|New York, NY| 682|40.75316| -73.99849|FALSE|TRUE|TRUE|TRUE
5691505|Courtyard New York Manhattan/Times Square West|New York, NY| 188|40.75449| -73.99257|FALSE|TRUE|FALSE|TRUE
5691505|Equinox Hotel New York|New York, NY| 784|40.75465| -74.00221|FALSE|FALSE|TRUE|TRUE
5691505|Element New York Times Square West, a Marriott Hotel|New York, NY| 133|40.75584| -73.99178|FALSE|TRUE|FALSE|TRUE
5691505|Queens Hotel|New York, NY|  95|40.74128| -73.89991|TRUE|FALSE|FALSE|TRUE
5691505|Rodeway Inn Meadowlands|New York, NY|  94|40.79292| -74.05712|TRUE|FALSE|FALSE|TRUE
5691505|TRYP by Wyndham New York City Times Square / Midtown|New York, NY| 152|40.75378| -73.99462|FALSE|TRUE|FALSE|TRUE
5691505|Conrad New York Downtown|New York, NY| 539|40.71496| -74.01569|FALSE|FALSE|TRUE|TRUE
5691507|Best Western Plus Casino Royale - Center Strip|Las Vegas, NV| 102|36.12073|-115.17165|FALSE|TRUE|FALSE|TRUE
5691507|The Venetian Prestige Club Lounge|Las Vegas, NV| 583|36.12117|-115.16965|FALSE|FALSE|TRUE|TRUE
5691507|Oasis at Gold Spike - Adults Only|Las Vegas, NV|  60|36.17095|-115.13982|TRUE|FALSE|FALSE|TRUE
5691507|Four Queens Hotel and Casino|Las Vegas, NV|  68|36.16987|-115.14371|TRUE|FALSE|FALSE|TRUE
5691507|NoMad Las Vegas|Las Vegas, NV| 759|36.10474|-115.17651|FALSE|TRUE|TRUE|TRUE
5691507|Nobu Hotel at Caesars Palace|Las Vegas, NV| 436|36.11671|-115.17519|FALSE|TRUE|TRUE|TRUE
5691507|El Cortez Hotel and Casino - 21 and Over|Las Vegas, NV|  68|36.16943|-115.13873|TRUE|FALSE|FALSE|TRUE
5691507|Palms Casino Resort|Las Vegas, NV| 126|36.11444|-115.19482|FALSE|TRUE|FALSE|TRUE
5691507|Hotel Apache|Las Vegas, NV|  62|36.17113|-115.14408|TRUE|FALSE|FALSE|TRUE
5691507|Las Vegas Hilton at Resorts World|Las Vegas, NV| 254|36.13516|-115.16667|FALSE|FALSE|TRUE|TRUE
5691507|The ENGLISH Hotel, Las Vegas, a Tribute Portfolio Hotel|Las Vegas, NV| 536|36.16146|-115.15223|FALSE|FALSE|TRUE|TRUE
5691507|Lucky Club at Ojos Locos|Las Vegas, NV|  68|36.21873|-115.12122|TRUE|FALSE|FALSE|TRUE
5691507|Super 8 by Wyndham Las Vegas North Strip/Fremont St. Area|Las Vegas, NV|  58|36.15606|-115.14829|TRUE|FALSE|FALSE|TRUE
5691507|Jet Luxury Elite at The Signature|Las Vegas, NV| 168|36.10601|-115.16678|FALSE|TRUE|FALSE|TRUE
5691507|Alexis Park All Suite Resort|Las Vegas, NV|  97|36.10762|-115.15554|FALSE|TRUE|FALSE|TRUE
5691507|Longhorn Casino & Hotel|Las Vegas, NV|  69|36.10704|-115.05916|TRUE|FALSE|FALSE|TRUE
5691507|SpringHill Suites by Marriott Las Vegas Convention Center|Las Vegas, NV| 362|36.13515|-115.15545|FALSE|FALSE|TRUE|TRUE
5691507|Green Valley Ranch Resort and Spa|Las Vegas, NV| 620|36.02025|-115.08997|FALSE|FALSE|TRUE|TRUE
5691507|Mardi Gras Hotel & Casino|Las Vegas, NV|  67|36.12549|-115.15446|TRUE|FALSE|FALSE|TRUE
5691507|OYO Hotel and Casino Las Vegas|Las Vegas, NV|  73|36.10039|-115.16772|FALSE|TRUE|FALSE|TRUE
5691507|ARIA Sky Suites|Las Vegas, NV| 898|36.10765|-115.17577|FALSE|TRUE|TRUE|TRUE
5691507|Howard Johnson by Wyndham Las Vegas near the Strip|Las Vegas, NV|  57|36.09948|-115.16580|TRUE|TRUE|FALSE|TRUE
5691507|Embassy Suites by Hilton Las Vegas|Las Vegas, NV| 363|36.11089|-115.15123|FALSE|FALSE|TRUE|TRUE
5691507|Bellagio|Las Vegas, NV| 403|36.11311|-115.17701|FALSE|TRUE|TRUE|TRUE
5691507|Arizona Charlie's Boulder|Las Vegas, NV|  68|36.12406|-115.07554|TRUE|FALSE|FALSE|TRUE
5718855|La Quinta Inn by Wyndham Nashville South|Nashville, TN|  74|36.08417| -86.76250|TRUE|FALSE|FALSE|TRUE
5718855|The Joseph, a Luxury Collection Hotel, Nashville|Nashville, TN| 457|36.15658| -86.77473|FALSE|TRUE|TRUE|TRUE
5718855|Omni Nashville Hotel|Nashville, TN| 797|36.15748| -86.77565|FALSE|TRUE|TRUE|TRUE
5718855|Hyatt Place Nashville Downtown|Nashville, TN| 277|36.15843| -86.77435|FALSE|TRUE|FALSE|TRUE
5718855|Extended Stay America Suites Nashville Brentwood South|Nashville, TN|  95|36.03414| -86.78058|TRUE|FALSE|FALSE|TRUE
5718855|Econo Lodge North|Nashville, TN|  86|36.23261| -86.75763|TRUE|FALSE|FALSE|TRUE
5718855|Thompson Nashville|Nashville, TN| 393|36.15232| -86.78403|FALSE|FALSE|TRUE|TRUE
5718855|Embassy Suites by Hilton Nashville Downtown|Nashville, TN| 792|36.15731| -86.78015|FALSE|TRUE|TRUE|TRUE
5718855|Baymont by Wyndham Nashville|Nashville, TN|  89|36.15384| -86.68520|TRUE|FALSE|FALSE|TRUE
5718855|Four Seasons Nashville|Nashville, TN| 769|36.16007| -86.77366|FALSE|TRUE|TRUE|TRUE
5718855|Drury Plaza Hotel Nashville Downtown|Nashville, TN| 262|36.15777| -86.77390|FALSE|TRUE|FALSE|TRUE
5718855|Extended Stay America Suites Nashville Airport|Nashville, TN|  90|36.15370| -86.69047|TRUE|FALSE|FALSE|TRUE
5718855|The Hermitage Hotel|Nashville, TN| 687|36.16376| -86.78236|FALSE|FALSE|TRUE|TRUE
5718855|Sleep Inn|Nashville, TN|  81|36.16266| -86.78160|TRUE|FALSE|FALSE|TRUE
5718855|1 Hotel Nashville|Nashville, TN| 330|36.15711| -86.78073|FALSE|TRUE|FALSE|TRUE
5718855|The Union Station Nashville Yards, Autograph Collection|Nashville, TN| 405|36.15727| -86.78479|FALSE|FALSE|TRUE|TRUE
5718855|Days Inn by Wyndham Nashville Airport|Nashville, TN|  95|36.13446| -86.72459|TRUE|FALSE|FALSE|TRUE
5718855|AC Hotel by Marriott Nashville Downtown|Nashville, TN| 370|36.15617| -86.77530|FALSE|TRUE|FALSE|TRUE
5718855|JW Marriott Nashville|Nashville, TN| 635|36.15634| -86.78107|FALSE|TRUE|TRUE|TRUE
5718855|Ramada by Wyndham Nashville/Music Valley|Nashville, TN|  81|36.21901| -86.69493|TRUE|FALSE|FALSE|TRUE
5718855|Super 8 by Wyndham Nashville Near Downtown / I-40|Nashville, TN|  92|36.13443| -86.72443|TRUE|FALSE|FALSE|TRUE
5718855|Grand Hyatt Nashville|Nashville, TN| 444|36.15834| -86.78497|FALSE|FALSE|TRUE|TRUE
5718855|Days Inn by Wyndham Nashville Saint Thomas West Hospital|Nashville, TN|  85|36.14377| -86.85803|TRUE|FALSE|FALSE|TRUE
5718855|The Westin Nashville|Nashville, TN| 393|36.15515| -86.78074|FALSE|TRUE|TRUE|TRUE
5718855|Dream Nashville|Nashville, TN| 393|36.16411| -86.77909|FALSE|FALSE|TRUE|TRUE
5739332|Clarion Pointe - Greensboro Coliseum Area|Greensboro, NC|  76|36.04366| -79.84399|TRUE|TRUE|FALSE|TRUE
5739332|O.Henry Hotel|Greensboro, NC| 360|36.08657| -79.82635|FALSE|TRUE|TRUE|TRUE
5739332|Bravo Inn Greensboro|Greensboro, NC|  65|36.00905| -79.84652|TRUE|FALSE|FALSE|TRUE
5739332|Quality Inn & Suites Coliseum|Greensboro, NC|  86|36.04602| -79.83672|FALSE|TRUE|FALSE|TRUE
5739332|Holiday Inn Greensboro Coliseum, an IHG Hotel|Greensboro, NC| 128|36.04779| -79.83500|FALSE|TRUE|TRUE|TRUE
5739332|DoubleTree by Hilton Greensboro|Greensboro, NC| 172|36.04626| -79.83986|FALSE|TRUE|TRUE|TRUE
5739332|Days Inn by Wyndham Greensboro NC|Greensboro, NC|  80|36.05375| -79.89937|TRUE|FALSE|FALSE|TRUE
5739332|MainStay Suites Greensboro|Greensboro, NC|  81|36.07575| -79.96206|TRUE|FALSE|FALSE|TRUE
5739332|Extended Stay America Suites Greensboro Wendover Ave|Greensboro, NC|  80|36.05983| -79.87859|TRUE|FALSE|FALSE|TRUE
5739332|Sleep Inn Airport|Greensboro, NC|  76|36.08260| -79.95924|TRUE|FALSE|FALSE|TRUE
5739332|Tru by Hilton Greensboro, NC|Greensboro, NC| 128|36.05263| -79.88873|FALSE|FALSE|TRUE|TRUE
5739332|Wingate by Wyndham - Greensboro|Greensboro, NC| 111|36.05224| -79.89346|FALSE|FALSE|TRUE|TRUE
5739332|Clarion Pointe Greensboro Airport|Greensboro, NC|  71|36.07699| -79.95991|TRUE|FALSE|FALSE|TRUE
5739332|Sheraton Greensboro at Four Seasons|Greensboro, NC| 168|36.04163| -79.84113|FALSE|TRUE|TRUE|TRUE
5739332|Hyatt Place Greensboro|Greensboro, NC| 117|36.05463| -79.89108|FALSE|FALSE|TRUE|TRUE
5739332|Proximity Hotel|Greensboro, NC| 377|36.08910| -79.82112|FALSE|FALSE|TRUE|TRUE
5739332|Howard Johnson by Wyndham Greensboro Near the Coliseum|Greensboro, NC|  68|36.04343| -79.84554|TRUE|TRUE|FALSE|TRUE
5739332|Drury Inn & Suites Greensboro|Greensboro, NC| 132|36.04230| -79.84473|FALSE|TRUE|TRUE|TRUE
5739332|Super 8 by Wyndham Greensboro/Coliseum/Conv.|Greensboro, NC|  67|36.04562| -79.83627|TRUE|TRUE|FALSE|TRUE
5739332|Best Western Plus Greensboro/Coliseum Area|Greensboro, NC|  95|36.04258| -79.84584|FALSE|TRUE|FALSE|TRUE
5739332|SpringHill Suites by Marriott Greensboro|Greensboro, NC| 126|36.05258| -79.89136|FALSE|FALSE|TRUE|TRUE
5739332|Microtel Inn by Wyndham Greensboro|Greensboro, NC|  75|36.05911| -79.88914|TRUE|FALSE|FALSE|TRUE
5739335|Super 8 by Wyndham Greensboro/Coliseum/Conv.|Greensboro, NC|  67|36.04562| -79.83627|TRUE|TRUE|FALSE|TRUE
5739335|MainStay Suites Greensboro|Greensboro, NC|  81|36.07575| -79.96206|TRUE|FALSE|FALSE|TRUE
5739335|Howard Johnson by Wyndham Greensboro Near the Coliseum|Greensboro, NC|  68|36.04343| -79.84554|TRUE|TRUE|FALSE|TRUE
5739335|Clarion Pointe Greensboro Airport|Greensboro, NC|  71|36.07699| -79.95991|TRUE|FALSE|FALSE|TRUE
5739335|Clarion Pointe - Greensboro Coliseum Area|Greensboro, NC|  76|36.04366| -79.84399|TRUE|TRUE|FALSE|TRUE
5739335|Wingate by Wyndham - Greensboro|Greensboro, NC| 111|36.05224| -79.89346|FALSE|FALSE|TRUE|TRUE
5739335|O.Henry Hotel|Greensboro, NC| 360|36.08657| -79.82635|FALSE|TRUE|TRUE|TRUE
5739335|Quality Inn & Suites Coliseum|Greensboro, NC|  86|36.04602| -79.83672|FALSE|TRUE|FALSE|TRUE
5739335|Tru by Hilton Greensboro, NC|Greensboro, NC| 128|36.05263| -79.88873|FALSE|FALSE|TRUE|TRUE
5739335|Bravo Inn Greensboro|Greensboro, NC|  65|36.00905| -79.84652|TRUE|FALSE|FALSE|TRUE
5739335|DoubleTree by Hilton Greensboro|Greensboro, NC| 172|36.04626| -79.83986|FALSE|TRUE|TRUE|TRUE
5739335|Proximity Hotel|Greensboro, NC| 416|36.08910| -79.82112|FALSE|FALSE|TRUE|TRUE
5739335|Best Western Plus Greensboro/Coliseum Area|Greensboro, NC|  95|36.04258| -79.84584|FALSE|TRUE|FALSE|TRUE
5739335|Sheraton Greensboro at Four Seasons|Greensboro, NC| 168|36.04163| -79.84113|FALSE|TRUE|TRUE|TRUE
5739335|Extended Stay America Suites Greensboro Wendover Ave|Greensboro, NC|  80|36.05983| -79.87859|TRUE|FALSE|FALSE|TRUE
5739335|Drury Inn & Suites Greensboro|Greensboro, NC| 132|36.04230| -79.84473|FALSE|TRUE|TRUE|TRUE
5739335|Hyatt Place Greensboro|Greensboro, NC| 117|36.05463| -79.89108|FALSE|FALSE|TRUE|TRUE
5739335|Microtel Inn by Wyndham Greensboro|Greensboro, NC|  75|36.05911| -79.88914|TRUE|FALSE|FALSE|TRUE
5739335|Holiday Inn Greensboro Coliseum, an IHG Hotel|Greensboro, NC| 128|36.04779| -79.83500|FALSE|TRUE|TRUE|TRUE
5739335|Sleep Inn Airport|Greensboro, NC|  77|36.08260| -79.95924|TRUE|FALSE|FALSE|TRUE
5739335|Days Inn by Wyndham Greensboro NC|Greensboro, NC|  80|36.05375| -79.89937|TRUE|FALSE|FALSE|TRUE
5739335|SpringHill Suites by Marriott Greensboro|Greensboro, NC| 126|36.05258| -79.89136|FALSE|FALSE|TRUE|TRUE
5739337|Proximity Hotel|Greensboro, NC| 377|36.08910| -79.82112|FALSE|FALSE|TRUE|TRUE
5739337|Clarion Pointe - Greensboro Coliseum Area|Greensboro, NC|  76|36.04366| -79.84399|TRUE|TRUE|FALSE|TRUE
5739337|Super 8 by Wyndham Greensboro/Coliseum/Conv.|Greensboro, NC|  67|36.04562| -79.83627|TRUE|TRUE|FALSE|TRUE
5739337|Extended Stay America Suites Greensboro Wendover Ave|Greensboro, NC|  80|36.05983| -79.87859|TRUE|FALSE|FALSE|TRUE
5739337|Best Western Plus Greensboro/Coliseum Area|Greensboro, NC|  95|36.04258| -79.84584|FALSE|TRUE|FALSE|TRUE
5739337|Sheraton Greensboro at Four Seasons|Greensboro, NC| 168|36.04163| -79.84113|FALSE|TRUE|TRUE|TRUE
5739337|Hyatt Place Greensboro|Greensboro, NC| 117|36.05463| -79.89108|FALSE|FALSE|TRUE|TRUE
5739337|Sleep Inn Airport|Greensboro, NC|  76|36.08260| -79.95924|TRUE|FALSE|FALSE|TRUE
5739337|Tru by Hilton Greensboro, NC|Greensboro, NC| 128|36.05263| -79.88873|FALSE|FALSE|TRUE|TRUE
5739337|Quality Inn & Suites Coliseum|Greensboro, NC|  86|36.04602| -79.83672|FALSE|TRUE|FALSE|TRUE
5739337|DoubleTree by Hilton Greensboro|Greensboro, NC| 172|36.04626| -79.83986|FALSE|TRUE|TRUE|TRUE
5739337|Holiday Inn Greensboro Coliseum, an IHG Hotel|Greensboro, NC| 128|36.04779| -79.83500|FALSE|TRUE|TRUE|TRUE
5739337|Bravo Inn Greensboro|Greensboro, NC|  65|36.00905| -79.84652|TRUE|FALSE|FALSE|TRUE
5739337|MainStay Suites Greensboro|Greensboro, NC|  81|36.07575| -79.96206|TRUE|FALSE|FALSE|TRUE
5739337|Clarion Pointe Greensboro Airport|Greensboro, NC|  71|36.07699| -79.95991|TRUE|FALSE|FALSE|TRUE
5739337|SpringHill Suites by Marriott Greensboro|Greensboro, NC| 126|36.05258| -79.89136|FALSE|FALSE|TRUE|TRUE
5739337|Days Inn by Wyndham Greensboro NC|Greensboro, NC|  80|36.05375| -79.89937|TRUE|FALSE|FALSE|TRUE
5739337|Drury Inn & Suites Greensboro|Greensboro, NC| 132|36.04230| -79.84473|FALSE|TRUE|TRUE|TRUE
5739337|O.Henry Hotel|Greensboro, NC| 360|36.08657| -79.82635|FALSE|TRUE|TRUE|TRUE
5739337|Howard Johnson by Wyndham Greensboro Near the Coliseum|Greensboro, NC|  68|36.04343| -79.84554|TRUE|TRUE|FALSE|TRUE
5739337|Microtel Inn by Wyndham Greensboro|Greensboro, NC|  75|36.05911| -79.88914|TRUE|FALSE|FALSE|TRUE
5739337|Wingate by Wyndham - Greensboro|Greensboro, NC| 111|36.05224| -79.89346|FALSE|FALSE|TRUE|TRUE
5739338|Extended Stay America Suites Greensboro Wendover Ave|Greensboro, NC|  80|36.05983| -79.87859|TRUE|FALSE|FALSE|TRUE
5739338|Best Western Plus Greensboro/Coliseum Area|Greensboro, NC|  95|36.04258| -79.84584|FALSE|TRUE|FALSE|TRUE
5739338|Clarion Pointe - Greensboro Coliseum Area|Greensboro, NC|  76|36.04366| -79.84399|TRUE|TRUE|FALSE|TRUE
5739338|Drury Inn & Suites Greensboro|Greensboro, NC| 132|36.04230| -79.84473|FALSE|TRUE|TRUE|TRUE
5739338|Sheraton Greensboro at Four Seasons|Greensboro, NC| 168|36.04163| -79.84113|FALSE|TRUE|TRUE|TRUE
5739338|DoubleTree by Hilton Greensboro|Greensboro, NC| 172|36.04626| -79.83986|FALSE|TRUE|TRUE|TRUE
5739338|Days Inn by Wyndham Greensboro NC|Greensboro, NC|  80|36.05375| -79.89937|TRUE|FALSE|FALSE|TRUE
5739338|Proximity Hotel|Greensboro, NC| 377|36.08910| -79.82112|FALSE|FALSE|TRUE|TRUE
5739338|MainStay Suites Greensboro|Greensboro, NC|  81|36.07575| -79.96206|TRUE|FALSE|FALSE|TRUE
5739338|Sleep Inn Airport|Greensboro, NC|  76|36.08260| -79.95924|TRUE|FALSE|FALSE|TRUE
5739338|Hyatt Place Greensboro|Greensboro, NC| 117|36.05463| -79.89108|FALSE|FALSE|TRUE|TRUE
5739338|Tru by Hilton Greensboro, NC|Greensboro, NC| 128|36.05263| -79.88873|FALSE|FALSE|TRUE|TRUE
5739338|SpringHill Suites by Marriott Greensboro|Greensboro, NC| 126|36.05258| -79.89136|FALSE|FALSE|TRUE|TRUE
5739338|Howard Johnson by Wyndham Greensboro Near the Coliseum|Greensboro, NC|  68|36.04343| -79.84554|TRUE|TRUE|FALSE|TRUE
5739338|Clarion Pointe Greensboro Airport|Greensboro, NC|  71|36.07699| -79.95991|TRUE|FALSE|FALSE|TRUE
5739338|Microtel Inn by Wyndham Greensboro|Greensboro, NC|  75|36.05911| -79.88914|TRUE|FALSE|FALSE|TRUE
5739338|Wingate by Wyndham - Greensboro|Greensboro, NC| 111|36.05224| -79.89346|FALSE|FALSE|TRUE|TRUE
5739338|Bravo Inn Greensboro|Greensboro, NC|  65|36.00905| -79.84652|TRUE|FALSE|FALSE|TRUE
5739338|Holiday Inn Greensboro Coliseum, an IHG Hotel|Greensboro, NC| 128|36.04779| -79.83500|FALSE|TRUE|TRUE|TRUE
5739338|O.Henry Hotel|Greensboro, NC| 360|36.08657| -79.82635|FALSE|TRUE|TRUE|TRUE
5739338|Quality Inn & Suites Coliseum|Greensboro, NC|  86|36.04602| -79.83672|FALSE|TRUE|FALSE|TRUE
5739338|Super 8 by Wyndham Greensboro/Coliseum/Conv.|Greensboro, NC|  67|36.04562| -79.83627|TRUE|TRUE|FALSE|TRUE
5739341|DoubleTree by Hilton Greensboro|Greensboro, NC| 172|36.04626| -79.83986|FALSE|TRUE|TRUE|TRUE
5739341|Wingate by Wyndham - Greensboro|Greensboro, NC| 111|36.05224| -79.89346|FALSE|FALSE|TRUE|TRUE
5739341|Hyatt Place Greensboro|Greensboro, NC| 117|36.05463| -79.89108|FALSE|FALSE|TRUE|TRUE
5739341|Proximity Hotel|Greensboro, NC| 377|36.08910| -79.82112|FALSE|FALSE|TRUE|TRUE
5739341|Sheraton Greensboro at Four Seasons|Greensboro, NC| 168|36.04163| -79.84113|FALSE|TRUE|TRUE|TRUE
5739341|Holiday Inn Greensboro Coliseum, an IHG Hotel|Greensboro, NC| 128|36.04779| -79.83500|FALSE|TRUE|TRUE|TRUE
5739341|Quality Inn & Suites Coliseum|Greensboro, NC|  86|36.04602| -79.83672|FALSE|TRUE|FALSE|TRUE
5739341|Clarion Pointe - Greensboro Coliseum Area|Greensboro, NC|  76|36.04366| -79.84399|TRUE|TRUE|FALSE|TRUE
5739341|Bravo Inn Greensboro|Greensboro, NC|  65|36.00905| -79.84652|TRUE|FALSE|FALSE|TRUE
5739341|Super 8 by Wyndham Greensboro/Coliseum/Conv.|Greensboro, NC|  67|36.04562| -79.83627|TRUE|TRUE|FALSE|TRUE
5739341|Howard Johnson by Wyndham Greensboro Near the Coliseum|Greensboro, NC|  68|36.04343| -79.84554|TRUE|TRUE|FALSE|TRUE
5739341|Extended Stay America Suites Greensboro Wendover Ave|Greensboro, NC|  80|36.05983| -79.87859|TRUE|FALSE|FALSE|TRUE
5739341|Sleep Inn Airport|Greensboro, NC|  76|36.08260| -79.95924|TRUE|FALSE|FALSE|TRUE
5739341|SpringHill Suites by Marriott Greensboro|Greensboro, NC| 126|36.05258| -79.89136|FALSE|FALSE|TRUE|TRUE
5739341|Microtel Inn by Wyndham Greensboro|Greensboro, NC|  75|36.05911| -79.88914|TRUE|FALSE|FALSE|TRUE
5739341|O.Henry Hotel|Greensboro, NC| 360|36.08657| -79.82635|FALSE|TRUE|TRUE|TRUE
5739341|Tru by Hilton Greensboro, NC|Greensboro, NC| 128|36.05263| -79.88873|FALSE|FALSE|TRUE|TRUE
5739341|Days Inn by Wyndham Greensboro NC|Greensboro, NC|  80|36.05375| -79.89937|TRUE|FALSE|FALSE|TRUE
5739341|MainStay Suites Greensboro|Greensboro, NC|  81|36.07575| -79.96206|TRUE|FALSE|FALSE|TRUE
5739341|Drury Inn & Suites Greensboro|Greensboro, NC| 132|36.04230| -79.84473|FALSE|TRUE|TRUE|TRUE
5739341|Best Western Plus Greensboro/Coliseum Area|Greensboro, NC|  95|36.04258| -79.84584|FALSE|TRUE|FALSE|TRUE
5739341|Clarion Pointe Greensboro Airport|Greensboro, NC|  71|36.07699| -79.95991|TRUE|FALSE|FALSE|TRUE
5739342|Wingate by Wyndham - Greensboro|Greensboro, NC| 111|36.05224| -79.89346|FALSE|FALSE|TRUE|TRUE
5739342|Extended Stay America Suites Greensboro Wendover Ave|Greensboro, NC|  80|36.05983| -79.87859|TRUE|FALSE|FALSE|TRUE
5739342|Days Inn by Wyndham Greensboro NC|Greensboro, NC|  80|36.05375| -79.89937|TRUE|FALSE|FALSE|TRUE
5739342|Clarion Pointe Greensboro Airport|Greensboro, NC|  71|36.07699| -79.95991|TRUE|FALSE|FALSE|TRUE
5739342|MainStay Suites Greensboro|Greensboro, NC|  81|36.07575| -79.96206|TRUE|FALSE|FALSE|TRUE
5739342|DoubleTree by Hilton Greensboro|Greensboro, NC| 172|36.04626| -79.83986|FALSE|TRUE|TRUE|TRUE
5739342|Sheraton Greensboro at Four Seasons|Greensboro, NC| 168|36.04163| -79.84113|FALSE|TRUE|TRUE|TRUE
5739342|Super 8 by Wyndham Greensboro/Coliseum/Conv.|Greensboro, NC|  67|36.04562| -79.83627|TRUE|TRUE|FALSE|TRUE
5739342|Quality Inn & Suites Coliseum|Greensboro, NC|  86|36.04602| -79.83672|FALSE|TRUE|FALSE|TRUE
5739342|Holiday Inn Greensboro Coliseum, an IHG Hotel|Greensboro, NC| 128|36.04779| -79.83500|FALSE|TRUE|TRUE|TRUE
5739342|Proximity Hotel|Greensboro, NC| 377|36.08910| -79.82112|FALSE|FALSE|TRUE|TRUE
5739342|Bravo Inn Greensboro|Greensboro, NC|  65|36.00905| -79.84652|TRUE|FALSE|FALSE|TRUE
5739342|Hyatt Place Greensboro|Greensboro, NC| 117|36.05463| -79.89108|FALSE|FALSE|TRUE|TRUE
5739342|Clarion Pointe - Greensboro Coliseum Area|Greensboro, NC|  76|36.04366| -79.84399|TRUE|TRUE|FALSE|TRUE
5739342|Tru by Hilton Greensboro, NC|Greensboro, NC| 128|36.05263| -79.88873|FALSE|FALSE|TRUE|TRUE
5739342|SpringHill Suites by Marriott Greensboro|Greensboro, NC| 126|36.05258| -79.89136|FALSE|FALSE|TRUE|TRUE
5739342|Microtel Inn by Wyndham Greensboro|Greensboro, NC|  75|36.05911| -79.88914|TRUE|FALSE|FALSE|TRUE
5739342|O.Henry Hotel|Greensboro, NC| 360|36.08657| -79.82635|FALSE|TRUE|TRUE|TRUE
5739342|Sleep Inn Airport|Greensboro, NC|  76|36.08260| -79.95924|TRUE|FALSE|FALSE|TRUE
5739342|Best Western Plus Greensboro/Coliseum Area|Greensboro, NC|  95|36.04258| -79.84584|FALSE|TRUE|FALSE|TRUE
5739342|Drury Inn & Suites Greensboro|Greensboro, NC| 132|36.04230| -79.84473|FALSE|TRUE|TRUE|TRUE
5739342|Howard Johnson by Wyndham Greensboro Near the Coliseum|Greensboro, NC|  68|36.04343| -79.84554|TRUE|TRUE|FALSE|TRUE
5739410|Comfort Inn Murray - Salt Lake City South|Salt Lake City, UT|  91|40.65501|-111.90444|TRUE|FALSE|FALSE|TRUE
5739410|Salt Lake Marriott Downtown at City Creek|Salt Lake City, UT| 286|40.76774|-111.89313|FALSE|TRUE|TRUE|TRUE
5739410|Kimpton Hotel Monaco Salt Lake City, an IHG Hotel|Salt Lake City, UT| 337|40.76472|-111.89222|FALSE|TRUE|TRUE|TRUE
5739410|Econo Lodge Downtown|Salt Lake City, UT|  96|40.77127|-111.91175|FALSE|TRUE|FALSE|TRUE
5739410|Comfort Inn Downtown|Salt Lake City, UT|  86|40.75820|-111.89545|TRUE|TRUE|FALSE|TRUE
5739410|Radisson Hotel Salt Lake City Airport|Salt Lake City, UT| 153|40.77098|-111.95241|FALSE|FALSE|TRUE|TRUE
5739410|Comfort Inn West Valley Salt Lake City South|Salt Lake City, UT|  86|40.69886|-111.94917|TRUE|FALSE|FALSE|TRUE
5739410|The Grand America Hotel|Salt Lake City, UT| 397|40.75740|-111.88888|FALSE|FALSE|TRUE|TRUE
5739410|Clarion Inn|Salt Lake City, UT|  89|40.77479|-112.02388|TRUE|FALSE|FALSE|TRUE
5739410|Hilton Garden Inn Salt Lake City Downtown|Salt Lake City, UT| 193|40.75696|-111.89836|FALSE|TRUE|TRUE|TRUE
5739410|Extended Stay America Suites Salt Lake City West Valley Ctr|Salt Lake City, UT|  86|40.72464|-111.85618|TRUE|FALSE|FALSE|TRUE
5739410|Crystal Inn Hotel & Suites Salt Lake City|Salt Lake City, UT| 180|40.75888|-111.89776|FALSE|TRUE|TRUE|TRUE
5739410|Sheraton Salt Lake City Hotel|Salt Lake City, UT| 245|40.75900|-111.89597|FALSE|TRUE|TRUE|TRUE
5739410|Ramada by Wyndham Salt Lake City|Salt Lake City, UT|  67|40.71740|-111.88712|TRUE|FALSE|FALSE|TRUE
5739410|Best Western West Valley Inn|Salt Lake City, UT|  91|40.69577|-111.94887|TRUE|FALSE|FALSE|TRUE
5739410|AC by Marriott Salt Lake City Downtown|Salt Lake City, UT| 363|40.76476|-111.89733|FALSE|TRUE|TRUE|TRUE
5739410|Hilton Salt Lake City Center|Salt Lake City, UT| 262|40.76390|-111.89326|FALSE|TRUE|TRUE|TRUE
5739410|Quality Inn Downtown|Salt Lake City, UT|  76|40.75574|-111.89726|TRUE|FALSE|FALSE|TRUE
5739410|The Metropolitan Inn|Salt Lake City, UT|  83|40.75780|-111.89459|TRUE|FALSE|FALSE|TRUE
5739410|City Creek Inn & Suites|Salt Lake City, UT|  79|40.74690|-111.89023|TRUE|FALSE|FALSE|TRUE
5739410|Radisson Hotel Salt Lake City Downtown|Salt Lake City, UT| 252|40.76899|-111.89782|FALSE|TRUE|TRUE|TRUE
5739599|Element Harrison - Newark, a Marriott Hotel|Newark, NJ| 185|40.74045| -74.15638|FALSE|TRUE|FALSE|TRUE
5739599|The Knickerbocker Hotel|Newark, NJ| 428|40.73566| -74.17237|FALSE|TRUE|FALSE|TRUE
5739599|The Ritz-Carlton New York, NoMad|Newark, NJ| 916|40.74554| -73.98884|FALSE|FALSE|TRUE|TRUE
5739599|The Ned NoMad|Newark, NJ| 619|40.74496| -73.98847|FALSE|FALSE|TRUE|TRUE
5739599|Rodeway Inn Meadowlands|Newark, NJ|  94|40.79292| -74.05712|TRUE|FALSE|FALSE|TRUE
5739599|Courtyard by Marriott Newark Downtown|Newark, NJ| 175|40.73352| -74.17293|FALSE|TRUE|FALSE|TRUE
5739599|TRYP by Wyndham Newark Downtown|Newark, NJ| 121|40.73831| -74.16799|FALSE|TRUE|FALSE|TRUE
5739599|Quality Suites NYC Gateway|Newark, NJ| 109|40.76404| -74.04786|TRUE|FALSE|FALSE|TRUE
5739599|Casa Cipriani New York|Newark, NJ|1840|40.70110| -74.01188|FALSE|FALSE|TRUE|TRUE
5739599|Hudson River Hotel|Newark, NJ| 106|40.75537| -73.99735|TRUE|FALSE|FALSE|TRUE
5739599|Canal Loft Hotel|Newark, NJ| 107|40.71530| -73.99388|TRUE|FALSE|FALSE|TRUE
5739599|Hotel Barriere Fouquets New York|Newark, NJ|1068|40.72362| -74.00975|FALSE|FALSE|TRUE|TRUE
5739599|DoubleTree by Hilton Newark Penn Station|Newark, NJ| 170|40.73542| -74.16537|FALSE|TRUE|FALSE|TRUE
5739599|Howard Johnson by Wyndham North Bergen|Newark, NJ| 105|40.76433| -74.04720|TRUE|FALSE|FALSE|TRUE
5739599|Comfort Suites Newark - Harrison|Newark, NJ| 156|40.75496| -74.16660|FALSE|TRUE|FALSE|TRUE
5739599|Days Inn by Wyndham Jersey City / NYC Area|Newark, NJ| 104|40.75580| -74.05475|TRUE|FALSE|FALSE|TRUE
5739599|St Marks Hotel|Newark, NJ| 100|40.72928| -73.98965|TRUE|FALSE|FALSE|TRUE
5739599|Pendry Manhattan West|Newark, NJ| 682|40.75339| -73.99859|FALSE|FALSE|TRUE|TRUE
5739599|Conrad New York Downtown|Newark, NJ| 539|40.71504| -74.01584|FALSE|FALSE|TRUE|TRUE
5739599|The Langham, New York, Fifth Avenue|Newark, NJ| 758|40.75014| -73.98353|FALSE|FALSE|TRUE|TRUE
5739599|Super 8 by Wyndham Meadowlands|Newark, NJ| 105|40.81955| -74.06378|TRUE|FALSE|FALSE|TRUE
5739599|Extended Stay America Suites Elizabeth Newark Airport|Newark, NJ| 106|40.66395| -74.17663|TRUE|FALSE|FALSE|TRUE
5739599|The Dominick|Newark, NJ| 623|40.72547| -74.00533|FALSE|FALSE|TRUE|TRUE
5739599|Four Seasons Hotel New York Downtown|Newark, NJ| 973|40.71263| -74.00919|FALSE|FALSE|TRUE|TRUE
5739599|Equinox Hotel New York|Newark, NJ| 784|40.75465| -74.00221|FALSE|FALSE|TRUE|TRUE
5739599|11 Howard|Newark, NJ| 467|40.73759| -74.18292|FALSE|TRUE|FALSE|TRUE
5739599|Red Carpet Inn Newark Irvington, NJ|Newark, NJ|  85|40.72317| -74.23132|TRUE|FALSE|FALSE|TRUE
5739599|Holiday Inn Newark International Airport, an IHG Hotel|Newark, NJ| 126|40.71291| -74.16644|FALSE|TRUE|FALSE|TRUE
5739599|DoubleTree by Hilton Hotel Newark Airport|Newark, NJ| 200|40.71284| -74.16429|FALSE|TRUE|FALSE|TRUE
5739599|Fairfield Inn & Suites Newark Liberty International Airport|Newark, NJ| 144|40.70958| -74.17089|FALSE|TRUE|FALSE|TRUE
5739602|Courtyard by Marriott Newark Downtown|Newark, NJ| 175|40.73352| -74.17293|FALSE|TRUE|FALSE|TRUE
5739602|The Ritz-Carlton New York, NoMad|Newark, NJ| 916|40.74554| -73.98884|FALSE|FALSE|TRUE|TRUE
5739602|TRYP by Wyndham Newark Downtown|Newark, NJ| 121|40.73831| -74.16799|FALSE|TRUE|FALSE|TRUE
5739602|Quality Suites NYC Gateway|Newark, NJ| 109|40.76404| -74.04786|TRUE|FALSE|FALSE|TRUE
5739602|Rodeway Inn Meadowlands|Newark, NJ|  94|40.79292| -74.05712|TRUE|FALSE|FALSE|TRUE
5739602|Equinox Hotel New York|Newark, NJ| 784|40.75465| -74.00221|FALSE|FALSE|TRUE|TRUE
5739602|Extended Stay America Suites Elizabeth Newark Airport|Newark, NJ| 106|40.66395| -74.17663|TRUE|FALSE|FALSE|TRUE
5739602|The Knickerbocker Hotel|Newark, NJ| 428|40.73566| -74.17237|FALSE|TRUE|FALSE|TRUE
5739602|The Langham, New York, Fifth Avenue|Newark, NJ| 748|40.75014| -73.98353|FALSE|FALSE|TRUE|TRUE
5739602|The Dominick|Newark, NJ| 623|40.72547| -74.00533|FALSE|FALSE|TRUE|TRUE
5739602|Red Carpet Inn Newark Irvington, NJ|Newark, NJ|  85|40.72317| -74.23132|TRUE|FALSE|FALSE|TRUE
5739602|Conrad New York Downtown|Newark, NJ| 539|40.71504| -74.01584|FALSE|FALSE|TRUE|TRUE
5739602|Hotel Barriere Fouquets New York|Newark, NJ|1068|40.72362| -74.00975|FALSE|FALSE|TRUE|TRUE
5739602|Comfort Suites Newark - Harrison|Newark, NJ| 152|40.75496| -74.16660|FALSE|TRUE|FALSE|TRUE
5739602|Canal Loft Hotel|Newark, NJ| 107|40.71530| -73.99388|TRUE|FALSE|FALSE|TRUE
5739602|Hudson River Hotel|Newark, NJ| 106|40.75537| -73.99735|TRUE|FALSE|FALSE|TRUE
5739602|Casa Cipriani New York|Newark, NJ|1840|40.70110| -74.01188|FALSE|FALSE|TRUE|TRUE
5739602|Element Harrison - Newark, a Marriott Hotel|Newark, NJ| 185|40.74045| -74.15638|FALSE|TRUE|FALSE|TRUE
5739602|Days Inn by Wyndham Jersey City / NYC Area|Newark, NJ| 104|40.75580| -74.05475|TRUE|FALSE|FALSE|TRUE
5739602|Pendry Manhattan West|Newark, NJ| 682|40.75339| -73.99859|FALSE|FALSE|TRUE|TRUE
5739602|Howard Johnson by Wyndham North Bergen|Newark, NJ| 105|40.76433| -74.04720|TRUE|FALSE|FALSE|TRUE
5739602|DoubleTree by Hilton Newark Penn Station|Newark, NJ| 170|40.73542| -74.16537|FALSE|TRUE|FALSE|TRUE
5739602|Four Seasons Hotel New York Downtown|Newark, NJ| 973|40.71263| -74.00919|FALSE|FALSE|TRUE|TRUE
5739602|DoubleTree by Hilton Hotel Newark Airport|Newark, NJ| 200|40.71284| -74.16429|FALSE|TRUE|FALSE|TRUE
5739602|11 Howard|Newark, NJ| 467|40.73759| -74.18292|FALSE|TRUE|FALSE|TRUE
5739602|Super 8 by Wyndham Meadowlands|Newark, NJ| 105|40.81955| -74.06378|TRUE|FALSE|FALSE|TRUE
5739602|St Marks Hotel|Newark, NJ| 100|40.72928| -73.98965|TRUE|FALSE|FALSE|TRUE
5739602|Fairfield Inn & Suites Newark Liberty International Airport|Newark, NJ| 144|40.70958| -74.17089|FALSE|TRUE|FALSE|TRUE
5739602|Holiday Inn Newark International Airport, an IHG Hotel|Newark, NJ| 126|40.71291| -74.16644|FALSE|TRUE|FALSE|TRUE
5739602|The Ned NoMad|Newark, NJ| 619|40.74496| -73.98847|FALSE|FALSE|TRUE|TRUE
5739603|Quality Suites NYC Gateway|Newark, NJ| 109|40.76404| -74.04786|TRUE|FALSE|FALSE|TRUE
5739603|The Dominick|Newark, NJ| 623|40.72547| -74.00533|FALSE|FALSE|TRUE|TRUE
5739603|Pendry Manhattan West|Newark, NJ| 682|40.75339| -73.99859|FALSE|FALSE|TRUE|TRUE
5739603|The Ned NoMad|Newark, NJ| 619|40.74496| -73.98847|FALSE|FALSE|TRUE|TRUE
5739603|Equinox Hotel New York|Newark, NJ| 784|40.75465| -74.00221|FALSE|FALSE|TRUE|TRUE
5739603|Element Harrison - Newark, a Marriott Hotel|Newark, NJ| 185|40.74045| -74.15638|FALSE|TRUE|FALSE|TRUE
5739603|Red Carpet Inn Newark Irvington, NJ|Newark, NJ|  85|40.72317| -74.23132|TRUE|FALSE|FALSE|TRUE
5739603|DoubleTree by Hilton Newark Penn Station|Newark, NJ| 170|40.73542| -74.16537|FALSE|TRUE|FALSE|TRUE
5739603|Comfort Suites Newark - Harrison|Newark, NJ| 156|40.75496| -74.16660|FALSE|TRUE|FALSE|TRUE
5739603|Hotel Barriere Fouquets New York|Newark, NJ|1068|40.72362| -74.00975|FALSE|FALSE|TRUE|TRUE
5739603|Hudson River Hotel|Newark, NJ| 106|40.75537| -73.99735|TRUE|FALSE|FALSE|TRUE
5739603|Conrad New York Downtown|Newark, NJ| 539|40.71504| -74.01584|FALSE|FALSE|TRUE|TRUE
5739603|11 Howard|Newark, NJ| 467|40.73759| -74.18292|FALSE|TRUE|FALSE|TRUE
5739603|Howard Johnson by Wyndham North Bergen|Newark, NJ| 105|40.76433| -74.04720|TRUE|FALSE|FALSE|TRUE
5739603|The Langham, New York, Fifth Avenue|Newark, NJ| 758|40.75014| -73.98353|FALSE|FALSE|TRUE|TRUE
5739603|TRYP by Wyndham Newark Downtown|Newark, NJ| 121|40.73831| -74.16799|FALSE|TRUE|FALSE|TRUE
5739603|Rodeway Inn Meadowlands|Newark, NJ|  94|40.79292| -74.05712|TRUE|FALSE|FALSE|TRUE
5739603|Canal Loft Hotel|Newark, NJ| 107|40.71530| -73.99388|TRUE|FALSE|FALSE|TRUE
5739603|Courtyard by Marriott Newark Downtown|Newark, NJ| 175|40.73352| -74.17293|FALSE|TRUE|FALSE|TRUE
5739603|Extended Stay America Suites Elizabeth Newark Airport|Newark, NJ| 106|40.66395| -74.17663|TRUE|FALSE|FALSE|TRUE
5739603|Four Seasons Hotel New York Downtown|Newark, NJ| 973|40.71263| -74.00919|FALSE|FALSE|TRUE|TRUE
5739603|Casa Cipriani New York|Newark, NJ|1840|40.70110| -74.01188|FALSE|FALSE|TRUE|TRUE
5739603|Super 8 by Wyndham Meadowlands|Newark, NJ| 105|40.81955| -74.06378|TRUE|FALSE|FALSE|TRUE
5739603|Days Inn by Wyndham Jersey City / NYC Area|Newark, NJ| 104|40.75580| -74.05475|TRUE|FALSE|FALSE|TRUE
5739603|Fairfield Inn & Suites Newark Liberty International Airport|Newark, NJ| 144|40.70958| -74.17089|FALSE|TRUE|FALSE|TRUE
5739603|The Knickerbocker Hotel|Newark, NJ| 428|40.73566| -74.17237|FALSE|TRUE|FALSE|TRUE
5739603|Holiday Inn Newark International Airport, an IHG Hotel|Newark, NJ| 126|40.71291| -74.16644|FALSE|TRUE|FALSE|TRUE
5739603|DoubleTree by Hilton Hotel Newark Airport|Newark, NJ| 200|40.71284| -74.16429|FALSE|TRUE|FALSE|TRUE
5739603|The Ritz-Carlton New York, NoMad|Newark, NJ| 916|40.74554| -73.98884|FALSE|FALSE|TRUE|TRUE
5739603|St Marks Hotel|Newark, NJ| 100|40.72928| -73.98965|TRUE|FALSE|FALSE|TRUE
5739605|Comfort Suites Newark - Harrison|Newark, NJ| 152|40.75496| -74.16660|FALSE|TRUE|FALSE|TRUE
5739605|TRYP by Wyndham Newark Downtown|Newark, NJ| 121|40.73831| -74.16799|FALSE|TRUE|FALSE|TRUE
5739605|Conrad New York Downtown|Newark, NJ| 539|40.71504| -74.01584|FALSE|FALSE|TRUE|TRUE
5739605|Howard Johnson by Wyndham North Bergen|Newark, NJ| 105|40.76433| -74.04720|TRUE|FALSE|FALSE|TRUE
5739605|Canal Loft Hotel|Newark, NJ| 107|40.71530| -73.99388|TRUE|FALSE|FALSE|TRUE
5739605|Casa Cipriani New York|Newark, NJ|1840|40.70110| -74.01188|FALSE|FALSE|TRUE|TRUE
5739605|St Marks Hotel|Newark, NJ| 100|40.72928| -73.98965|TRUE|FALSE|FALSE|TRUE
5739605|DoubleTree by Hilton Hotel Newark Airport|Newark, NJ| 200|40.71284| -74.16429|FALSE|TRUE|FALSE|TRUE
5739605|Fairfield Inn & Suites Newark Liberty International Airport|Newark, NJ| 144|40.70958| -74.17089|FALSE|TRUE|FALSE|TRUE
5739605|DoubleTree by Hilton Newark Penn Station|Newark, NJ| 170|40.73542| -74.16537|FALSE|TRUE|FALSE|TRUE
5739605|Quality Suites NYC Gateway|Newark, NJ| 109|40.76404| -74.04786|TRUE|FALSE|FALSE|TRUE
5739605|Rodeway Inn Meadowlands|Newark, NJ|  94|40.79292| -74.05712|TRUE|FALSE|FALSE|TRUE
5739605|Days Inn by Wyndham Jersey City / NYC Area|Newark, NJ| 104|40.75580| -74.05475|TRUE|FALSE|FALSE|TRUE
5739605|The Ritz-Carlton New York, NoMad|Newark, NJ| 916|40.74554| -73.98884|FALSE|FALSE|TRUE|TRUE
5739605|Super 8 by Wyndham Meadowlands|Newark, NJ| 105|40.81955| -74.06378|TRUE|FALSE|FALSE|TRUE
5739605|Red Carpet Inn Newark Irvington, NJ|Newark, NJ|  85|40.72317| -74.23132|TRUE|FALSE|FALSE|TRUE
5739605|11 Howard|Newark, NJ| 467|40.73759| -74.18292|FALSE|TRUE|FALSE|TRUE
5739605|Pendry Manhattan West|Newark, NJ| 682|40.75339| -73.99859|FALSE|FALSE|TRUE|TRUE
5739605|Extended Stay America Suites Elizabeth Newark Airport|Newark, NJ| 106|40.66395| -74.17663|TRUE|FALSE|FALSE|TRUE
5739605|The Knickerbocker Hotel|Newark, NJ| 428|40.73566| -74.17237|FALSE|TRUE|FALSE|TRUE
5739605|Hudson River Hotel|Newark, NJ| 106|40.75537| -73.99735|TRUE|FALSE|FALSE|TRUE
5739605|Equinox Hotel New York|Newark, NJ| 784|40.75465| -74.00221|FALSE|FALSE|TRUE|TRUE
5739605|The Ned NoMad|Newark, NJ| 619|40.74496| -73.98847|FALSE|FALSE|TRUE|TRUE
5739605|The Langham, New York, Fifth Avenue|Newark, NJ| 748|40.75014| -73.98353|FALSE|FALSE|TRUE|TRUE
5739605|Element Harrison - Newark, a Marriott Hotel|Newark, NJ| 185|40.74045| -74.15638|FALSE|TRUE|FALSE|TRUE
5739605|Courtyard by Marriott Newark Downtown|Newark, NJ| 175|40.73352| -74.17293|FALSE|TRUE|FALSE|TRUE
5739605|Four Seasons Hotel New York Downtown|Newark, NJ| 973|40.71263| -74.00919|FALSE|FALSE|TRUE|TRUE
5739605|Hotel Barriere Fouquets New York|Newark, NJ|1068|40.72362| -74.00975|FALSE|FALSE|TRUE|TRUE
5739605|Holiday Inn Newark International Airport, an IHG Hotel|Newark, NJ| 126|40.71291| -74.16644|FALSE|TRUE|FALSE|TRUE
5739605|The Dominick|Newark, NJ| 623|40.72547| -74.00533|FALSE|FALSE|TRUE|TRUE
5739607||Newark, NJ| 107|40.73566| -74.17237|TRUE|TRUE|FALSE|TRUE
5739607||Newark, NJ| 100|40.73566| -74.17237|TRUE|TRUE|FALSE|TRUE
5739607||Newark, NJ| 145|40.73566| -74.17237|FALSE|TRUE|FALSE|TRUE
5739607||Newark, NJ|  94|40.73566| -74.17237|TRUE|TRUE|FALSE|TRUE
5739607||Newark, NJ| 123|40.73566| -74.17237|FALSE|TRUE|FALSE|TRUE
5739607||Newark, NJ| 104|40.73566| -74.17237|TRUE|TRUE|FALSE|TRUE
5739607||Newark, NJ| 115|40.73566| -74.17237|FALSE|TRUE|FALSE|TRUE
5739607||Newark, NJ| 109|40.73566| -74.17237|TRUE|TRUE|FALSE|TRUE
5739607||Newark, NJ| 110|40.73566| -74.17237|TRUE|TRUE|FALSE|TRUE
5739607||Newark, NJ| 160|40.73566| -74.17237|FALSE|TRUE|FALSE|TRUE
5739607||Newark, NJ| 105|40.73566| -74.17237|TRUE|TRUE|FALSE|TRUE
5739607||Newark, NJ| 106|40.73566| -74.17237|TRUE|TRUE|FALSE|TRUE
5739607||Newark, NJ|  85|40.73566| -74.17237|TRUE|TRUE|FALSE|TRUE
5739607||Newark, NJ| 122|40.73566| -74.17237|FALSE|TRUE|FALSE|TRUE
5739607||Newark, NJ| 129|40.73566| -74.17237|FALSE|TRUE|FALSE|TRUE
5739607|The New York EDITION|Newark, NJ| 860|40.74129| -73.98736|FALSE|FALSE|TRUE|TRUE
5739607|The Ned NoMad|Newark, NJ| 619|40.74496| -73.98847|FALSE|FALSE|TRUE|TRUE
5739607|Conrad New York Downtown|Newark, NJ| 539|40.71504| -74.01584|FALSE|FALSE|TRUE|TRUE
5739607|Four Seasons Hotel New York Downtown|Newark, NJ| 973|40.71263| -74.00919|FALSE|FALSE|TRUE|TRUE
5739607|Equinox Hotel New York|Newark, NJ| 784|40.75465| -74.00221|FALSE|FALSE|TRUE|TRUE
5739607|Ramada by Wyndham East Orange|Newark, NJ| 110|40.76190| -74.22183|TRUE|FALSE|FALSE|TRUE
5739607|Pendry Manhattan West|Newark, NJ| 682|40.75339| -73.99859|FALSE|FALSE|TRUE|TRUE
5739607|Casa Cipriani New York|Newark, NJ|1840|40.70110| -74.01188|FALSE|FALSE|TRUE|TRUE
5739607|Hotel Barriere Fouquets New York|Newark, NJ|1068|40.72362| -74.00975|FALSE|FALSE|TRUE|TRUE
5739607|Courtyard by Marriott Newark Downtown|Newark, NJ| 175|40.73352| -74.17293|FALSE|TRUE|FALSE|TRUE
5739607|The Ritz-Carlton New York, NoMad|Newark, NJ| 916|40.74554| -73.98884|FALSE|FALSE|TRUE|TRUE
5739607|Red Carpet Inn Newark Irvington, NJ|Newark, NJ|  85|40.72317| -74.23132|TRUE|FALSE|FALSE|TRUE
5739607|The Knickerbocker Hotel|Newark, NJ| 428|40.73566| -74.17237|FALSE|TRUE|FALSE|TRUE
5739607|The Langham, New York, Fifth Avenue|Newark, NJ| 748|40.75014| -73.98353|FALSE|FALSE|TRUE|TRUE
5739609|Red Carpet Inn Newark Irvington, NJ|Newark, NJ|  85|40.72317| -74.23132|TRUE|FALSE|FALSE|TRUE
5739609|Hudson River Hotel|Newark, NJ| 106|40.75537| -73.99735|TRUE|FALSE|FALSE|TRUE
5739609|Comfort Suites Newark - Harrison|Newark, NJ| 152|40.75496| -74.16660|FALSE|TRUE|FALSE|TRUE
5739609|Hotel Barriere Fouquets New York|Newark, NJ|1068|40.72362| -74.00975|FALSE|FALSE|TRUE|TRUE
5739609|TRYP by Wyndham Newark Downtown|Newark, NJ| 121|40.73831| -74.16799|FALSE|TRUE|FALSE|TRUE
5739609|Element Harrison - Newark, a Marriott Hotel|Newark, NJ| 185|40.74045| -74.15638|FALSE|TRUE|FALSE|TRUE
5739609|Rodeway Inn Meadowlands|Newark, NJ|  94|40.79292| -74.05712|TRUE|FALSE|FALSE|TRUE
5739609|Canal Loft Hotel|Newark, NJ| 107|40.71530| -73.99388|TRUE|FALSE|FALSE|TRUE
5739609|Quality Suites NYC Gateway|Newark, NJ| 109|40.76404| -74.04786|TRUE|FALSE|FALSE|TRUE
5739609|DoubleTree by Hilton Newark Penn Station|Newark, NJ| 170|40.73542| -74.16537|FALSE|TRUE|FALSE|TRUE
5739609|Extended Stay America Suites Elizabeth Newark Airport|Newark, NJ| 106|40.66395| -74.17663|TRUE|FALSE|FALSE|TRUE
5739609|Courtyard by Marriott Newark Downtown|Newark, NJ| 175|40.73352| -74.17293|FALSE|TRUE|FALSE|TRUE
5739609|The Knickerbocker Hotel|Newark, NJ| 428|40.73566| -74.17237|FALSE|TRUE|FALSE|TRUE
5739609|The Dominick|Newark, NJ| 623|40.72547| -74.00533|FALSE|FALSE|TRUE|TRUE
5739609|Conrad New York Downtown|Newark, NJ| 539|40.71504| -74.01584|FALSE|FALSE|TRUE|TRUE
5739609|Pendry Manhattan West|Newark, NJ| 682|40.75339| -73.99859|FALSE|FALSE|TRUE|TRUE
5739609|The Ritz-Carlton New York, NoMad|Newark, NJ| 916|40.74554| -73.98884|FALSE|FALSE|TRUE|TRUE
5739609|DoubleTree by Hilton Hotel Newark Airport|Newark, NJ| 200|40.71284| -74.16429|FALSE|TRUE|FALSE|TRUE
5739609|The Ned NoMad|Newark, NJ| 619|40.74496| -73.98847|FALSE|FALSE|TRUE|TRUE
5739609|Howard Johnson by Wyndham North Bergen|Newark, NJ| 105|40.76433| -74.04720|TRUE|FALSE|FALSE|TRUE
5739609|Equinox Hotel New York|Newark, NJ| 784|40.75465| -74.00221|FALSE|FALSE|TRUE|TRUE
5739609|Days Inn by Wyndham Jersey City / NYC Area|Newark, NJ| 104|40.75580| -74.05475|TRUE|FALSE|FALSE|TRUE
5739609|The Langham, New York, Fifth Avenue|Newark, NJ| 748|40.75014| -73.98353|FALSE|FALSE|TRUE|TRUE
5739609|Casa Cipriani New York|Newark, NJ|1840|40.70110| -74.01188|FALSE|FALSE|TRUE|TRUE
5739609|Four Seasons Hotel New York Downtown|Newark, NJ| 973|40.71263| -74.00919|FALSE|FALSE|TRUE|TRUE
5739609|11 Howard|Newark, NJ| 467|40.73759| -74.18292|FALSE|TRUE|FALSE|TRUE
5739609|Holiday Inn Newark International Airport, an IHG Hotel|Newark, NJ| 126|40.71291| -74.16644|FALSE|TRUE|FALSE|TRUE
5739609|Super 8 by Wyndham Meadowlands|Newark, NJ| 105|40.81955| -74.06378|TRUE|FALSE|FALSE|TRUE
5739609|Fairfield Inn & Suites Newark Liberty International Airport|Newark, NJ| 144|40.70958| -74.17089|FALSE|TRUE|FALSE|TRUE
5739609|St Marks Hotel|Newark, NJ| 100|40.72928| -73.98965|TRUE|FALSE|FALSE|TRUE
5739611|Element Harrison - Newark, a Marriott Hotel|Newark, NJ| 185|40.74045| -74.15638|FALSE|TRUE|FALSE|TRUE
5739611|Equinox Hotel New York|Newark, NJ| 784|40.75465| -74.00221|FALSE|FALSE|TRUE|TRUE
5739611|Red Carpet Inn Newark Irvington, NJ|Newark, NJ|  85|40.72317| -74.23132|TRUE|FALSE|FALSE|TRUE
5739611|The Dominick|Newark, NJ| 623|40.72547| -74.00533|FALSE|FALSE|TRUE|TRUE
5739611|The Knickerbocker Hotel|Newark, NJ| 428|40.73566| -74.17237|FALSE|TRUE|FALSE|TRUE
5739611|DoubleTree by Hilton Newark Penn Station|Newark, NJ| 170|40.73542| -74.16537|FALSE|TRUE|FALSE|TRUE
5739611|Days Inn by Wyndham Jersey City / NYC Area|Newark, NJ| 104|40.75580| -74.05475|TRUE|FALSE|FALSE|TRUE
5739611|Hotel Barriere Fouquets New York|Newark, NJ|1068|40.72362| -74.00975|FALSE|FALSE|TRUE|TRUE
5739611|Rodeway Inn Meadowlands|Newark, NJ|  94|40.79292| -74.05712|TRUE|FALSE|FALSE|TRUE
5739611|The Ritz-Carlton New York, NoMad|Newark, NJ| 916|40.74554| -73.98884|FALSE|FALSE|TRUE|TRUE
5739611|Comfort Suites Newark - Harrison|Newark, NJ| 156|40.75496| -74.16660|FALSE|TRUE|FALSE|TRUE
5739611|Courtyard by Marriott Newark Downtown|Newark, NJ| 175|40.73352| -74.17293|FALSE|TRUE|FALSE|TRUE
5739611|The Langham, New York, Fifth Avenue|Newark, NJ| 758|40.75014| -73.98353|FALSE|FALSE|TRUE|TRUE
5739611|Hudson River Hotel|Newark, NJ| 106|40.75537| -73.99735|TRUE|FALSE|FALSE|TRUE
5739611|TRYP by Wyndham Newark Downtown|Newark, NJ| 121|40.73831| -74.16799|FALSE|TRUE|FALSE|TRUE
5739611|Extended Stay America Suites Elizabeth Newark Airport|Newark, NJ| 106|40.66395| -74.17663|TRUE|FALSE|FALSE|TRUE
5739611|Conrad New York Downtown|Newark, NJ| 539|40.71504| -74.01584|FALSE|FALSE|TRUE|TRUE
5739611|Four Seasons Hotel New York Downtown|Newark, NJ| 973|40.71263| -74.00919|FALSE|FALSE|TRUE|TRUE
5739611|Holiday Inn Newark International Airport, an IHG Hotel|Newark, NJ| 126|40.71291| -74.16644|FALSE|TRUE|FALSE|TRUE
5739611|Quality Suites NYC Gateway|Newark, NJ| 109|40.76404| -74.04786|TRUE|FALSE|FALSE|TRUE
5739611|11 Howard|Newark, NJ| 467|40.73759| -74.18292|FALSE|TRUE|FALSE|TRUE
5739611|St Marks Hotel|Newark, NJ| 100|40.72928| -73.98965|TRUE|FALSE|FALSE|TRUE
5739611|Howard Johnson by Wyndham North Bergen|Newark, NJ| 105|40.76433| -74.04720|TRUE|FALSE|FALSE|TRUE
5739611|Casa Cipriani New York|Newark, NJ|1840|40.70110| -74.01188|FALSE|FALSE|TRUE|TRUE
5739611|Canal Loft Hotel|Newark, NJ| 107|40.71530| -73.99388|TRUE|FALSE|FALSE|TRUE
5739611|Super 8 by Wyndham Meadowlands|Newark, NJ| 105|40.81955| -74.06378|TRUE|FALSE|FALSE|TRUE
5739611|DoubleTree by Hilton Hotel Newark Airport|Newark, NJ| 200|40.71284| -74.16429|FALSE|TRUE|FALSE|TRUE
5739611|Pendry Manhattan West|Newark, NJ| 682|40.75339| -73.99859|FALSE|FALSE|TRUE|TRUE
5739611|The Ned NoMad|Newark, NJ| 619|40.74496| -73.98847|FALSE|FALSE|TRUE|TRUE
5739611|Fairfield Inn & Suites Newark Liberty International Airport|Newark, NJ| 144|40.70958| -74.17089|FALSE|TRUE|FALSE|TRUE
5739809|The Langham, Boston|Boston, MA| 519|42.35648| -71.05450|FALSE|FALSE|TRUE|TRUE
5739809|Four Seasons Hotel One Dalton Street, Boston|Boston, MA| 757|42.34571| -71.08394|FALSE|FALSE|TRUE|TRUE
5739809|Extended Stay America Suites - Boston - Saugus|Boston, MA|  90|42.46514| -71.01105|TRUE|FALSE|FALSE|TRUE
5739809|Four Points by Sheraton Boston Logan Airport Revere|Boston, MA|  97|42.42940| -71.01504|TRUE|FALSE|FALSE|TRUE
5739809|Best Western Plus New Englander|Boston, MA| 110|42.48082| -71.11883|TRUE|FALSE|FALSE|TRUE
5739809|DoubleTree by Hilton Hotel Boston Bayside|Boston, MA| 115|42.32028| -71.04789|TRUE|FALSE|FALSE|TRUE
5739809|Courtyard by Marriott Boston Downtown/North Station|Boston, MA| 187|42.36587| -71.05964|FALSE|TRUE|FALSE|TRUE
5739809|Club Quarters Hotel Faneuil Hall, Boston|Boston, MA| 182|42.35621| -71.05753|FALSE|TRUE|FALSE|TRUE
5739809|Comfort Inn Woburn - Boston|Boston, MA|  99|42.47895| -71.11530|TRUE|FALSE|FALSE|TRUE
5739809|Kimpton Marlowe Hotel, an IHG Hotel|Boston, MA| 387|42.36787| -71.07494|FALSE|TRUE|FALSE|TRUE
5739809|Boston Harbor Hotel|Boston, MA| 654|42.35666| -71.05032|FALSE|FALSE|TRUE|TRUE
5739809|Red Roof Inn PLUS+ Boston - Logan|Boston, MA|  90|42.36561| -71.00956|TRUE|FALSE|FALSE|TRUE
5739809|Holiday Inn Express Saugus (Logan Airport), an IHG Hotel|Boston, MA| 119|42.47113| -71.02571|TRUE|FALSE|FALSE|TRUE
5739809|citizenM Boston North Station|Boston, MA| 174|42.36556| -71.06185|FALSE|TRUE|FALSE|TRUE
5739809|Ramada by Wyndham Boston|Boston, MA| 118|42.29494| -71.04685|TRUE|FALSE|FALSE|TRUE
5739809|The Farrington Inn|Boston, MA|  80|42.35426| -71.13089|TRUE|FALSE|FALSE|TRUE
5739809|Harborside Inn Of Boston|Boston, MA| 185|42.35927| -71.05283|FALSE|TRUE|FALSE|TRUE
5739809|The Ritz-Carlton, Boston|Boston, MA| 751|42.35317| -71.06369|FALSE|FALSE|TRUE|TRUE
5739809|The Boxer|Boston, MA| 200|42.36388| -71.06252|FALSE|TRUE|FALSE|TRUE
5739809|The Newbury Boston|Boston, MA| 639|42.35293| -71.07149|FALSE|FALSE|TRUE|TRUE
5739809|XV Beacon|Boston, MA| 576|42.35832| -71.06193|FALSE|TRUE|TRUE|TRUE
5739809|The Charles Hotel|Boston, MA| 416|42.37229| -71.12298|FALSE|FALSE|TRUE|TRUE
5739809|Boston Marriott Cambridge|Boston, MA| 521|42.36327| -71.08593|FALSE|FALSE|TRUE|TRUE
5739809|Mandarin Oriental Boston|Boston, MA| 751|42.34869| -71.08160|FALSE|FALSE|TRUE|TRUE
5739809|Beacon Hill Hotel|Boston, MA| 631|42.35682| -71.06963|FALSE|TRUE|TRUE|TRUE
5739809|The Bostonian Boston|Boston, MA| 188|42.36106| -71.05591|FALSE|TRUE|FALSE|TRUE
5739809|Howard Johnson by Wyndham Quincy/Boston|Boston, MA| 113|42.26248| -71.01213|TRUE|FALSE|FALSE|TRUE
5739809|Wyndham Boston Beacon Hill|Boston, MA| 197|42.36172| -71.06670|FALSE|TRUE|FALSE|TRUE
5739817|The Langham, Boston|Boston, MA| 519|42.35648| -71.05450|FALSE|FALSE|TRUE|TRUE
5739817|Holiday Inn Express Saugus (Logan Airport), an IHG Hotel|Boston, MA| 119|42.47113| -71.02571|TRUE|FALSE|FALSE|TRUE
5739817|Mandarin Oriental Boston|Boston, MA| 751|42.34869| -71.08160|FALSE|FALSE|TRUE|TRUE
5739817|Club Quarters Hotel Faneuil Hall, Boston|Boston, MA| 182|42.35621| -71.05753|FALSE|TRUE|FALSE|TRUE
5739817|Four Seasons Hotel One Dalton Street, Boston|Boston, MA| 757|42.34571| -71.08394|FALSE|FALSE|TRUE|TRUE
5739817|citizenM Boston North Station|Boston, MA| 174|42.36556| -71.06185|FALSE|TRUE|FALSE|TRUE
5739817|XV Beacon|Boston, MA| 576|42.35832| -71.06193|FALSE|TRUE|TRUE|TRUE
5739817|The Ritz-Carlton, Boston|Boston, MA| 751|42.35317| -71.06369|FALSE|FALSE|TRUE|TRUE
5739817|The Newbury Boston|Boston, MA| 639|42.35293| -71.07149|FALSE|FALSE|TRUE|TRUE
5739817|Best Western Plus New Englander|Boston, MA| 110|42.48082| -71.11883|TRUE|FALSE|FALSE|TRUE
5739817|Comfort Inn Woburn - Boston|Boston, MA|  99|42.47895| -71.11530|TRUE|FALSE|FALSE|TRUE
5739817|Kimpton Marlowe Hotel, an IHG Hotel|Boston, MA| 387|42.36787| -71.07494|FALSE|TRUE|FALSE|TRUE
5739817|Extended Stay America Suites - Boston - Saugus|Boston, MA|  90|42.46514| -71.01105|TRUE|FALSE|FALSE|TRUE
5739817|Four Points by Sheraton Boston Logan Airport Revere|Boston, MA|  97|42.42940| -71.01504|TRUE|FALSE|FALSE|TRUE
5739817|Boston Harbor Hotel|Boston, MA| 654|42.35666| -71.05032|FALSE|FALSE|TRUE|TRUE
5739817|The Charles Hotel|Boston, MA| 416|42.37229| -71.12298|FALSE|FALSE|TRUE|TRUE
5739817|Beacon Hill Hotel|Boston, MA| 631|42.35682| -71.06963|FALSE|TRUE|TRUE|TRUE
5739817|DoubleTree by Hilton Hotel Boston Bayside|Boston, MA| 115|42.32028| -71.04789|TRUE|FALSE|FALSE|TRUE
5739817|Courtyard by Marriott Boston Downtown/North Station|Boston, MA| 187|42.36587| -71.05964|FALSE|TRUE|FALSE|TRUE
5739817|Howard Johnson by Wyndham Quincy/Boston|Boston, MA| 113|42.26248| -71.01213|TRUE|FALSE|FALSE|TRUE
5739817|The Bostonian Boston|Boston, MA| 188|42.36106| -71.05591|FALSE|TRUE|FALSE|TRUE
5739817|Ramada by Wyndham Boston|Boston, MA| 118|42.29494| -71.04685|TRUE|FALSE|FALSE|TRUE
5739817|Boston Marriott Cambridge|Boston, MA| 521|42.36327| -71.08593|FALSE|FALSE|TRUE|TRUE
5739817|The Farrington Inn|Boston, MA|  80|42.35426| -71.13089|TRUE|FALSE|FALSE|TRUE
5739817|The Boxer|Boston, MA| 200|42.36388| -71.06252|FALSE|TRUE|FALSE|TRUE
5739817|Red Roof Inn PLUS+ Boston - Logan|Boston, MA|  90|42.36561| -71.00956|TRUE|FALSE|FALSE|TRUE
5739817|Wyndham Boston Beacon Hill|Boston, MA| 197|42.36172| -71.06670|FALSE|TRUE|FALSE|TRUE
5739817|Harborside Inn Of Boston|Boston, MA| 185|42.35927| -71.05283|FALSE|TRUE|FALSE|TRUE
5739836|citizenM Boston North Station|Boston, MA| 174|42.36556| -71.06185|FALSE|TRUE|FALSE|TRUE
5739836|Four Seasons Hotel One Dalton Street, Boston|Boston, MA| 757|42.34571| -71.08394|FALSE|FALSE|TRUE|TRUE
5739836|The Langham, Boston|Boston, MA| 519|42.35648| -71.05450|FALSE|FALSE|TRUE|TRUE
5739836|Four Points by Sheraton Boston Logan Airport Revere|Boston, MA|  97|42.42940| -71.01504|TRUE|FALSE|FALSE|TRUE
5739836|Boston Harbor Hotel|Boston, MA| 654|42.35666| -71.05032|FALSE|FALSE|TRUE|TRUE
5739836|Holiday Inn Express Saugus (Logan Airport), an IHG Hotel|Boston, MA| 119|42.47113| -71.02571|TRUE|FALSE|FALSE|TRUE
5739836|DoubleTree by Hilton Hotel Boston Bayside|Boston, MA| 115|42.32028| -71.04789|TRUE|FALSE|FALSE|TRUE
5739836|Ramada by Wyndham Boston|Boston, MA| 118|42.29494| -71.04685|TRUE|FALSE|FALSE|TRUE
5739836|Wyndham Boston Beacon Hill|Boston, MA| 197|42.36172| -71.06670|FALSE|TRUE|FALSE|TRUE
5739836|The Boxer|Boston, MA| 200|42.36388| -71.06252|FALSE|TRUE|FALSE|TRUE
5739836|The Ritz-Carlton, Boston|Boston, MA| 751|42.35317| -71.06369|FALSE|FALSE|TRUE|TRUE
5739836|Howard Johnson by Wyndham Quincy/Boston|Boston, MA| 113|42.26248| -71.01213|TRUE|FALSE|FALSE|TRUE
5739836|XV Beacon|Boston, MA| 576|42.35832| -71.06193|FALSE|TRUE|TRUE|TRUE
5739836|Kimpton Marlowe Hotel, an IHG Hotel|Boston, MA| 387|42.36787| -71.07494|FALSE|TRUE|FALSE|TRUE
5739836|The Newbury Boston|Boston, MA| 639|42.35293| -71.07149|FALSE|FALSE|TRUE|TRUE
5739836|Comfort Inn Woburn - Boston|Boston, MA|  99|42.47895| -71.11530|TRUE|FALSE|FALSE|TRUE
5739836|Beacon Hill Hotel|Boston, MA| 631|42.35682| -71.06963|FALSE|TRUE|TRUE|TRUE
5739836|Extended Stay America Suites - Boston - Saugus|Boston, MA|  90|42.46514| -71.01105|TRUE|FALSE|FALSE|TRUE
5739836|Best Western Plus New Englander|Boston, MA| 110|42.48082| -71.11883|TRUE|FALSE|FALSE|TRUE
5739836|Club Quarters Hotel Faneuil Hall, Boston|Boston, MA| 182|42.35621| -71.05753|FALSE|TRUE|FALSE|TRUE
5739836|Courtyard by Marriott Boston Downtown/North Station|Boston, MA| 187|42.36587| -71.05964|FALSE|TRUE|FALSE|TRUE
5739836|The Charles Hotel|Boston, MA| 416|42.37229| -71.12298|FALSE|FALSE|TRUE|TRUE
5739836|The Bostonian Boston|Boston, MA| 188|42.36106| -71.05591|FALSE|TRUE|FALSE|TRUE
5739836|Red Roof Inn PLUS+ Boston - Logan|Boston, MA|  90|42.36561| -71.00956|TRUE|FALSE|FALSE|TRUE
5739836|Mandarin Oriental Boston|Boston, MA| 751|42.34869| -71.08160|FALSE|FALSE|TRUE|TRUE
5739836|Boston Marriott Cambridge|Boston, MA| 521|42.36327| -71.08593|FALSE|FALSE|TRUE|TRUE
5739836|Harborside Inn Of Boston|Boston, MA| 185|42.35927| -71.05283|FALSE|TRUE|FALSE|TRUE
5739836|The Farrington Inn|Boston, MA|  80|42.35426| -71.13089|TRUE|FALSE|FALSE|TRUE
5739856|Boston Marriott Cambridge|Boston, MA| 521|42.36327| -71.08593|FALSE|FALSE|TRUE|TRUE
5739856|The Langham, Boston|Boston, MA| 519|42.35648| -71.05450|FALSE|FALSE|TRUE|TRUE
5739856|The Newbury Boston|Boston, MA| 639|42.35293| -71.07149|FALSE|FALSE|TRUE|TRUE
5739856|Ramada by Wyndham Boston|Boston, MA| 118|42.29494| -71.04685|TRUE|FALSE|FALSE|TRUE
5739856|citizenM Boston North Station|Boston, MA| 174|42.36556| -71.06185|FALSE|TRUE|FALSE|TRUE
5739856|Kimpton Marlowe Hotel, an IHG Hotel|Boston, MA| 387|42.36787| -71.07494|FALSE|TRUE|FALSE|TRUE
5739856|The Ritz-Carlton, Boston|Boston, MA| 751|42.35317| -71.06369|FALSE|FALSE|TRUE|TRUE
5739856|The Boxer|Boston, MA| 200|42.36388| -71.06252|FALSE|TRUE|FALSE|TRUE
5739856|Best Western Plus New Englander|Boston, MA| 110|42.48082| -71.11883|TRUE|FALSE|FALSE|TRUE
5739856|Harborside Inn Of Boston|Boston, MA| 185|42.35927| -71.05283|FALSE|TRUE|FALSE|TRUE
5739856|The Charles Hotel|Boston, MA| 416|42.37229| -71.12298|FALSE|FALSE|TRUE|TRUE
5739856|Four Points by Sheraton Boston Logan Airport Revere|Boston, MA|  97|42.42940| -71.01504|TRUE|FALSE|FALSE|TRUE
5739856|Four Seasons Hotel One Dalton Street, Boston|Boston, MA| 757|42.34571| -71.08394|FALSE|FALSE|TRUE|TRUE
5739856|Holiday Inn Express Saugus (Logan Airport), an IHG Hotel|Boston, MA| 119|42.47113| -71.02571|TRUE|FALSE|FALSE|TRUE
5739856|DoubleTree by Hilton Hotel Boston Bayside|Boston, MA| 115|42.32028| -71.04789|TRUE|FALSE|FALSE|TRUE
5739856|Red Roof Inn PLUS+ Boston - Logan|Boston, MA|  90|42.36561| -71.00956|TRUE|FALSE|FALSE|TRUE
5739856|Howard Johnson by Wyndham Quincy/Boston|Boston, MA| 113|42.26248| -71.01213|TRUE|FALSE|FALSE|TRUE
5739856|Club Quarters Hotel Faneuil Hall, Boston|Boston, MA| 182|42.35621| -71.05753|FALSE|TRUE|FALSE|TRUE
5739856|Extended Stay America Suites - Boston - Saugus|Boston, MA|  90|42.46514| -71.01105|TRUE|FALSE|FALSE|TRUE
5739856|The Farrington Inn|Boston, MA|  80|42.35426| -71.13089|TRUE|FALSE|FALSE|TRUE
5739856|Beacon Hill Hotel|Boston, MA| 631|42.35682| -71.06963|FALSE|TRUE|TRUE|TRUE
5739856|Wyndham Boston Beacon Hill|Boston, MA| 197|42.36172| -71.06670|FALSE|TRUE|FALSE|TRUE
5739856|The Bostonian Boston|Boston, MA| 188|42.36106| -71.05591|FALSE|TRUE|FALSE|TRUE
5739856|Comfort Inn Woburn - Boston|Boston, MA|  99|42.47895| -71.11530|TRUE|FALSE|FALSE|TRUE
5739856|XV Beacon|Boston, MA| 576|42.35832| -71.06193|FALSE|TRUE|TRUE|TRUE
5739856|Courtyard by Marriott Boston Downtown/North Station|Boston, MA| 187|42.36587| -71.05964|FALSE|TRUE|FALSE|TRUE
5739856|Mandarin Oriental Boston|Boston, MA| 751|42.34869| -71.08160|FALSE|FALSE|TRUE|TRUE
5739856|Boston Harbor Hotel|Boston, MA| 654|42.35666| -71.05032|FALSE|FALSE|TRUE|TRUE
5739865|Extended Stay America Suites - Boston - Saugus|Boston, MA|  90|42.46514| -71.01105|TRUE|FALSE|FALSE|TRUE
5739865|The Langham, Boston|Boston, MA| 519|42.35648| -71.05450|FALSE|FALSE|TRUE|TRUE
5739865|The Ritz-Carlton, Boston|Boston, MA| 751|42.35317| -71.06369|FALSE|FALSE|TRUE|TRUE
5739865|Kimpton Marlowe Hotel, an IHG Hotel|Boston, MA| 387|42.36787| -71.07494|FALSE|TRUE|FALSE|TRUE
5739865|DoubleTree by Hilton Hotel Boston Bayside|Boston, MA| 115|42.32028| -71.04789|TRUE|FALSE|FALSE|TRUE
5739865|Four Seasons Hotel One Dalton Street, Boston|Boston, MA| 757|42.34571| -71.08394|FALSE|FALSE|TRUE|TRUE
5739865|Boston Harbor Hotel|Boston, MA| 654|42.35666| -71.05032|FALSE|FALSE|TRUE|TRUE
5739865|Comfort Inn Woburn - Boston|Boston, MA|  99|42.47895| -71.11530|TRUE|FALSE|FALSE|TRUE
5739865|Holiday Inn Express Saugus (Logan Airport), an IHG Hotel|Boston, MA| 119|42.47113| -71.02571|TRUE|FALSE|FALSE|TRUE
5739865|Boston Marriott Cambridge|Boston, MA| 521|42.36327| -71.08593|FALSE|FALSE|TRUE|TRUE
5739865|Howard Johnson by Wyndham Quincy/Boston|Boston, MA| 113|42.26248| -71.01213|TRUE|FALSE|FALSE|TRUE
5739865|citizenM Boston North Station|Boston, MA| 174|42.36556| -71.06185|FALSE|TRUE|FALSE|TRUE
5739865|The Boxer|Boston, MA| 200|42.36388| -71.06252|FALSE|TRUE|FALSE|TRUE
5739865|Four Points by Sheraton Boston Logan Airport Revere|Boston, MA|  97|42.42940| -71.01504|TRUE|FALSE|FALSE|TRUE
5739865|XV Beacon|Boston, MA| 576|42.35832| -71.06193|FALSE|TRUE|TRUE|TRUE
5739865|Wyndham Boston Beacon Hill|Boston, MA| 197|42.36172| -71.06670|FALSE|TRUE|FALSE|TRUE
5739865|Ramada by Wyndham Boston|Boston, MA| 118|42.29494| -71.04685|TRUE|FALSE|FALSE|TRUE
5739865|The Bostonian Boston|Boston, MA| 188|42.36106| -71.05591|FALSE|TRUE|FALSE|TRUE
5739865|Harborside Inn Of Boston|Boston, MA| 185|42.35927| -71.05283|FALSE|TRUE|FALSE|TRUE
5739865|The Farrington Inn|Boston, MA|  80|42.35426| -71.13089|TRUE|FALSE|FALSE|TRUE
5739865|Red Roof Inn PLUS+ Boston - Logan|Boston, MA|  90|42.36561| -71.00956|TRUE|FALSE|FALSE|TRUE
5739865|Club Quarters Hotel Faneuil Hall, Boston|Boston, MA| 182|42.35621| -71.05753|FALSE|TRUE|FALSE|TRUE
5739865|Courtyard by Marriott Boston Downtown/North Station|Boston, MA| 187|42.36587| -71.05964|FALSE|TRUE|FALSE|TRUE
5739865|Beacon Hill Hotel|Boston, MA| 631|42.35682| -71.06963|FALSE|TRUE|TRUE|TRUE
5739865|The Newbury Boston|Boston, MA| 639|42.35293| -71.07149|FALSE|FALSE|TRUE|TRUE
5739865|The Charles Hotel|Boston, MA| 416|42.37229| -71.12298|FALSE|FALSE|TRUE|TRUE
5739865|Best Western Plus New Englander|Boston, MA| 110|42.48082| -71.11883|TRUE|FALSE|FALSE|TRUE
5739865|Mandarin Oriental Boston|Boston, MA| 751|42.34869| -71.08160|FALSE|FALSE|TRUE|TRUE
5739877|Best Western Plus New Englander|Boston, MA| 110|42.48082| -71.11883|TRUE|FALSE|FALSE|TRUE
5739877|Ramada by Wyndham Boston|Boston, MA| 118|42.29494| -71.04685|TRUE|FALSE|FALSE|TRUE
5739877|The Ritz-Carlton, Boston|Boston, MA| 751|42.35317| -71.06369|FALSE|FALSE|TRUE|TRUE
5739877|Four Points by Sheraton Boston Logan Airport Revere|Boston, MA|  97|42.42940| -71.01504|TRUE|FALSE|FALSE|TRUE
5739877|The Langham, Boston|Boston, MA| 519|42.35648| -71.05450|FALSE|FALSE|TRUE|TRUE
5739877|DoubleTree by Hilton Hotel Boston Bayside|Boston, MA| 115|42.32028| -71.04789|TRUE|FALSE|FALSE|TRUE
5739877|Four Seasons Hotel One Dalton Street, Boston|Boston, MA| 757|42.34571| -71.08394|FALSE|FALSE|TRUE|TRUE
5739877|Club Quarters Hotel Faneuil Hall, Boston|Boston, MA| 182|42.35621| -71.05753|FALSE|TRUE|FALSE|TRUE
5739877|XV Beacon|Boston, MA| 576|42.35832| -71.06193|FALSE|TRUE|TRUE|TRUE
5739877|Mandarin Oriental Boston|Boston, MA| 751|42.34869| -71.08160|FALSE|FALSE|TRUE|TRUE
5739877|Extended Stay America Suites - Boston - Saugus|Boston, MA|  90|42.46514| -71.01105|TRUE|FALSE|FALSE|TRUE
5739877|The Newbury Boston|Boston, MA| 639|42.35293| -71.07149|FALSE|FALSE|TRUE|TRUE
5739877|Kimpton Marlowe Hotel, an IHG Hotel|Boston, MA| 387|42.36787| -71.07494|FALSE|TRUE|FALSE|TRUE
5739877|Red Roof Inn PLUS+ Boston - Logan|Boston, MA|  90|42.36561| -71.00956|TRUE|FALSE|FALSE|TRUE
5739877|Holiday Inn Express Saugus (Logan Airport), an IHG Hotel|Boston, MA| 119|42.47113| -71.02571|TRUE|FALSE|FALSE|TRUE
5739877|The Boxer|Boston, MA| 200|42.36388| -71.06252|FALSE|TRUE|FALSE|TRUE
5739877|Comfort Inn Woburn - Boston|Boston, MA|  99|42.47895| -71.11530|TRUE|FALSE|FALSE|TRUE
5739877|Boston Marriott Cambridge|Boston, MA| 521|42.36327| -71.08593|FALSE|FALSE|TRUE|TRUE
5739877|Harborside Inn Of Boston|Boston, MA| 185|42.35927| -71.05283|FALSE|TRUE|FALSE|TRUE
5739877|Howard Johnson by Wyndham Quincy/Boston|Boston, MA| 113|42.26248| -71.01213|TRUE|FALSE|FALSE|TRUE
5739877|citizenM Boston North Station|Boston, MA| 174|42.36556| -71.06185|FALSE|TRUE|FALSE|TRUE
5739877|The Charles Hotel|Boston, MA| 416|42.37229| -71.12298|FALSE|FALSE|TRUE|TRUE
5739877|The Bostonian Boston|Boston, MA| 188|42.36106| -71.05591|FALSE|TRUE|FALSE|TRUE
5739877|Boston Harbor Hotel|Boston, MA| 654|42.35666| -71.05032|FALSE|FALSE|TRUE|TRUE
5739877|Courtyard by Marriott Boston Downtown/North Station|Boston, MA| 187|42.36587| -71.05964|FALSE|TRUE|FALSE|TRUE
5739877|The Farrington Inn|Boston, MA|  80|42.35426| -71.13089|TRUE|FALSE|FALSE|TRUE
5739877|Wyndham Boston Beacon Hill|Boston, MA| 197|42.36172| -71.06670|FALSE|TRUE|FALSE|TRUE
5739877|Beacon Hill Hotel|Boston, MA| 631|42.35682| -71.06963|FALSE|TRUE|TRUE|TRUE
5739895|Conrad New York Midtown|New York, NY| 584|40.76347| -73.98060|FALSE|FALSE|TRUE|TRUE
5739895|TRYP by Wyndham New York City Times Square / Midtown|New York, NY| 152|40.75378| -73.99462|FALSE|TRUE|FALSE|TRUE
5739895|The Towers at Lotte New York Palace|New York, NY| 910|40.75797| -73.97487|FALSE|FALSE|TRUE|TRUE
5739895|Loews Regency New York Hotel|New York, NY| 697|40.76457| -73.96901|FALSE|FALSE|TRUE|TRUE
5739895|Queens Hotel|New York, NY|  95|40.74128| -73.89991|TRUE|FALSE|FALSE|TRUE
5739895|Courtyard New York Manhattan/Times Square West|New York, NY| 188|40.75449| -73.99257|FALSE|TRUE|FALSE|TRUE
5739895|Knights Inn Brooklyn Sunset Park|New York, NY|  89|40.64684| -73.99677|TRUE|FALSE|FALSE|TRUE
5739895|The New Yorker A Wyndham Hotel|New York, NY| 180|40.75267| -73.99356|FALSE|TRUE|FALSE|TRUE
5739895|Hotel 21 Nyc|New York, NY|  93|40.75367| -73.94228|TRUE|FALSE|FALSE|TRUE
5739895|Quality Inn near Sunset Park|New York, NY|  90|40.65099| -74.01178|TRUE|FALSE|FALSE|TRUE
5739895|Hotel Barriere Fouquets New York|New York, NY|1068|40.72362| -74.00975|FALSE|FALSE|TRUE|TRUE
5739895|The Dominick|New York, NY| 623|40.72532| -74.00550|FALSE|FALSE|TRUE|TRUE
5739895|The Langham, New York, Fifth Avenue|New York, NY| 758|40.75014| -73.98353|FALSE|FALSE|TRUE|TRUE
5739895|Four Points By Sheraton Manhattan Midtown West|New York, NY| 164|40.75500| -73.99843|FALSE|TRUE|FALSE|TRUE
5739895|Equinox Hotel New York|New York, NY| 784|40.75465| -74.00221|FALSE|FALSE|TRUE|TRUE
5739895|Element New York Times Square West, a Marriott Hotel|New York, NY| 133|40.75584| -73.99178|FALSE|TRUE|FALSE|TRUE
5739895|1 Hotel Central Park|New York, NY| 668|40.76471| -73.97651|FALSE|FALSE|TRUE|TRUE
5739895|voco Times Square South, an IHG Hotel|New York, NY| 159|40.75445| -73.99410|FALSE|TRUE|FALSE|TRUE
5739895|Rodeway Inn Meadowlands|New York, NY|  94|40.79292| -74.05712|TRUE|FALSE|FALSE|TRUE
5739895|Pendry Manhattan West|New York, NY| 682|40.75316| -73.99849|FALSE|TRUE|TRUE|TRUE
5739895|The Central Park North|New York, NY|  94|40.79975| -73.95360|TRUE|FALSE|FALSE|TRUE
5739895|Conrad New York Downtown|New York, NY| 539|40.71496| -74.01569|FALSE|FALSE|TRUE|TRUE
5739895|Super Lake Hotel|New York, NY|  96|40.76142| -73.83268|TRUE|FALSE|FALSE|TRUE
5739895|LIC Hotel|New York, NY|  95|40.74468| -73.94854|TRUE|FALSE|FALSE|TRUE
5739895|Cambria Hotel New York - Chelsea|New York, NY| 165|40.74670| -73.99161|FALSE|TRUE|FALSE|TRUE
5739895|Best Western Plus Plaza Hotel|New York, NY|  91|40.75583| -73.94106|TRUE|FALSE|FALSE|TRUE
5739895|DoubleTree by Hilton New York City - Chelsea|New York, NY| 131|40.74699| -73.99138|FALSE|TRUE|FALSE|TRUE
5739895|Doubletree by Hilton New York Times Square South|New York, NY| 144|40.75380| -73.99272|FALSE|TRUE|FALSE|TRUE
5739895|Flushing Hotel|New York, NY|  72|40.76208| -73.83163|TRUE|FALSE|FALSE|TRUE
5739902|1 Hotel Central Park|New York, NY| 668|40.76471| -73.97651|FALSE|FALSE|TRUE|TRUE
5739902|Equinox Hotel New York|New York, NY| 784|40.75465| -74.00221|FALSE|FALSE|TRUE|TRUE
5739902|Conrad New York Midtown|New York, NY| 584|40.76347| -73.98060|FALSE|FALSE|TRUE|TRUE
5739902|Four Points By Sheraton Manhattan Midtown West|New York, NY| 164|40.75500| -73.99843|FALSE|TRUE|FALSE|TRUE
5739902|Loews Regency New York Hotel|New York, NY| 697|40.76457| -73.96901|FALSE|FALSE|TRUE|TRUE
5739902|Conrad New York Downtown|New York, NY| 539|40.71496| -74.01569|FALSE|FALSE|TRUE|TRUE
5739902|voco Times Square South, an IHG Hotel|New York, NY| 159|40.75445| -73.99410|FALSE|TRUE|FALSE|TRUE
5739902|The Central Park North|New York, NY|  94|40.79975| -73.95360|TRUE|FALSE|FALSE|TRUE
5739902|Doubletree by Hilton New York Times Square South|New York, NY| 144|40.75380| -73.99272|FALSE|TRUE|FALSE|TRUE
5739902|TRYP by Wyndham New York City Times Square / Midtown|New York, NY| 152|40.75378| -73.99462|FALSE|TRUE|FALSE|TRUE
5739902|The Dominick|New York, NY| 623|40.72532| -74.00550|FALSE|FALSE|TRUE|TRUE
5739902|The New Yorker A Wyndham Hotel|New York, NY| 180|40.75267| -73.99356|FALSE|TRUE|FALSE|TRUE
5739902|Courtyard New York Manhattan/Times Square West|New York, NY| 188|40.75449| -73.99257|FALSE|TRUE|FALSE|TRUE
5739902|DoubleTree by Hilton New York City - Chelsea|New York, NY| 131|40.74699| -73.99138|FALSE|TRUE|FALSE|TRUE
5739902|Cambria Hotel New York - Chelsea|New York, NY| 165|40.74670| -73.99161|FALSE|TRUE|FALSE|TRUE
5739902|Best Western Plus Plaza Hotel|New York, NY|  91|40.75583| -73.94106|TRUE|FALSE|FALSE|TRUE
5739902|Hotel Barriere Fouquets New York|New York, NY|1068|40.72362| -74.00975|FALSE|FALSE|TRUE|TRUE
5739902|Pendry Manhattan West|New York, NY| 682|40.75316| -73.99849|FALSE|TRUE|TRUE|TRUE
5739902|Knights Inn Brooklyn Sunset Park|New York, NY|  89|40.64684| -73.99677|TRUE|FALSE|FALSE|TRUE
5739902|Flushing Hotel|New York, NY|  72|40.76208| -73.83163|TRUE|FALSE|FALSE|TRUE
5739902|The Towers at Lotte New York Palace|New York, NY| 910|40.75797| -73.97487|FALSE|FALSE|TRUE|TRUE
5739902|Hotel 21 Nyc|New York, NY|  93|40.75367| -73.94228|TRUE|FALSE|FALSE|TRUE
5739902|Rodeway Inn Meadowlands|New York, NY|  94|40.79292| -74.05712|TRUE|FALSE|FALSE|TRUE
5739902|LIC Hotel|New York, NY|  95|40.74468| -73.94854|TRUE|FALSE|FALSE|TRUE
5739902|Queens Hotel|New York, NY|  95|40.74128| -73.89991|TRUE|FALSE|FALSE|TRUE
5739902|Element New York Times Square West, a Marriott Hotel|New York, NY| 133|40.75584| -73.99178|FALSE|TRUE|FALSE|TRUE
5739902|The Langham, New York, Fifth Avenue|New York, NY| 748|40.75014| -73.98353|FALSE|FALSE|TRUE|TRUE
5739902|Quality Inn near Sunset Park|New York, NY|  90|40.65099| -74.01178|TRUE|FALSE|FALSE|TRUE
5739902|Super Lake Hotel|New York, NY|  96|40.76142| -73.83268|TRUE|FALSE|FALSE|TRUE
5739907|The New Yorker A Wyndham Hotel|New York, NY| 180|40.75267| -73.99356|FALSE|TRUE|FALSE|TRUE
5739907|Equinox Hotel New York|New York, NY| 784|40.75465| -74.00221|FALSE|FALSE|TRUE|TRUE
5739907|The Dominick|New York, NY| 623|40.72532| -74.00550|FALSE|FALSE|TRUE|TRUE
5739907|DoubleTree by Hilton New York City - Chelsea|New York, NY| 131|40.74699| -73.99138|FALSE|TRUE|FALSE|TRUE
5739907|Conrad New York Midtown|New York, NY| 584|40.76347| -73.98060|FALSE|FALSE|TRUE|TRUE
5739907|1 Hotel Central Park|New York, NY| 668|40.76471| -73.97651|FALSE|FALSE|TRUE|TRUE
5739907|Queens Hotel|New York, NY|  95|40.74128| -73.89991|TRUE|FALSE|FALSE|TRUE
5739907|The Central Park North|New York, NY|  94|40.79975| -73.95360|TRUE|FALSE|FALSE|TRUE
5739907|Rodeway Inn Meadowlands|New York, NY|  94|40.79292| -74.05712|TRUE|FALSE|FALSE|TRUE
5739907|TRYP by Wyndham New York City Times Square / Midtown|New York, NY| 152|40.75378| -73.99462|FALSE|TRUE|FALSE|TRUE
5739907|Hotel Barriere Fouquets New York|New York, NY|1068|40.72362| -74.00975|FALSE|FALSE|TRUE|TRUE
5739907|The Towers at Lotte New York Palace|New York, NY| 910|40.75797| -73.97487|FALSE|FALSE|TRUE|TRUE
5739907|Loews Regency New York Hotel|New York, NY| 697|40.76457| -73.96901|FALSE|FALSE|TRUE|TRUE
5739907|Knights Inn Brooklyn Sunset Park|New York, NY|  89|40.64684| -73.99677|TRUE|FALSE|FALSE|TRUE
5739907|Best Western Plus Plaza Hotel|New York, NY|  91|40.75583| -73.94106|TRUE|FALSE|FALSE|TRUE
5739907|Courtyard New York Manhattan/Times Square West|New York, NY| 188|40.75449| -73.99257|FALSE|TRUE|FALSE|TRUE
5739907|Four Points By Sheraton Manhattan Midtown West|New York, NY| 164|40.75500| -73.99843|FALSE|TRUE|FALSE|TRUE
5739907|The Langham, New York, Fifth Avenue|New York, NY| 748|40.75014| -73.98353|FALSE|FALSE|TRUE|TRUE
5739907|Element New York Times Square West, a Marriott Hotel|New York, NY| 133|40.75584| -73.99178|FALSE|TRUE|FALSE|TRUE
5739907|voco Times Square South, an IHG Hotel|New York, NY| 159|40.75445| -73.99410|FALSE|TRUE|FALSE|TRUE
5739907|Doubletree by Hilton New York Times Square South|New York, NY| 144|40.75380| -73.99272|FALSE|TRUE|FALSE|TRUE
5739907|Hotel 21 Nyc|New York, NY|  93|40.75367| -73.94228|TRUE|FALSE|FALSE|TRUE
5739907|LIC Hotel|New York, NY|  95|40.74468| -73.94854|TRUE|FALSE|FALSE|TRUE
5739907|Conrad New York Downtown|New York, NY| 539|40.71496| -74.01569|FALSE|FALSE|TRUE|TRUE
5739907|Super Lake Hotel|New York, NY|  96|40.76142| -73.83268|TRUE|FALSE|FALSE|TRUE
5739907|Pendry Manhattan West|New York, NY| 682|40.75316| -73.99849|FALSE|TRUE|TRUE|TRUE
5739907|Cambria Hotel New York - Chelsea|New York, NY| 165|40.74670| -73.99161|FALSE|TRUE|FALSE|TRUE
5739907|Quality Inn near Sunset Park|New York, NY|  90|40.65099| -74.01178|TRUE|FALSE|FALSE|TRUE
5739907|Flushing Hotel|New York, NY|  72|40.76208| -73.83163|TRUE|FALSE|FALSE|TRUE
5739919|Equinox Hotel New York|New York, NY| 784|40.75465| -74.00221|FALSE|FALSE|TRUE|TRUE
5739919|The New Yorker A Wyndham Hotel|New York, NY| 180|40.75267| -73.99356|FALSE|TRUE|FALSE|TRUE
5739919|DoubleTree by Hilton New York City - Chelsea|New York, NY| 131|40.74699| -73.99138|FALSE|TRUE|FALSE|TRUE
5739919|The Central Park North|New York, NY|  94|40.79975| -73.95360|TRUE|FALSE|FALSE|TRUE
5739919|1 Hotel Central Park|New York, NY| 668|40.76471| -73.97651|FALSE|FALSE|TRUE|TRUE
5739919|Super Lake Hotel|New York, NY|  96|40.76142| -73.83268|TRUE|FALSE|FALSE|TRUE
5739919|Four Points By Sheraton Manhattan Midtown West|New York, NY| 164|40.75500| -73.99843|FALSE|TRUE|FALSE|TRUE
5739919|Queens Hotel|New York, NY|  95|40.74128| -73.89991|TRUE|FALSE|FALSE|TRUE
5739919|The Dominick|New York, NY| 623|40.72532| -74.00550|FALSE|FALSE|TRUE|TRUE
5739919|Hotel 21 Nyc|New York, NY|  93|40.75367| -73.94228|TRUE|FALSE|FALSE|TRUE
5739919|Cambria Hotel New York - Chelsea|New York, NY| 165|40.74670| -73.99161|FALSE|TRUE|FALSE|TRUE
5739919|Best Western Plus Plaza Hotel|New York, NY|  91|40.75583| -73.94106|TRUE|FALSE|FALSE|TRUE
5739919|Doubletree by Hilton New York Times Square South|New York, NY| 144|40.75380| -73.99272|FALSE|TRUE|FALSE|TRUE
5739919|TRYP by Wyndham New York City Times Square / Midtown|New York, NY| 152|40.75378| -73.99462|FALSE|TRUE|FALSE|TRUE
5739919|Rodeway Inn Meadowlands|New York, NY|  94|40.79292| -74.05712|TRUE|FALSE|FALSE|TRUE
5739919|LIC Hotel|New York, NY|  95|40.74468| -73.94854|TRUE|FALSE|FALSE|TRUE
5739919|The Towers at Lotte New York Palace|New York, NY| 910|40.75797| -73.97487|FALSE|FALSE|TRUE|TRUE
5739919|Quality Inn near Sunset Park|New York, NY|  90|40.65099| -74.01178|TRUE|FALSE|FALSE|TRUE
5739919|Knights Inn Brooklyn Sunset Park|New York, NY|  89|40.64684| -73.99677|TRUE|FALSE|FALSE|TRUE
5739919|Conrad New York Midtown|New York, NY| 584|40.76347| -73.98060|FALSE|FALSE|TRUE|TRUE
5739919|Element New York Times Square West, a Marriott Hotel|New York, NY| 133|40.75584| -73.99178|FALSE|TRUE|FALSE|TRUE
5739919|Flushing Hotel|New York, NY|  64|40.76208| -73.83163|TRUE|FALSE|FALSE|TRUE
5739919|Hotel Barriere Fouquets New York|New York, NY|1068|40.72362| -74.00975|FALSE|FALSE|TRUE|TRUE
5739919|Courtyard New York Manhattan/Times Square West|New York, NY| 188|40.75449| -73.99257|FALSE|TRUE|FALSE|TRUE
5739919|voco Times Square South, an IHG Hotel|New York, NY| 159|40.75445| -73.99410|FALSE|TRUE|FALSE|TRUE
5739919|Conrad New York Downtown|New York, NY| 539|40.71496| -74.01569|FALSE|FALSE|TRUE|TRUE
5739919|Pendry Manhattan West|New York, NY| 682|40.75316| -73.99849|FALSE|TRUE|TRUE|TRUE
5739919|Loews Regency New York Hotel|New York, NY| 697|40.76457| -73.96901|FALSE|FALSE|TRUE|TRUE
5739919|The Langham, New York, Fifth Avenue|New York, NY| 758|40.75014| -73.98353|FALSE|FALSE|TRUE|TRUE
5739923|The Central Park North|New York, NY|  94|40.79975| -73.95360|TRUE|FALSE|FALSE|TRUE
5739923|Hotel Barriere Fouquets New York|New York, NY|1068|40.72362| -74.00975|FALSE|FALSE|TRUE|TRUE
5739923|Conrad New York Midtown|New York, NY| 584|40.76347| -73.98060|FALSE|FALSE|TRUE|TRUE
5739923|Equinox Hotel New York|New York, NY| 784|40.75465| -74.00221|FALSE|FALSE|TRUE|TRUE
5739923|Quality Inn near Sunset Park|New York, NY|  90|40.65099| -74.01178|TRUE|FALSE|FALSE|TRUE
5739923|TRYP by Wyndham New York City Times Square / Midtown|New York, NY| 152|40.75378| -73.99462|FALSE|TRUE|FALSE|TRUE
5739923|Best Western Plus Plaza Hotel|New York, NY|  91|40.75583| -73.94106|TRUE|FALSE|FALSE|TRUE
5739923|Hotel 21 Nyc|New York, NY|  93|40.75367| -73.94228|TRUE|FALSE|FALSE|TRUE
5739923|Super Lake Hotel|New York, NY|  96|40.76142| -73.83268|TRUE|FALSE|FALSE|TRUE
5739923|Knights Inn Brooklyn Sunset Park|New York, NY|  89|40.64684| -73.99677|TRUE|FALSE|FALSE|TRUE
5739923|Element New York Times Square West, a Marriott Hotel|New York, NY| 133|40.75584| -73.99178|FALSE|TRUE|FALSE|TRUE
5739923|Loews Regency New York Hotel|New York, NY| 697|40.76457| -73.96901|FALSE|FALSE|TRUE|TRUE
5739923|voco Times Square South, an IHG Hotel|New York, NY| 159|40.75445| -73.99410|FALSE|TRUE|FALSE|TRUE
5739923|Cambria Hotel New York - Chelsea|New York, NY| 165|40.74670| -73.99161|FALSE|TRUE|FALSE|TRUE
5739923|Flushing Hotel|New York, NY|  72|40.76208| -73.83163|TRUE|FALSE|FALSE|TRUE
5739923|Queens Hotel|New York, NY|  95|40.74128| -73.89991|TRUE|FALSE|FALSE|TRUE
5739923|1 Hotel Central Park|New York, NY| 668|40.76471| -73.97651|FALSE|FALSE|TRUE|TRUE
5739923|The Dominick|New York, NY| 623|40.72532| -74.00550|FALSE|FALSE|TRUE|TRUE
5739923|Four Points By Sheraton Manhattan Midtown West|New York, NY| 164|40.75500| -73.99843|FALSE|TRUE|FALSE|TRUE
5739923|Pendry Manhattan West|New York, NY| 682|40.75316| -73.99849|FALSE|TRUE|TRUE|TRUE
5739923|Courtyard New York Manhattan/Times Square West|New York, NY| 188|40.75449| -73.99257|FALSE|TRUE|FALSE|TRUE
5739923|Conrad New York Downtown|New York, NY| 539|40.71496| -74.01569|FALSE|FALSE|TRUE|TRUE
5739923|Rodeway Inn Meadowlands|New York, NY|  94|40.79292| -74.05712|TRUE|FALSE|FALSE|TRUE
5739923|DoubleTree by Hilton New York City - Chelsea|New York, NY| 131|40.74699| -73.99138|FALSE|TRUE|FALSE|TRUE
5739923|The Towers at Lotte New York Palace|New York, NY| 910|40.75797| -73.97487|FALSE|FALSE|TRUE|TRUE
5739923|Doubletree by Hilton New York Times Square South|New York, NY| 144|40.75380| -73.99272|FALSE|TRUE|FALSE|TRUE
5739923|The New Yorker A Wyndham Hotel|New York, NY| 180|40.75267| -73.99356|FALSE|TRUE|FALSE|TRUE
5739923|LIC Hotel|New York, NY|  95|40.74468| -73.94854|TRUE|FALSE|FALSE|TRUE
5739923|The Langham, New York, Fifth Avenue|New York, NY| 748|40.75014| -73.98353|FALSE|FALSE|TRUE|TRUE
5739931|Suburban Extended Stay Hotel Denver Central-Arvada|Denver, CO|  70|39.81397|-105.05383|TRUE|FALSE|FALSE|TRUE
5739931|Residence Inn by Marriott Denver City Center|Denver, CO| 162|39.74805|-104.99222|FALSE|TRUE|FALSE|TRUE
5739931|Quality Inn Denver Westminster|Denver, CO|  79|39.85124|-105.04978|TRUE|FALSE|FALSE|TRUE
5739931|Tru By Hilton Denver Downtown Convention Center|Denver, CO| 152|39.74523|-104.99427|FALSE|TRUE|FALSE|TRUE
5739931|La Quinta Inn by Wyndham Denver Westminster|Denver, CO|  84|39.85300|-105.05179|TRUE|FALSE|FALSE|TRUE
5739931|The Rally Hotel|Denver, CO| 239|39.75532|-104.99612|FALSE|TRUE|TRUE|TRUE
5739931|The Curtis Denver - a DoubleTree by Hilton Hotel|Denver, CO| 176|39.74573|-104.99707|FALSE|TRUE|TRUE|TRUE
5739931|Le Meridien Denver Downtown|Denver, CO| 192|39.74412|-104.99392|FALSE|TRUE|TRUE|TRUE
5739931|Four Seasons Hotel Denver|Denver, CO| 828|39.74648|-104.99819|FALSE|TRUE|TRUE|TRUE
5739931|Super 8 by Wyndham Henderson North East Denver|Denver, CO|  69|39.86165|-104.91073|TRUE|FALSE|FALSE|TRUE
5739931|Kimpton Hotel Born, an IHG Hotel|Denver, CO| 373|39.75327|-105.00203|FALSE|TRUE|TRUE|TRUE
5739931|Super 8 by Wyndham Denver Central|Denver, CO|  78|39.80329|-104.98653|TRUE|FALSE|FALSE|TRUE
5739931|The Slate Denver, Tapestry Collection By Hilton|Denver, CO| 198|39.74091|-104.99477|FALSE|FALSE|TRUE|TRUE
5739931|HomeTowne Studios by Red Roof Denver - Thornton|Denver, CO|  69|39.91235|-104.98863|TRUE|FALSE|FALSE|TRUE
5739931|The Crawford Hotel|Denver, CO| 420|39.75299|-104.99995|FALSE|TRUE|TRUE|TRUE
5739931|HomeTowne Studios by Red Roof Denver - Lakewood West|Denver, CO|  55|39.72818|-105.11027|TRUE|FALSE|FALSE|TRUE
5739931|Hilton Denver City Center|Denver, CO| 208|39.74720|-104.99052|FALSE|FALSE|TRUE|TRUE
5739931|SpringHill Suites by Marriott Denver Downtown|Denver, CO| 169|39.74729|-105.00414|FALSE|TRUE|FALSE|TRUE
5739931|HomeTowne Studios by Red Roof Denver - Glendale/Cherry Creek|Denver, CO|  80|39.70810|-104.93090|TRUE|FALSE|FALSE|TRUE
5739931|La Quinta Inn by Wyndham Denver Golden|Denver, CO|  81|39.76414|-105.14435|TRUE|FALSE|FALSE|TRUE
5739931|The Ritz-Carlton, Denver|Denver, CO| 601|39.75014|-104.99188|FALSE|FALSE|TRUE|TRUE
5739931|Americas Best Value Inn Denver|Denver, CO|  84|39.77242|-104.84902|TRUE|FALSE|FALSE|TRUE
5739931|Baymont by Wyndham Golden/Red Rocks|Denver, CO|  81|39.72645|-105.13097|TRUE|FALSE|FALSE|TRUE
5739931|Sheraton Denver Downtown Hotel|Denver, CO|2951|39.74242|-104.98958|FALSE|FALSE|TRUE|TRUE
5739931|Hilton Garden Inn Denver Union Station, CO|Denver, CO| 176|39.75754|-104.99931|FALSE|TRUE|TRUE|TRUE
5739942|Tru By Hilton Denver Downtown Convention Center|Denver, CO| 152|39.74523|-104.99427|FALSE|TRUE|FALSE|TRUE
5739942|HomeTowne Studios by Red Roof Denver - Thornton|Denver, CO|  69|39.91235|-104.98863|TRUE|FALSE|FALSE|TRUE
5739942|Super 8 by Wyndham Henderson North East Denver|Denver, CO|  69|39.86165|-104.91073|TRUE|FALSE|FALSE|TRUE
5739942|The Crawford Hotel|Denver, CO| 420|39.75299|-104.99995|FALSE|TRUE|TRUE|TRUE
5739942|Four Seasons Hotel Denver|Denver, CO| 828|39.74648|-104.99819|FALSE|TRUE|TRUE|TRUE
5739942|Suburban Extended Stay Hotel Denver Central-Arvada|Denver, CO|  70|39.81397|-105.05383|TRUE|FALSE|FALSE|TRUE
5739942|Residence Inn Denver Cherry Creek|Denver, CO| 375|39.71780|-104.95022|FALSE|FALSE|TRUE|TRUE
5739942|Le Meridien Denver Downtown|Denver, CO| 192|39.74412|-104.99392|FALSE|TRUE|TRUE|TRUE
5739942|Baymont by Wyndham Golden/Red Rocks|Denver, CO|  81|39.72645|-105.13097|TRUE|FALSE|FALSE|TRUE
5739942|The Ritz-Carlton, Denver|Denver, CO| 601|39.75014|-104.99188|FALSE|FALSE|TRUE|TRUE
5739942|Hilton Denver City Center|Denver, CO| 207|39.74720|-104.99052|FALSE|FALSE|TRUE|TRUE
5739942|The Curtis Denver - a DoubleTree by Hilton Hotel|Denver, CO| 176|39.74573|-104.99707|FALSE|TRUE|FALSE|TRUE
5739942|La Quinta Inn by Wyndham Denver Golden|Denver, CO|  81|39.76414|-105.14435|TRUE|FALSE|FALSE|TRUE
5739942|Residence Inn by Marriott Denver City Center|Denver, CO| 162|39.74805|-104.99222|FALSE|TRUE|FALSE|TRUE
5739942|HomeTowne Studios by Red Roof Denver - Glendale/Cherry Creek|Denver, CO|  80|39.70810|-104.93090|TRUE|FALSE|FALSE|TRUE
5739942|Super 8 by Wyndham Denver Central|Denver, CO|  78|39.80329|-104.98653|TRUE|FALSE|FALSE|TRUE
5739942|Sheraton Denver Downtown Hotel|Denver, CO|2951|39.74242|-104.98958|FALSE|FALSE|TRUE|TRUE
5739942|Hilton Garden Inn Denver Union Station, CO|Denver, CO| 176|39.75754|-104.99931|FALSE|TRUE|FALSE|TRUE
5739942|Kimpton Hotel Born, an IHG Hotel|Denver, CO| 373|39.75327|-105.00203|FALSE|TRUE|TRUE|TRUE
5739942|HomeTowne Studios by Red Roof Denver - Lakewood West|Denver, CO|  55|39.72818|-105.11027|TRUE|FALSE|FALSE|TRUE
5739942|The Rally Hotel|Denver, CO| 239|39.75532|-104.99612|FALSE|TRUE|TRUE|TRUE
5739942|The Slate Denver, Tapestry Collection By Hilton|Denver, CO| 198|39.74091|-104.99477|FALSE|FALSE|TRUE|TRUE
5739942|La Quinta Inn by Wyndham Denver Westminster|Denver, CO|  84|39.85300|-105.05179|TRUE|FALSE|FALSE|TRUE
5739942|Quality Inn Denver Westminster|Denver, CO|  79|39.85124|-105.04978|TRUE|FALSE|FALSE|TRUE
5739942|SpringHill Suites by Marriott Denver Downtown|Denver, CO| 169|39.74729|-105.00414|FALSE|TRUE|FALSE|TRUE
5739942|Americas Best Value Inn Denver|Denver, CO|  84|39.77242|-104.84902|TRUE|FALSE|FALSE|TRUE
5739954|Four Seasons Hotel Denver|Denver, CO| 828|39.74648|-104.99819|FALSE|TRUE|TRUE|TRUE
5739954|Tru By Hilton Denver Downtown Convention Center|Denver, CO| 152|39.74523|-104.99427|FALSE|TRUE|FALSE|TRUE
5739954|La Quinta Inn by Wyndham Denver Westminster|Denver, CO|  84|39.85300|-105.05179|TRUE|FALSE|FALSE|TRUE
5739954|Super 8 by Wyndham Henderson North East Denver|Denver, CO|  69|39.86165|-104.91073|TRUE|FALSE|FALSE|TRUE
5739954|Hilton Garden Inn Denver Union Station, CO|Denver, CO| 176|39.75754|-104.99931|FALSE|TRUE|TRUE|TRUE
5739954|The Curtis Denver - a DoubleTree by Hilton Hotel|Denver, CO| 176|39.74573|-104.99707|FALSE|TRUE|TRUE|TRUE
5739954|SpringHill Suites by Marriott Denver Downtown|Denver, CO| 169|39.74729|-105.00414|FALSE|TRUE|FALSE|TRUE
5739954|The Ritz-Carlton, Denver|Denver, CO| 601|39.75014|-104.99188|FALSE|FALSE|TRUE|TRUE
5739954|Super 8 by Wyndham Denver Central|Denver, CO|  78|39.80329|-104.98653|TRUE|FALSE|FALSE|TRUE
5739954|The Rally Hotel|Denver, CO| 239|39.75532|-104.99612|FALSE|TRUE|TRUE|TRUE
5739954|HomeTowne Studios by Red Roof Denver - Glendale/Cherry Creek|Denver, CO|  80|39.70810|-104.93090|TRUE|FALSE|FALSE|TRUE
5739954|The Slate Denver, Tapestry Collection By Hilton|Denver, CO| 198|39.74091|-104.99477|FALSE|FALSE|TRUE|TRUE
5739954|The Crawford Hotel|Denver, CO| 420|39.75299|-104.99995|FALSE|TRUE|TRUE|TRUE
5739954|Le Meridien Denver Downtown|Denver, CO| 192|39.74412|-104.99392|FALSE|TRUE|TRUE|TRUE
5739954|HomeTowne Studios by Red Roof Denver - Thornton|Denver, CO|  69|39.91235|-104.98863|TRUE|FALSE|FALSE|TRUE
5739954|Suburban Extended Stay Hotel Denver Central-Arvada|Denver, CO|  70|39.81397|-105.05383|TRUE|FALSE|FALSE|TRUE
5739954|Sheraton Denver Downtown Hotel|Denver, CO|2951|39.74242|-104.98958|FALSE|FALSE|TRUE|TRUE
5739954|Hilton Denver City Center|Denver, CO| 208|39.74720|-104.99052|FALSE|FALSE|TRUE|TRUE
5739954|Residence Inn by Marriott Denver City Center|Denver, CO| 162|39.74805|-104.99222|FALSE|TRUE|FALSE|TRUE
5739954|Baymont by Wyndham Golden/Red Rocks|Denver, CO|  81|39.72645|-105.13097|TRUE|FALSE|FALSE|TRUE
5739954|Kimpton Hotel Born, an IHG Hotel|Denver, CO| 373|39.75327|-105.00203|FALSE|TRUE|TRUE|TRUE
5739954|Quality Inn Denver Westminster|Denver, CO|  79|39.85124|-105.04978|TRUE|FALSE|FALSE|TRUE
5739954|La Quinta Inn by Wyndham Denver Golden|Denver, CO|  81|39.76414|-105.14435|TRUE|FALSE|FALSE|TRUE
5739954|Americas Best Value Inn Denver|Denver, CO|  84|39.77242|-104.84902|TRUE|FALSE|FALSE|TRUE
5739954|HomeTowne Studios by Red Roof Denver - Lakewood West|Denver, CO|  55|39.72818|-105.11027|TRUE|FALSE|FALSE|TRUE
5739964|Kimpton Hotel Born, an IHG Hotel|Denver, CO| 373|39.75327|-105.00203|FALSE|TRUE|TRUE|TRUE
5739964|The Rally Hotel|Denver, CO| 239|39.75532|-104.99612|FALSE|TRUE|TRUE|TRUE
5739964|Residence Inn by Marriott Denver City Center|Denver, CO| 162|39.74805|-104.99222|FALSE|TRUE|FALSE|TRUE
5739964|The Curtis Denver - a DoubleTree by Hilton Hotel|Denver, CO| 176|39.74573|-104.99707|FALSE|TRUE|TRUE|TRUE
5739964|Four Seasons Hotel Denver|Denver, CO| 828|39.74648|-104.99819|FALSE|TRUE|TRUE|TRUE
5739964|HomeTowne Studios by Red Roof Denver - Thornton|Denver, CO|  69|39.91235|-104.98863|TRUE|FALSE|FALSE|TRUE
5739964|Super 8 by Wyndham Denver Central|Denver, CO|  78|39.80329|-104.98653|TRUE|FALSE|FALSE|TRUE
5739964|The Slate Denver, Tapestry Collection By Hilton|Denver, CO| 198|39.74091|-104.99477|FALSE|FALSE|TRUE|TRUE
5739964|Tru By Hilton Denver Downtown Convention Center|Denver, CO| 152|39.74523|-104.99427|FALSE|TRUE|FALSE|TRUE
5739964|HomeTowne Studios by Red Roof Denver - Lakewood West|Denver, CO|  55|39.72818|-105.11027|TRUE|FALSE|FALSE|TRUE
5739964|Americas Best Value Inn Denver|Denver, CO|  84|39.77242|-104.84902|TRUE|FALSE|FALSE|TRUE
5739964|Sheraton Denver Downtown Hotel|Denver, CO|2951|39.74242|-104.98958|FALSE|FALSE|TRUE|TRUE
5739964|Hilton Denver City Center|Denver, CO| 208|39.74720|-104.99052|FALSE|FALSE|TRUE|TRUE
5739964|Baymont by Wyndham Golden/Red Rocks|Denver, CO|  81|39.72645|-105.13097|TRUE|FALSE|FALSE|TRUE
5739964|The Crawford Hotel|Denver, CO| 420|39.75299|-104.99995|FALSE|TRUE|TRUE|TRUE
5739964|SpringHill Suites by Marriott Denver Downtown|Denver, CO| 169|39.74729|-105.00414|FALSE|TRUE|FALSE|TRUE
5739964|Le Meridien Denver Downtown|Denver, CO| 192|39.74412|-104.99392|FALSE|TRUE|TRUE|TRUE
5739964|Suburban Extended Stay Hotel Denver Central-Arvada|Denver, CO|  70|39.81397|-105.05383|TRUE|FALSE|FALSE|TRUE
5739964|HomeTowne Studios by Red Roof Denver - Glendale/Cherry Creek|Denver, CO|  80|39.70810|-104.93090|TRUE|FALSE|FALSE|TRUE
5739964|Hilton Garden Inn Denver Union Station, CO|Denver, CO| 176|39.75754|-104.99931|FALSE|TRUE|TRUE|TRUE
5739964|The Ritz-Carlton, Denver|Denver, CO| 601|39.75014|-104.99188|FALSE|FALSE|TRUE|TRUE
5739964|Quality Inn Denver Westminster|Denver, CO|  79|39.85124|-105.04978|TRUE|FALSE|FALSE|TRUE
5739964|Super 8 by Wyndham Henderson North East Denver|Denver, CO|  69|39.86165|-104.91073|TRUE|FALSE|FALSE|TRUE
5739964|La Quinta Inn by Wyndham Denver Golden|Denver, CO|  81|39.76414|-105.14435|TRUE|FALSE|FALSE|TRUE
5739964|La Quinta Inn by Wyndham Denver Westminster|Denver, CO|  84|39.85300|-105.05179|TRUE|FALSE|FALSE|TRUE
5739977|Econo Lodge Busch Gardens|Tampa, FL|  99|28.03202| -82.44045|TRUE|FALSE|FALSE|TRUE
5739977|Grand Hyatt Tampa Bay|Tampa, FL| 416|27.96532| -82.55006|FALSE|FALSE|TRUE|TRUE
5739977|Hyatt Place Tampa Downtown|Tampa, FL| 317|27.94781| -82.45653|FALSE|TRUE|FALSE|TRUE
5739977|WoodSpring Suites Tampa Airport North Veterans Expressway|Tampa, FL| 158|28.03423| -82.54336|TRUE|FALSE|FALSE|TRUE
5739977|Renaissance Tampa International Plaza Hotel|Tampa, FL| 407|27.96584| -82.51992|FALSE|FALSE|TRUE|TRUE
5739977|Seminole Hard Rock Hotel & Casino Tampa|Tampa, FL| 453|27.99338| -82.37198|FALSE|FALSE|TRUE|TRUE
5739977|Ramada by Wyndham Temple Terrace/Tampa North|Tampa, FL| 124|28.05558| -82.36108|TRUE|FALSE|FALSE|TRUE
5739977|Embassy Suites by Hilton Tampa Downtown Convention Center|Tampa, FL| 329|27.94232| -82.45476|FALSE|TRUE|FALSE|TRUE
5739977|Hotel Tampa Riverwalk|Tampa, FL| 292|27.94467| -82.45879|FALSE|TRUE|FALSE|TRUE
5739977|Le Mridien Tampa, The Courthouse|Tampa, FL| 409|27.95007| -82.45746|FALSE|FALSE|TRUE|TRUE
5739977|Tampa Marriott Water Street|Tampa, FL| 455|27.94091| -82.45387|FALSE|TRUE|TRUE|TRUE
5739977|Quality Inn & Suites Near Fairgrounds Ybor City|Tampa, FL| 151|27.96827| -82.40370|TRUE|FALSE|FALSE|TRUE
5739977|La Quinta Inn by Wyndham Tampa Near Busch Gardens|Tampa, FL| 134|28.03364| -82.42705|TRUE|FALSE|FALSE|TRUE
5739977|JW Marriott Tampa Water Street|Tampa, FL| 518|27.94191| -82.45367|FALSE|TRUE|TRUE|TRUE
5739977|The Tampa EDITION|Tampa, FL| 680|27.94369| -82.45085|FALSE|TRUE|TRUE|TRUE
5739977|The Westin Tampa Waterside|Tampa, FL| 346|27.93847| -82.45489|FALSE|TRUE|FALSE|TRUE
5739977|Quality Inn and Conference Center Tampa-Brandon|Tampa, FL| 157|28.05399| -82.42903|TRUE|FALSE|FALSE|TRUE
5739977|Tampa Airport Marriott|Tampa, FL| 407|27.98187| -82.53461|FALSE|FALSE|TRUE|TRUE
5739977|Epicurean Hotel, Autograph Collection|Tampa, FL| 580|27.93072| -82.48342|FALSE|FALSE|TRUE|TRUE
5739977|Rodeway Inn Near Ybor City - Casino|Tampa, FL| 113|27.96992| -82.40352|TRUE|FALSE|FALSE|TRUE
5739977|Hilton Tampa Downtown|Tampa, FL| 327|27.94640| -82.45807|FALSE|TRUE|FALSE|TRUE
5739977|Element Tampa Midtown, a Marriott Hotel|Tampa, FL| 402|27.95289| -82.50297|FALSE|FALSE|TRUE|TRUE
5739977|Aloft Tampa Downtown, a Marriott Hotel|Tampa, FL| 370|27.94680| -82.45990|FALSE|TRUE|FALSE|TRUE
5739977|Value Lodge Busch Gardens Tampa|Tampa, FL|  82|28.03707| -82.41946|TRUE|FALSE|FALSE|TRUE
5739977|Econo Lodge Airport at RJ Stadium|Tampa, FL| 115|27.97587| -82.50333|TRUE|FALSE|FALSE|TRUE
5739977|Hyatt House Tampa Downtown|Tampa, FL| 330|27.94749| -82.45660|FALSE|TRUE|FALSE|TRUE
5739977|Extended Stay America Suites Tampa Brandon|Tampa, FL| 156|27.98019| -82.33093|TRUE|FALSE|FALSE|TRUE
5739979|DoubleTree by Hilton Hotel Sunrise - Sawgrass Mills|Sunrise, FL| 286|26.14457| -80.32544|FALSE|TRUE|TRUE|TRUE
5739979|WoodSpring Suites Tamarac|Sunrise, FL| 147|26.19447| -80.29301|TRUE|TRUE|FALSE|TRUE
5739979|Courtyard By Marriott Fort Lauderdale Coral Springs|Sunrise, FL| 208|26.23842| -80.25681|FALSE|FALSE|TRUE|TRUE
5739979|Extended Stay America Suites Fort Lauderdale Tamarac|Sunrise, FL| 166|26.20169| -80.15288|TRUE|FALSE|FALSE|TRUE
5739979|HomeTowne Studios by Red Roof Fort Lauderdale|Sunrise, FL| 107|26.18739| -80.18639|TRUE|FALSE|FALSE|TRUE
5739979|Sheraton Suites Fort Lauderdale Plantation|Sunrise, FL| 284|26.12410| -80.25664|FALSE|TRUE|TRUE|TRUE
5739979|La Quinta Inn & Suites by Wyndham Sunrise|Sunrise, FL| 168|26.12339| -80.33189|TRUE|TRUE|FALSE|TRUE
5739979|Staybridge Suites Fort Lauderdale Airport - West, an IHG Hotel|Sunrise, FL| 246|26.06453| -80.21240|FALSE|FALSE|TRUE|TRUE
5739979|Renaissance Fort Lauderdale West Hotel|Sunrise, FL| 263|26.10388| -80.26272|FALSE|FALSE|TRUE|TRUE
5739979|AC Hotel Fort Lauderdale Sawgrass Mills / Sunrise|Sunrise, FL| 278|26.15016| -80.31874|FALSE|TRUE|TRUE|TRUE
5739979|Comfort Suites Sawgrass|Sunrise, FL| 191|26.19431| -80.26127|FALSE|TRUE|FALSE|TRUE
5739979|Courtyard by Marriott Fort Lauderdale Weston|Sunrise, FL| 304|26.09226| -80.36518|FALSE|TRUE|TRUE|TRUE
5739979|Plaza Hotel Fort Lauderdale|Sunrise, FL| 114|26.18931| -80.20270|TRUE|FALSE|FALSE|TRUE
5739979|Hampton Inn Ft Lauderdale-Plantation|Sunrise, FL| 182|26.11410| -80.25601|TRUE|FALSE|FALSE|TRUE
5739979|Chateau Mar Golf Resort, Trademark Collection by Wyndham|Sunrise, FL| 180|26.16978| -80.23631|TRUE|FALSE|FALSE|TRUE
5739979|Courtyard by Marriott Fort Lauderdale Plantation|Sunrise, FL| 268|26.11289| -80.25478|FALSE|FALSE|TRUE|TRUE
5739979|Residence Inn By Marriott Fort Lauderdale Weston|Sunrise, FL| 284|26.08613| -80.37267|FALSE|FALSE|TRUE|TRUE
5739979|Extended Stay America Suites Fort Lauderdale Davie|Sunrise, FL| 166|26.20169| -80.15288|TRUE|FALSE|FALSE|TRUE
